node_id,stop_id,stop_name,stop_lat,stop_lon
0,1,STAZIONE CENTRALE,44.5057657540716,11.3431758861234
1,10,PORTA GALLIERA,44.504442805503,11.3463873021933
2,100,PIAZZA MAGGIORE,44.4943691956065,11.3436722957927
3,1002,PORTA MAGGIORE,44.4898849255005,11.3581903991573
4,1003,PORTA MAGGIORE,44.489668939213,11.3582956726598
5,1004,ALBERTONI,44.4878311711816,11.3633683388953
6,1005,ALBERTONI,44.4879101706993,11.3629127090048
7,1006,ALEMANNI,44.4865626754936,11.3667684093116
8,1008,ALBERTONI,44.4885453486789,11.3615991792401
9,1009,ALEMANNI,44.4871147749892,11.3650788517963
10,1010,LAURA BASSI,44.4851723437726,11.3705099851703
11,1011,LAURA BASSI,44.4855122570974,11.3693958863619
12,1012,FERMI,44.4839384575828,11.3737578645519
13,1013,FERMI,44.4843990652125,11.3722525773315
14,1018,MAZZINI STAZIONE,44.483016427663,11.3759674764312
15,1019,MAZZINI STAZIONE,44.4827489584376,11.37654449817
16,1020,PONTEVECCHIO,44.4818873989634,11.379062980237
17,1021,PONTEVECCHIO,44.4814329197484,11.3804591620912
18,1022,VILLA PARADISO,44.4810778747592,11.3815921579444
19,1025,VILLA LAURA,44.4793325422621,11.3852549115654
20,1026,VILLA LAURA,44.4792122465658,11.385976173183
21,1027,ARNO,44.4771664352974,11.391191855134
22,1028,ARNO,44.4778238703326,11.38980964102
23,1031,EMILIA CALABRIA,44.4783685495426,11.3879536284577
24,1033,VILLAGGIO DUE MADONNE,44.4755991687058,11.3951756938237
25,1034,VILLAGGIO DUE MADONNE,44.4757173309454,11.3953094088794
26,1035,PARCO DEI CEDRI,44.4742933863829,11.3985979579821
27,1036,PARCO DEI CEDRI,44.4743838214985,11.3986590362839
28,104,RIZZOLI,44.4945724347408,11.3449487847084
29,105,RIZZOLI,44.4944553164964,11.3449162757739
30,108,PIAZZA MAGGIORE,44.4935884687953,11.3436821679875
31,109,RIZZOLI,44.494300393018,11.3459970829369
32,11,PORTA GALLIERA,44.5044916053095,11.3472431107419
33,1101,BITONE,44.4782024990308,11.3847805489785
34,1102,BITONE,44.4797996739114,11.383740654687
35,1103,SARDEGNA,44.4761317928045,11.38351973556
36,1104,LOMBARDIA,44.4772529509005,11.3848235813748
37,1105,CALABRIA,44.4744664325115,11.3824892603317
38,1106,SARDEGNA,44.4757420824407,11.3839942309949
39,1109,MILANO,44.4731511477407,11.3813732988356
40,111,STRADA MAGGIORE,44.4927036861207,11.3502593697618
41,1110,CALABRIA,44.474581459345,11.3828821562508
42,1111,CHIESA SAN LORENZO,44.4720563524881,11.3827416293725
43,1112,CHIESA SAN LORENZO,44.4726061035388,11.3816615207097
44,1114,MAZZONI,44.4715350982847,11.3856348979599
45,1117,MAZZONI,44.471480214496,11.3852994862165
46,1118,FIRENZE,44.4699653571492,11.3856306363994
47,1119,FIRENZE,44.4707678694155,11.3857576391853
48,112,PIAZZA GALVANI,44.4921457058788,11.3432715957715
49,1120,LONGO CAVAZZONI,44.4682072669164,11.3852156195874
50,1121,LONGO CAVAZZONI,44.4683907748157,11.3850502326916
51,1122,PIAZZALE ATLETI AZZURRI,44.4641280376374,11.3822104624115
52,1124,LONGO,44.4661730271844,11.3845795871667
53,1125,LONGO,44.4660343742224,11.384078925499
54,1128,BELLARIA LOMBARDIA,44.476785650572,11.3861837163199
55,1129,PIAZZALE ATLETI AZZURRI,44.4642983323949,11.3815560863593
56,113,GARGANELLI,44.4905552260707,11.3507342638836
57,1131,BELLARIA LOMBARDIA,44.4766031337591,11.3861401244132
58,1132,PIAZZALE ATLETI AZZURRI,44.464471959852,11.3818907781541
59,1133,CENTRO CIVICO MAZZINI,44.474339473374,11.3902315741309
60,1134,CENTRO CIVICO MAZZINI,44.4746275500371,11.3899360735804
61,1135,GENOVA,44.4731171708501,11.3935417207707
62,1136,GENOVA,44.4729623697675,11.3944840186854
63,114,PIAZZA GALVANI,44.4920567709719,11.343355279763
64,1141,ADIGE,44.4773847518928,11.3799101939714
65,1142,ADIGE,44.47747246703,11.3795892033776
66,1143,VENEZIA GIULIA,44.4782911801113,11.3817726674081
67,1144,VENEZIA GIULIA,44.4783427906186,11.3818879350994
68,1151,FAENZA,44.4732319212497,11.3877691797505
69,1152,CENTRO GALLIA,44.4695957818182,11.3842797746698
70,1153,ARNO,44.4764431312943,11.3901304640188
71,1154,FAENZA,44.4730745777316,11.3874900777124
72,1156,ARNO,44.4768426584093,11.3901287139105
73,117,TORLEONE,44.4908901593476,11.3550403542152
74,12,BORGO,44.5027643481261,11.3511747845062
75,1201,OSPEDALE MALPIGHI,44.4885661708092,11.3663951654907
76,1202,OSPEDALE MALPIGHI,44.4892826967794,11.3667629252904
77,1203,PIZZARDI,44.4898054322425,11.3685793828442
78,1204,MENGOLI,44.4883402955259,11.3700142788223
79,1205,MENGOLI,44.4886720153644,11.3722207042677
80,1206,AZZURRA,44.4865096427719,11.3731980393682
81,1209,AZZURRA,44.4863996162715,11.3730238019065
82,1210,FOSSOLO,44.4860597769064,11.3771875355869
83,1211,FOSSOLO,44.4860479280677,11.3769999770117
84,1212,FELSINA,44.4838923216913,11.380971071735
85,1213,FELSINA,44.4838216052301,11.3808550161654
86,1214,ALLENDE,44.4828752324221,11.3852201464026
87,1217,ALLENDE,44.4827179553763,11.3859611700413
88,1218,LINCOLN,44.4823838980378,11.3893427900155
89,1219,LINCOLN,44.48198972335,11.3900560361152
90,1251,MENGOLI,44.4895158580636,11.3716048847417
91,1252,MENGOLI,44.4891456904332,11.3715749480197
92,1253,AGNESI,44.4877499511258,11.3704265887412
93,1254,AGNESI,44.4861790126428,11.3695855848452
94,1261,LENIN,44.4812620820331,11.3830646125954
95,1262,LENIN,44.4812024322043,11.3827415276697
96,1263,POMPONAZZI,44.48067854827,11.3901179986212
97,1264,POMPONAZZI,44.4808002259548,11.3901111867082
98,1266,BOMBICCI,44.4792046933113,11.3943289662985
99,127227,CROARA BIVIO,44.4634773796082,11.3994786613786
100,127229,ALTURA,44.4640005115408,11.3932939535358
101,127230,OSPEDALE BELLARIA,44.464271824547,11.3908992422429
102,127231,ALTURA,44.4639289649577,11.3934057265472
103,127232,CROARA BIVIO,44.464258773087,11.3999671810325
104,127233,CROARA BIVIO,44.4635450287902,11.3993384397754
105,13,BORGO,44.5030056467908,11.3512607573037
106,1301,DANTE,44.4874114946294,11.3587061329603
107,1302,DANTE,44.4876673198444,11.3596950211627
108,1303,PIAZZA TRENTO TRIESTE,44.4865934342281,11.3627304430613
109,1304,PIAZZA TRENTO TRIESTE,44.4866298612515,11.3614869009178
110,1305,SAVIOLI,44.4860463261814,11.3639902819456
111,1306,SAVIOLI,44.4843697704792,11.3630847109379
112,1309,MEZZOFANTI,44.4835118577523,11.3650070648506
113,1310,MEZZOFANTI,44.4834544194708,11.3655250548168
114,1311,ALBINI,44.4823740111456,11.3679995110519
115,1312,ALBINI,44.482095451787,11.3691128995837
116,1313,LARGO LERCARO,44.4800990485873,11.3700655240557
117,1314,LARGO LERCARO,44.4797057612043,11.3699293573643
118,1351,ALEMANNI,44.4860582987566,11.3658567081476
119,1352,ALEMANNI,44.4862832846801,11.3662132015272
120,1353,LAURA BASSI,44.4852405381165,11.3687427337692
121,1354,LAURA BASSI,44.4831045118113,11.3675032736187
122,14,PORTA MASCARELLA,44.5017753042119,11.3537357520579
123,1400,FERMATA SERVIZIO DUE MADONNE,44.4848021575124,11.3945550532682
124,1401,MONDOLFO,44.4815005368835,11.3933707221033
125,1402,MONDOLFO,44.481333937639,11.3930511102698
126,1403,DEPOSITO DUE MADONNE 1,44.4831604040018,11.3943896195708
127,1404,DEPOSITO DUE MADONNE 1,44.4832039445341,11.3942452154086
128,1405,DEPOSITO DUE MADONNE 2,44.4851561049442,11.3956752552738
129,1406,DEPOSITO DUE MADONNE 2,44.4852113008552,11.3954890381406
130,1407,CANOVA,44.488000029712,11.397088801262
131,1408,CANOVA,44.4880386040515,11.3969937088472
132,1412,FIORAVANTI PIAZZA LIBER PARADISUS,44.5087134812092,11.3403533178454
133,16,STAZIONE CENTRALE,44.5050055317498,11.3433710605056
134,17,PORTA MASCARELLA,44.5017885975379,11.3545099054418
135,18,PORTA SAN DONATO,44.4975665024616,11.3565222255276
136,19,PORTA SAN DONATO,44.4991210806506,11.3566611395566
137,2,STAZIONE CENTRALE,44.5051437387807,11.3425587570757
138,20,PORTA SAN VITALE,44.4945177714622,11.3568875493628
139,2000,PORTA SAN VITALE (VIA MASSARENTI),44.4939068221671,11.3581088890339
140,2001,PORTA SAN VITALE,44.4937258200578,11.3583727852879
141,2002,OSPEDALE SANT`ORSOLA,44.4927983381079,11.3620024252701
142,2003,OSPEDALE SANT`ORSOLA,44.4928261268463,11.3615295495892
143,2004,OSPEDALE SANT`ORSOLA ALBERTONI,44.4923211590139,11.3641519273218
144,2005,OSPEDALE SANT`ORSOLA ALBERTONI,44.4921779299507,11.3642483265796
145,2006,MASSARENTI,44.492674032289,11.3669883494425
146,2008,RIMESSE STAZIONE,44.493411526642,11.3734285593725
147,2009,MASSARENTI,44.4926993056472,11.3683302657284
148,201,PIAZZA ALDROVANDI,44.4928490934927,11.3516683542798
149,2010,TRIACHINI,44.4929988407428,11.3704082106213
150,2011,RIMESSE STAZIONE,44.4933098280424,11.3737734531057
151,2012,RIMESSE STAZIONE,44.4934712991162,11.3738279644153
152,2013,PARCO,44.4931969362606,11.3760084236505
153,2014,PARCO,44.4932465963864,11.3768122449849
154,2017,MASSARENTI SOTTOVIA,44.4935570188105,11.3816254836123
155,2018,MASSARENTI SOTTOVIA,44.4936924063631,11.3812851182129
156,2019,GIAMBOLOGNA,44.4931845212018,11.3855603793228
157,202,DUE TORRI,44.4945302108478,11.3478471115666
158,2020,SANTA RITA,44.4935060055802,11.3831264019127
159,2021,TANGENZIALE SAN VITALE,44.4933261950165,11.3896011292227
160,2022,GIAMBOLOGNA,44.4932823898091,11.3858850930467
161,2025,PIAZZA DEI COLORI,44.4945644222389,11.3985437651508
162,2026,TANGENZIALE SAN VITALE,44.4936392337653,11.3898874781699
163,2028,PIAZZA DEI COLORI,44.4945243625879,11.3972367238159
164,2029,CASERMA CHIARINI,44.4961605949906,11.4077426943804
165,2030,BARELLI,44.4948308006448,11.3997907634271
166,2033,ROVERI,44.4966099821912,11.4104999386364
167,2034,CASERMA CHIARINI,44.4961889391327,11.4074121307362
168,2035,RESTO DEL CARLINO,44.4978713894709,11.4177374196437
169,2036,ROVERI,44.4968451578748,11.4113768666696
170,2038,RESTO DEL CARLINO,44.4978867775172,11.4173560023924
171,204,SAN VITALE,44.4943144839795,11.3509749900367
172,2042,VILLANOVA MATTEI,44.4984276360492,11.422365707064
173,206,PORTA SAN VITALE,44.4941142547941,11.3553384040815
174,208,PIAZZA DI PORTA RAVEGNANA,44.4944531368463,11.3466971056041
175,21,FILOPANTI,44.4954611840074,11.3570865662504
176,2101,PALAGI,44.491315788505,11.3659663823014
177,2102,PALAGI,44.4911903671764,11.3661538859245
178,2103,OSPEDALE MALPIGHI,44.4877793379904,11.3661896205949
179,2105,ZANOLINI,44.4971992968009,11.3593721057912
180,2106,ZANOLINI,44.4975101019593,11.3594160915414
181,2111,MASSARENTI,44.4922492095516,11.3676234434357
182,2112,PALAGI,44.4917378980973,11.3665580750909
183,2113,ARPA,44.4914654974125,11.3699514654589
184,2114,ARPA,44.4902928457542,11.3708762919458
185,2117,VERMIGLIA,44.490920645953,11.3715863838002
186,2118,ARCOBALENO,44.4885553737304,11.3735011214224
187,2119,ARCOBALENO,44.4889102373752,11.3734015535479
188,2120,VETULONIA,44.4870101536598,11.3773747035886
189,2121,VETULONIA,44.4870744918236,11.3775274504646
190,2122,SPINA,44.4889415399085,11.3780615832257
191,2125,SPINA,44.4891780944615,11.3783470898009
192,2126,ISTITUTO MANFREDI TANARI,44.4892479146128,11.386324984657
193,2127,ETRURIA,44.4896043823116,11.3804898566818
194,2128,MARX,44.4857608736181,11.3862550467421
195,2129,ISTITUTO MANFREDI TANARI,44.4888101679837,11.3872668531152
196,2130,ETRURIA,44.4896388679363,11.3803199174207
197,2133,MARX,44.485379476332,11.3857663190804
198,2151,VERMIGLIA,44.4916237058223,11.3725471590652
199,2152,SMERALDO,44.4907183481212,11.373794044844
200,22,PORTA MAGGIORE,44.4918803672872,11.3571268212073
201,2201,MASIA,44.4977985126727,11.3640235365686
202,2202,MASIA,44.4965602410172,11.3643696859311
203,2203,CIRENAICA,44.495831136282,11.3643103225459
204,2204,CIRENAICA,44.4947043076224,11.3646546731928
205,2205,BENTIVOGLI,44.4932142085375,11.3646903395606
206,22311,CROCIONE,44.5149232871213,11.4280168868851
207,2301,CROCE DEL BIACCO,44.4905818189347,11.3990300202683
208,2302,CROCE DEL BIACCO,44.4904906684308,11.3988423596833
209,2303,MARTELLI,44.4926357205635,11.4004128623641
210,2304,MARTELLI,44.4927611332837,11.4003354780785
211,2401,RIMESSE,44.4942022011986,11.3727995477312
212,2402,RIMESSE,44.4943268201241,11.3728950112821
213,2450,LARGA STAZIONE,44.4969190885238,11.3932391485288
214,2451,LARGA,44.4951456267076,11.3923513831559
215,2452,LARGA,44.4949838202225,11.3920177440454
216,2453,CARROZZAIO,44.4991700381609,11.3957463660836
217,2454,CARROZZAIO,44.4989733726647,11.3958405089084
218,2455,CERAMISTA,44.4992363059224,11.3976012803151
219,2456,CERAMISTA,44.4990687321638,11.3970071410213
220,2457,LARGA STAZIONE,44.498176732171,11.3941200138932
221,2459,CERODOLO,44.5022454644797,11.3994999254306
222,2460,CERODOLO,44.5022363178408,11.3993997085559
223,2461,ELETTRICISTA,44.502473774855,11.4017539078602
224,2462,ELETTRICISTA,44.5025333608192,11.4017830992824
225,2463,FONDITORE,44.5018678784167,11.4047157902033
226,2464,FONDITORE,44.5019888299071,11.4046366353175
227,2467,FRESATORE,44.5009310326566,11.4076529637218
228,2468,FRESATORE,44.5010430550431,11.4076237769621
229,2469,MURATORE,44.50080149201,11.4104582418003
230,2470,MURATORE,44.5009191936918,11.410320008596
231,2472,ROTONDA ACQUA FRESCA,44.5035875255573,11.4131872881034
232,2476,ROTONDA NEGRONI,44.5018669948643,11.4186330281831
233,2477,ROTONDA ACQUA FRESCA,44.5042924373895,11.4126062708499
234,2479,VETRAIO,44.5050301716156,11.4215039483738
235,2482,INDUSTRIA,44.5047469286623,11.3949244865991
236,2485,INDUSTRIA,44.5048854110489,11.3947603322089
237,2486,CARPENTIERE,44.5043062059112,11.3912551756972
238,2487,CARPENTIERE,44.5045167615184,11.3914642840038
239,2488,PILASTRO VECCHIO,44.5075580419319,11.388342168763
240,2491,INNOCENTI,44.4998970325599,11.3951307129799
241,2492,INNOCENTI,44.4999334830077,11.3950260665959
242,2493,ENZO FERRARI,44.5024102549511,11.3967982051058
243,2494,ENZO FERRARI,44.5024617222804,11.3966249973734
244,2495,SCALO SAN DONATO,44.507902390699,11.3966907989985
245,2496,SCALO SAN DONATO,44.5076611112795,11.3965519570228
246,2497,PIANETA,44.497231081258,11.3928234797486
247,2498,SCUOLE SCANDELLARA,44.4966712124184,11.3847852077945
248,25,PORTA SAN VITALE,44.4928546744668,11.3573773853465
249,26,CARDUCCI,44.486665196658,11.3577627166476
250,27,PORTA MAGGIORE,44.4909643215097,11.3576349589959
251,28,PORTA SANTO STEFANO,44.4846745334121,11.3552538496983
252,29,CARDUCCI,44.4882289810779,11.357919276376
253,3,STAZIONE CENTRALE,44.5054481242236,11.3437929450212
254,30,GIARDINI MARGHERITA,44.4850051906145,11.3523975732665
255,3003,MERCATO SAN DONATO,44.5027992186665,11.3629473374291
256,3004,SANT`EGIDIO,44.4991790210394,11.3593584388542
257,3005,CENTRO ZANARDI,44.5039361130754,11.366517166071
258,3006,MERCATO SAN DONATO,44.5029091079387,11.3628849569794
259,3007,SANT`EGIDIO,44.4990405906783,11.3595185758692
260,3009,SAN DONATO,44.5051550473201,11.3714687248388
261,301,SFERISTERIO,44.5004490750246,11.3472066105227
262,3010,CENTRO ZANARDI,44.5039423134926,11.3669506214359
263,3011,SIRENELLA,44.5063893505007,11.3744271627504
264,3012,SAN DONATO,44.5049764745156,11.3707743071125
265,3013,SAN DONNINO,44.5085884659639,11.3785509448991
266,3014,SIRENELLA,44.5060734572268,11.3733835580977
267,3017,CADRIANO BIVIO,44.5110976451841,11.3838828210133
268,3018,SAN DONNINO,44.5086822192493,11.3782095722933
269,3019,PIRANDELLO,44.511717434959,11.3894879736492
270,302,SFERISTERIO,44.5006911579879,11.3467344048929
271,3020,CADRIANO BIVIO,44.5118425557697,11.3847963190615
272,3022,PIRANDELLO,44.5117616018895,11.3897704933382
273,3025,SVEVO,44.5084458874802,11.3945209163322
274,3026,PILASTRO,44.510425074809,11.3959001946687
275,3027,DELEDDA,44.5101058400487,11.3999279568317
276,303,IRNERIO,44.4997927951625,11.3497879872702
277,304,IRNERIO,44.4999964845405,11.3495414527393
278,305,PORTA SAN DONATO,44.4984299931684,11.3551411701376
279,3051,BIVIO PILASTRO,44.510066359685,11.3834704720906
280,3052,SALGARI,44.5143487790236,11.3900626482414
281,3053,PILASTRO VECCHIO,44.5078758293834,11.3894229198508
282,3054,NEGRI,44.5135122558646,11.3957995024116
283,3055,C.S. RECORD,44.5079641411019,11.3916808012955
284,3056,PILASTRO,44.5110722861933,11.3958127148085
285,3059,SVEVO,44.5081813487852,11.3953026529165
286,306,PORTA SAN DONATO,44.4989178087137,11.353777958277
287,3074,PANZINI,44.5093582562929,11.3932994214852
288,3075,SIGHINOLFI,44.5110904154072,11.400760997201
289,3076,SIGHINOLFI,44.5112238949995,11.401557521883
290,3101,BEROALDO,44.5022572894154,11.3666724939489
291,3102,GALEOTTI,44.5026588848006,11.3646972767036
292,3103,DUSE,44.5013026739383,11.3692660193646
293,3104,CAMPO SAVENA,44.5011405456608,11.3670455427116
294,3105,CALINDRI,44.5005191085312,11.3712335180003
295,3106,DUSE,44.5001387392035,11.3701771966376
296,3108,TERRAPIENO MONDO,44.499283099664,11.3769884245005
297,3109,ANDREINI,44.5005461703023,11.3735051047076
298,3110,MONDO,44.4990252066824,11.3726163252513
299,3111,BEOLCO,44.5030095548561,11.3740162925378
300,3112,ANDREINI,44.5014169293105,11.3735703281701
301,3113,GIARDINO GINO CERVI,44.5051209407782,11.3724193861859
302,3114,BEOLCO,44.5030047446624,11.3737605840973
303,3116,TERRAPIENO,44.5008090564828,11.3785269129965
304,3118,GIARDINO GINO CERVI,44.5050114449348,11.3723678562125
305,3120,MAGAZZARI,44.5040670069059,11.3724907142949
306,3122,RISTORI,44.5021314622592,11.3720025537739
307,3131,NUOVA,44.4981670165428,11.3729745780307
308,3132,NUOVA,44.4983116010577,11.3730567083525
309,3133,STAZIONE SAN VITALE,44.4958935223635,11.3719350439297
310,3134,STAZIONE SAN VITALE,44.4959485603793,11.3721566096653
311,3151,CAVALCAVIA SAN DONATO,44.499408427916,11.3603189553839
312,3152,CAVALCAVIA SAN DONATO,44.5003830957153,11.3616720105569
313,3153,ROSSI,44.4987228613949,11.363376158383
314,3154,ROSSI,44.4987506032928,11.3628788564877
315,3161,MERCATO SAN DONATO,44.5020888071659,11.3633439670816
316,3162,DEHON,44.4968705585049,11.3657406671902
317,3163,DEHON,44.4968756059672,11.3655514074942
318,3164,LIBIA,44.4947961933106,11.3658957274504
319,3165,LIBIA,44.4941842545459,11.3657483408777
320,3201,VESTRI,44.5070827556451,11.3574499115965
321,3202,REPUBBLICA,44.5040221577585,11.3635046809505
322,3203,LAVORO,44.5052313904488,11.3593125577142
323,3204,RUGGERI,44.5048980890517,11.3606828876594
324,32045,CADRIANO DI VITTORIO,44.5427741268026,11.3953847920403
325,3205,PEZZANA,44.5039335584054,11.3606077867388
326,3206,NOVELLI,44.5066345279658,11.3610604437811
327,3208,LAVORO,44.5053815924337,11.359368159261
328,3210,VESTRI,44.5067759913411,11.358000505873
329,3212,DOPOLAVORO FERROVIARIO,44.5080293509995,11.3535128908246
330,3214,BIGARI,44.5083868384959,11.3513199421574
331,3216,CRETI,44.5097461608714,11.3500662119085
332,33,PORTA SANTO STEFANO,44.4849877115543,11.3571182063509
333,3301,CAVALCAVIA MASCARELLA,44.5068952665071,11.3551118577572
334,3302,CAVALCAVIA MASCARELLA,44.5071609294859,11.3551076279618
335,3303,STALINGRADO,44.5087667052179,11.3561190190242
336,3304,STALINGRADO,44.5091506437464,11.3560275585129
337,3305,STALINGRADO PARRI,44.5122981677638,11.3578804425487
338,3307,FIERA ALDO MORO,44.5085945387936,11.362815199266
339,3308,STALINGRADO PARRI,44.512220599839,11.357522681175
340,3309,CALZONI,44.5149091922173,11.3591464738555
341,331,RIGHI,44.4989834929829,11.3445982572087
342,3310,CALZONI,44.5139514367493,11.3583348252658
343,3311,BONVICINI,44.5176313377116,11.3608339221721
344,3312,BONVICINI,44.5179123805008,11.3603584797922
345,3313,TANGENZIALE FIERA,44.5207547546751,11.3625157124376
346,3315,PARCO NORD,44.5262063917162,11.3661001551875
347,3319,DOZZA,44.5288937140636,11.3670467035963
348,3320,DON GNOCCHI,44.5252869446612,11.3616741682253
349,3321,APOSAZZA,44.533353355835,11.3677788604276
350,3322,PARCHEGGIO PARCO NORD,44.5272156881918,11.3646662802674
351,3323,CASE NUOVE,44.540696739857,11.371945731418
352,3324,FIERA ALDO MORO,44.5096742341188,11.3620835362134
353,3326,DOZZA,44.5282485307073,11.3661694953161
354,3327,DON GNOCCHI,44.525985166732,11.3628994835895
355,3328,APOSAZZA,44.5333156258894,11.3674815608861
356,3329,PARCHEGGIO PARCO NORD,44.526954721579,11.3647697578339
357,333,OBERDAN,44.4983438142836,11.3463202289155
358,3330,CASE NUOVE,44.5406796537037,11.3717931938001
359,3331,PARCHEGGIO COSTITUZIONE,44.5102027951569,11.360495324685
360,3332,PARCHEGGIO COSTITUZIONE,44.5104607950581,11.3604263199708
361,3333,FIERA ALDO MORO,44.5090660965809,11.3633021002596
362,3334,FIERA ALDO MORO,44.5091218630389,11.3630818394722
363,3336,SERENA,44.5085799298766,11.3611012792525
364,3337,MONDO,44.4995488414126,11.3731399271819
365,3338,FIERA PALAZZO CONGRESSI,44.5119649828165,11.3612875681501
366,3339,SERENA,44.5081671685533,11.3608180505845
367,3340,FIERA PALAZZO CONGRESSI,44.511919940513,11.3614791739324
368,3341,NOVELLI,44.5058081156102,11.3625500290503
369,3342,FIERA PALAZZO CONGRESSI,44.5117519910097,11.3616013465084
370,3343,NOVELLI,44.5054757590201,11.3633024145446
371,3345,FIERA PALAZZO CONGRESSI,44.5115214739818,11.3615385620174
372,3347,ZACCONI,44.5043113843942,11.3644818657086
373,3349,PARCO NORD,44.5269691257936,11.3658667728121
374,335,PIAZZA SAN MARTINO,44.4970296725949,11.3466920126074
375,3351,ALDO MORO,44.5071047747207,11.3643566056384
376,3352,ALDO MORO,44.5073757097038,11.3642338977267
377,3353,VIALE FIERA,44.5085701648277,11.3693663504904
378,3354,VIALE FIERA,44.5075254072161,11.3677884153868
379,3355,FERRAVILLA,44.5066844265953,11.3708695136251
380,3356,FERRAVILLA,44.5071623620252,11.3705869701306
381,3362,CAMPING CITTA` DI BOLOGNA,44.5241706420589,11.3740966198341
382,3370,CARCERE,44.5334766338205,11.3694302565665
383,3371,CARCERE,44.5333101780735,11.3694258695234
384,3372,GOMITO,44.5330074176457,11.3706202582977
385,339,TEATRO COMUNALE,44.4960902341736,11.3502374525403
386,34,PORTA CASTIGLIONE,44.4853735574837,11.3493187819457
387,35,GIARDINI MARGHERITA,44.4847837336521,11.3523863168212
388,3501,VIRGOLONE,44.5146827498703,11.3898057952575
389,3502,VIRGOLONE,44.5149761385631,11.3900631418024
390,3503,MENARINI,44.5187201059095,11.3976542977463
391,3504,MENARINI,44.5182381946094,11.3965956584245
392,3505,SAN SISTO,44.5199797793532,11.400578074075
393,3506,SAN SISTO,44.5201245641311,11.4009442013347
394,3507,SAN DONATO 240-246,44.5229935026368,11.4075994643803
395,3508,SAN DONATO 240-246,44.5229903080379,11.4072326031283
396,3509,PICCOLO COW BOY,44.5244157402263,11.4111516078224
397,3510,PICCOLO COW BOY,44.5246439492834,11.4115354029494
398,3511,FRULLO (BIVIO),44.5275457149727,11.4178059685162
399,352,DON MINZONI - MAMBO,44.5029409507025,11.3365449651673
400,353,BOVI CAMPEGGI QUESTURA,44.5053510265914,11.3353801502441
401,354,BOVI CAMPEGGI QUESTURA,44.5055181143898,11.3352437279432
402,3543,ROTONDA BARONI,44.515236102709,11.401188454104
403,3544,ROTONDA BARONI,44.5153282031907,11.4016247344264
404,3545,CARNACINI,44.5157432599948,11.3986320967184
405,3547,FACOLTA` DI AGRARIA,44.5130565933649,11.4077484204798
406,3548,FACOLTA` DI AGRARIA,44.5135589134577,11.4066075112646
407,355,BOVI CAMPEGGI,44.5057832577512,11.3322925166486
408,3553,COMMERCIO ASSOCIATO,44.5176475314847,11.4017829692943
409,3554,FIORINI,44.5136885175653,11.4215504864772
410,356,BOVI CAMPEGGI,44.5060079710044,11.331869029213
411,36,PARCHEGGIO STAVECO,44.4860235980339,11.3438909409933
412,3601,CADRIANO BIVIO,44.5121720488396,11.3841067783559
413,3602,CADRIANO BIVIO,44.5121403933698,11.3839254223066
414,3603,SAN NICOLO` DI VILLOLA,44.5193932118,11.3811691539487
415,3604,SAN NICOLO` DI VILLOLA,44.5193334936477,11.3810644839817
416,3605,FABBRERIA,44.5233699791663,11.3804189055253
417,3606,FABBRERIA,44.5233044838203,11.3803218585095
418,3609,BALDA,44.5265261114062,11.3813812338836
419,3610,BALDA,44.5266539876511,11.3811583525566
420,3611,CENTRO LATTE GRANAROLO,44.5329820956476,11.3886768200238
421,3612,CENTRO LATTE GRANAROLO,44.5322961109842,11.3876867483836
422,3613,FRABAZZA,44.5391390467638,11.393307453646
423,3614,FRABAZZA,44.539188041746,11.3931175068218
424,3615,CADRIANO EUROPA,44.5174627160296,11.3821670857616
425,3616,CADRIANO EUROPA,44.5173776697399,11.3819284767525
426,37,PORTA CASTIGLIONE,44.4851154332401,11.3490113309456
427,3703,CASE SANT`ANNA,44.5464086446666,11.3786067320327
428,3704,CASE SANT`ANNA,44.5464392105091,11.3784899702289
429,38,PORTA SAN MAMOLO,44.4870325609366,11.338261170979
430,397,INDIPENDENZA MILLE,44.5023491164131,11.3447182874602
431,399,AUTOSTAZIONE,44.5031275882158,11.3450868001819
432,3999,PIAZZA DELL`UNITA`,44.5100875754285,11.3471186982906
433,4,STAZIONE CENTRALE,44.5050434605776,11.3431131337897
434,400,SAN PIETRO,44.4956621136356,11.3427615877643
435,4001,SACRO CUORE,44.5085704573876,11.3466622707385
436,4002,SACRO CUORE,44.5085492574622,11.3464892287682
437,4003,PIAZZA DELL`UNITA`,44.5106763562203,11.3472712973667
438,4004,PIAZZA DELL`UNITA`,44.510604300087,11.3470812604359
439,4006,PIAZZA DELL`UNITA`,44.5096502667897,11.3468235794242
440,4007,PIAZZA DELL`UNITA`,44.5115972797336,11.3475520435937
441,4009,CA` DEI FIORI,44.5135836598513,11.3473786237611
442,401,SAN PIETRO,44.4953618171143,11.3428360300461
443,4010,CA` DEI FIORI,44.5143842221341,11.3472739509245
444,4011,LOMBARDI,44.5162660898396,11.3477048883113
445,4012,LOMBARDI,44.5172060627901,11.3476798385366
446,4013,IPPODROMO,44.5187664169182,11.348167198391
447,4014,IPPODROMO,44.5185597037837,11.3479591400333
448,4015,MATTEOTTI ALTA VELOCITA',44.5071130796018,11.3461748047608
449,4016,MATTEOTTI ALTA VELOCITA',44.5071227323016,11.3460336637117
450,4017,ISTITUTO ALDINI,44.5218867828633,11.3483106846274
451,4018,ISTITUTO ALDINI,44.5215304942746,11.3480981759074
452,4019,DE GIOVANNI,44.5230676540048,11.3486735345158
453,402,INDIPENDENZA,44.4966336901203,11.3430151298377
454,4020,DE GIOVANNI,44.5239813063561,11.3488974505925
455,4021,CASERME ROSSE,44.525710231695,11.3499155085685
456,4022,CASERME ROSSE,44.5259932372919,11.3497247497982
457,4025,CROCE COPERTA,44.5302366020196,11.3523299204869
458,4026,CROCE COPERTA,44.5304545981409,11.3522089198973
459,4027,PINARDI,44.5342498986017,11.3546021123942
460,4028,PINARDI,44.5340534160785,11.3543896663738
461,4029,RONCAGLIO,44.5366185254447,11.3558099498621
462,403,INDIPENDENZA,44.4971700577469,11.3433369114635
463,4030,RONCAGLIO,44.537221023531,11.3559790042022
464,4031,DON FIAMMELLI,44.539164417405,11.3565052589919
465,4032,DON FIAMMELLI,44.5394232466785,11.356341477268
466,4033,LIPPARINI,44.5406555564763,11.3563842891224
467,4034,LIPPARINI,44.5407850901321,11.3561873352725
468,4035,COLOMBAROLA,44.543148907442,11.3561285268187
469,4036,COLOMBAROLA,44.5435932347163,11.3558097248556
470,4038,CORTICELLA,44.545857809948,11.3562244743034
471,404,VIII AGOSTO,44.5002912122433,11.3440728600235
472,4041,CORTICELLA,44.5461302025204,11.3564667863826
473,4042,BENTINI,44.5488036918033,11.3569682299247
474,4043,BENTINI,44.549084371035,11.3573200286235
475,4044,BENTINI SOTTOVIA,44.5528872784289,11.3536510712215
476,4048,COLOMBO,44.5509443418647,11.3527819205245
477,4049,COLOMBO,44.5510230133552,11.3526229983992
478,405,VIII AGOSTO,44.500582236344,11.3443408221911
479,4050,VILLAGGIO RURALE,44.5494218227599,11.3513042846291
480,407,AUTOSTAZIONE,44.5033098552907,11.3451428440245
481,4078,MARESCALCHI,44.5439739324613,11.3551933074243
482,408,ARENA DEL SOLE,44.4993335029787,11.3438017622882
483,4083,FONTI,44.5485095185085,11.3553748769506
484,4084,FONTI,44.548131080798,11.3560309221662
485,4085,ZANICHELLI,44.5477143964956,11.3574048965168
486,4087,SANT`ANNA,44.5480888194171,11.360442192369
487,4088,ZANICHELLI,44.5477923057086,11.3574741355289
488,4089,BYRON CENTOFIORI,44.5463078299582,11.3604236794443
489,4090,SANT`ANNA,44.548197011258,11.3606794669372
490,4094,BYRON CENTOFIORI,44.5463070121717,11.3604362351352
491,4096,CORTICELLA STAZIONE,44.5519114502699,11.3542876370153
492,4099,LIBERAZIONE,44.510998544416,11.3533758747179
493,41,PARCHEGGIO STAVECO,44.4856700753936,11.3450227364912
494,410,AUTOSTAZIONE,44.5042532403172,11.345207430428
495,4103,CRETI,44.5104184335516,11.3508638287077
496,4104,CRETI,44.5105940487275,11.3506420803123
497,4105,STALINGRADO,44.5098476488101,11.3551341024343
498,4106,STALINGRADO,44.5100027006931,11.3551458477224
499,4107,STALINGRADO,44.510679307572,11.3557897167513
500,4109,BIGARI,44.5089157889992,11.3507986770013
501,411,AUTOSTAZIONE,44.5041529972745,11.3453213310647
502,4111,DOPOLAVORO FERROVIARIO,44.5079455058047,11.353732575936
503,413,AUTOSTAZIONE,44.5043336461188,11.3453741920706
504,4151,TUSCOLANO,44.5310878117825,11.3573527692827
505,4153,BRINI,44.5356050848512,11.3597369448078
506,4155,MANARA,44.536927672608,11.3582776275038
507,4157,STENDHAL,44.5383478686981,11.3585206422812
508,4159,SOLARI,44.5407594152374,11.3574308816551
509,42,ALDINI,44.4885637050794,11.3342955906073
510,4202,CARRACCI STAZIONE AV,44.5070669329175,11.3446849153056
511,4204,CASA DELLA SALUTE UFF COMUNALI,44.5078557100009,11.3390121794717
512,4205,CASE FERROVIERI,44.5084772925257,11.3348860309212
513,4206,CASE FERROVIERI,44.5083212693145,11.3353824434667
514,4209,CARRACCI,44.5089795972434,11.3310952104974
515,4210,CARRACCI,44.5088199074743,11.3316053661378
516,42502,CA` BIANCA,44.552111264882,11.3489307780493
517,42504,TREBBO ROSARIO,44.5528533437294,11.3452680991935
518,43,PORTA SAN MAMOLO,44.486128195836,11.3408502190719
519,4301,FRANCESCHINI,44.5109245058888,11.3505515759303
520,4302,ZUCCA,44.5115250965764,11.3496659408478
521,4303,CIGNANI,44.5126693928946,11.3520772666815
522,4304,CIGNANI,44.5136016110899,11.3524104537522
523,4305,CASARALTA,44.5146829179393,11.3530988028654
524,4306,CASARALTA,44.515024037101,11.353092092132
525,4308,CASONI,44.5180358346269,11.355907632489
526,4309,PASSAROTTI,44.5162217963407,11.3545448166757
527,4311,CASONI,44.5183560634138,11.3569940135746
528,4313,BONVICINI,44.5177069691291,11.3596526291272
529,4315,CASONI,44.5181899458447,11.356264588381
530,4316,PASSAROTTI,44.5164160161096,11.3545675772659
531,4317,MANIFATTURA,44.5225431595329,11.3590418105201
532,4318,DEPOSITO FERRARESE,44.5211898927295,11.3580158885984
533,4319,DEPOSITO FERRARESE,44.5209788835887,11.3579617709485
534,4320,DOZZA CAPOLINEA,44.5288821318749,11.3667095855967
535,4322,MANIFATTURA,44.5235825229406,11.3599119468553
536,4399,SACRO CUORE,44.5082914961383,11.3460542877596
537,44,PORTA SARAGOZZA - VILLA CASSARINI,44.4900992700493,11.3303818712204
538,4401,TIARINI,44.5087136326545,11.3428694543534
539,4403,ARCA,44.5107127806787,11.343032935351
540,4404,FIORAVANTI TIBALDI,44.5115022658292,11.3410822561102
541,4405,BOLOGNINA,44.5121572412303,11.3460411773938
542,4406,BOLOGNINA,44.5112642022865,11.344375286218
543,4409,BOLOGNESE,44.5126577085595,11.3423843224408
544,4410,TIBALDI DALL'ARCA,44.5115377484444,11.3423701112435
545,4413,BATTIFERRO,44.5152722662586,11.3374601248152
546,4414,BATTIFERRO,44.514554103371,11.3377578197009
547,4418,GOBETTI,44.5185170995713,11.3364339809174
548,4419,GOBETTI,44.5184160514976,11.3361200779476
549,4420,ROTONDA C.N.R.,44.5219927971386,11.3377455863855
550,4421,CASA DELLA SALUTE NAVILE,44.5092097719022,11.3388147467906
551,4422,CASA DELLA SALUTE NAVILE,44.5091793281024,11.338543042487
552,4425,BARBIERI,44.5169038012118,11.3411099031617
553,4426,BARBIERI,44.5167685329088,11.3410934618895
554,4427,ROTONDA GOBETTI,44.5170465711552,11.3374100917518
555,4428,ROTONDA GOBETTI,44.5168942142431,11.337569129306
556,4429,NAVILE,44.5171750867779,11.3321447346445
557,4430,NAVILE,44.5168952443031,11.3322098537439
558,4433,GAGARIN,44.5172949016704,11.3295284298871
559,4434,GAGARIN,44.5170050996197,11.3296678665572
560,4451,FIORAVANTI,44.5140347910589,11.3421800153626
561,4452,FIORAVANTI,44.5139983778422,11.3420079092252
562,4453,FONDO COMINI,44.5158308363329,11.3424525198964
563,4454,FONDO COMINI,44.5157848819587,11.3422241987178
564,4455,ARCOVEGGIO CHIESA,44.5174163145961,11.3420733326369
565,4456,PALESTRA IPPODROMO,44.5190902418112,11.3427852983152
566,4459,PALESTRA IPPODROMO,44.5193566610085,11.3432104246303
567,4460,VILLA ERBOSA,44.5215405370308,11.3436668638728
568,4461,VILLA ERBOSA,44.5217531188519,11.3439459355137
569,4463,ARCOVEGGIO,44.5249742366326,11.3453210007864
570,4464,ARCOVEGGIO,44.5243758867817,11.3450311425236
571,4467,C.S. VIRTUS,44.5276796655223,11.346380559954
572,4468,C.S. VIRTUS,44.5280788270813,11.3465059178112
573,4469,COOPERAZIONE,44.5309103677674,11.3472056853754
574,4470,COOPERAZIONE,44.5309383057235,11.3471328560325
575,4471,DON BEDETTI,44.53416524881,11.3481679631209
576,4472,DON BEDETTI,44.5343202584946,11.348017648843
577,4475,LAPIDARI,44.5364038641524,11.3504740026885
578,4476,LAPIDARI,44.5364299458431,11.350246139485
579,4477,CASA BUIA,44.5387299853683,11.3518082591903
580,4478,CASA BUIA,44.5391577609739,11.3513637013173
581,4480,ROTONDA GIARDINI,44.5416216096822,11.3520749911671
582,449,PIAZZA DEI MARTIRI,44.5018393608117,11.3404130646495
583,45,PETRARCA,44.4876724482921,11.3358359768523
584,451,MARCONI,44.4969257549424,11.3376889824555
585,452,MARCONI,44.4970604963598,11.3374836849275
586,455,MARCONI,44.4980009857423,11.3381840070263
587,458,MILLE INDIPENDENZA,44.5014362051516,11.3437453282366
588,459,PIAZZA DEI MARTIRI,44.5008379295753,11.3395018867745
589,46,PORTA SARAGOZZA - LICEO RIGHI,44.4921816018684,11.3293384078223
590,4601,ISTITUTO SERPIERI,44.5479484122632,11.3653494155096
591,4602,ISTITUTO SERPIERI,44.5480208557726,11.3651391163895
592,462,PIAZZA DEI MARTIRI,44.5002609085635,11.338994514376
593,463,MILLE,44.5015178223649,11.3426471360167
594,465,MILLE (PIAZZA DEI MARTIRI),44.5017598990506,11.341406781863
595,466,MILLE,44.5019165294631,11.3413139931801
596,467,MILAZZO,44.5032246581563,11.3416518745623
597,469,AMENDOLA,44.5031699328174,11.3405158209286
598,47,PORTA SARAGOZZA - VILLA CASSARINI,44.4897365841235,11.330260520842
599,470,AMENDOLA,44.5030216447454,11.3402693353538
600,471,STAZIONE CENTRALE,44.5047880398989,11.3446187633158
601,472,STAZIONE CENTRALE,44.5055924197074,11.340939973315
602,473,MILLE,44.5013820673515,11.3432855817625
603,474,STAZIONE CENTRALE,44.5051864574572,11.3431911994577
604,475,PIAZZA XX SETTEMBRE,44.5044891643913,11.3445205149365
605,49,ALDINI,44.4885714951193,11.3336120768819
606,5,STAZIONE CENTRALE,44.5056830840234,11.3436946425275
607,50,PORTA SANT`ISAIA,44.4955339070651,11.3282919652535
608,500,BOLOGNA AUTOSTAZIONE,44.5039837625275,11.3468209530227
609,500001,CASAGLIA 32-34,44.4839100989131,11.3129747408118
610,500003,CASAGLIA SCUOLE,44.4775432064831,11.3099080796951
611,500005,CASAGLIA 53,44.4724722512751,11.3083618651106
612,500007,CASAGLIA 53/2,44.4702208118012,11.3040558230285
613,500009,CASAGLIA CHIESA,44.4648942724084,11.3007536625057
614,500010,CASAGLIA CHIESA,44.4647768105729,11.3008865502065
615,500011,CASAGLIA 63,44.460757436934,11.2998109661594
616,500012,CASAGLIA 63,44.4607851414261,11.2999998175612
617,500013,CASAGLIA 64,44.4566267166101,11.2993454899697
618,500014,CASAGLIA 64,44.4566863282768,11.299570938533
619,500016,MONTE PRADONE 66,44.4536439770217,11.2979510933002
620,500017,MONTE PRADONE,44.451190128069,11.2961926656312
621,500020,MONTE ALBANO 21,44.4684034790534,11.3027137414275
622,500022,MONTE ALBANO 38,44.4700793117419,11.3016984456385
623,500024,MONTE ALBANO GESSAROLI,44.4668243345921,11.2922729406655
624,500026,MONTE ALBANO 15,44.4710593399104,11.293345583045
625,500028,MONTE ALBANO 11,44.4755360382524,11.2937308309293
626,500030,BASILICA DI SAN LUCA,44.4793324868645,11.2964094344007
627,500032,SAN LUCA 35,44.4807601520499,11.300731411437
628,500034,SAN LUCA 15,44.4856776759186,11.3022735391891
629,5001,PORTA LAME,44.5031532372209,11.3330154772519
630,5002,PORTA LAME,44.5031789926447,11.3328018742318
631,5003,BOVI CAMPEGGI,44.5056213370464,11.3314604825202
632,5004,BOVI CAMPEGGI,44.5054874408907,11.3313490055232
633,5005,SOTTOPASSO ZANARDI,44.5107530853776,11.3285796556205
634,5006,SOTTOPASSO ZANARDI,44.5106140317593,11.3285002147481
635,5009,POSTE,44.5122490360395,11.3275942171678
636,5010,POSTE,44.5121707990469,11.3274023804746
637,5011,OCA,44.5164311210099,11.3250068277244
638,5012,OCA,44.5172759862825,11.3246323032731
639,5013,OCA,44.5174143729731,11.3246889185858
640,5014,OCA,44.5163520567958,11.3248558400858
641,5017,ZANARDI,44.5188923468866,11.3230647606956
642,5018,ZANARDI,44.5188617047951,11.3228567057379
643,5019,SELVA PESCAROLA,44.5216641368261,11.3215100219387
644,5020,SELVA PESCAROLA,44.5217417488217,11.3212071639421
645,5021,PESCAROLA,44.5223342349173,11.3205150107016
646,5022,PESCAROLA,44.5227585693551,11.3196800997352
647,5025,C.S. PESCAROLA,44.5250420418891,11.3181190928601
648,5026,C.S. PESCAROLA,44.5248595764348,11.3180717471229
649,5027,BORRE,44.5269938877848,11.3169003315171
650,5028,BORRE,44.5266303113266,11.3169606386169
651,5029,TRAGHETTO,44.529062325829,11.3148906810169
652,5030,TRAGHETTO,44.5294123129533,11.3143431613785
653,5032,NOCE,44.533064275411,11.3151974447982
654,5033,CENTRO PROVE AUTOVEICOLI,44.5317590558649,11.3145981868534
655,5034,CENTRO PROVE AUTOVEICOLI,44.5318137020419,11.3144280927885
656,5035,NOCE,44.5334067852588,11.3155004543018
657,5038,NOCE,44.5334178598726,11.3154426831982
658,51,PORTA SARAGOZZA - LICEO RIGHI,44.4915316110523,11.329178879122
659,5101,GRAZIA,44.5162510910074,11.3282081463319
660,5102,GRAZIA,44.5165540823352,11.3281392250734
661,5103,MARCO POLO,44.5192423802934,11.3289989423407
662,5104,MARCO POLO,44.5189877920983,11.3287088262583
663,5105,BOTTEGO,44.5202836430266,11.3310498236064
664,5109,BEVERARA,44.5219842707064,11.3313945094219
665,5110,BOTTEGO,44.5200205265869,11.3309567439847
666,5111,PELLEGRINO,44.5248788288082,11.3323743854359
667,5112,BEVERARA,44.5217206429715,11.3311889464547
668,5113,TANGENZIALE LAME,44.5282627294474,11.3334722369272
669,5114,PELLEGRINO,44.5252417238609,11.332155272803
670,5117,FORNACE,44.5304669465853,11.3340679089847
671,5118,TANGENZIALE LAME,44.528073798602,11.3329156766481
672,5120,FORNACE,44.5302913356131,11.3336100636135
673,5122,SOSTEGNO,44.532200766694,11.3366359792365
674,51510,LIPPO CASE GNUDI,44.5439475990037,11.287650748091
675,5199,PORTA LAME,44.5025304999856,11.3314878218813
676,52,PORTA SAN FELICE,44.4998163593369,11.32812442628
677,5201,PARMEGGIANI,44.503604238817,11.3334132258209
678,5202,PARMEGGIANI,44.5034286231062,11.3334164313238
679,5203,CASARINI,44.5040174483432,11.3306488244285
680,5204,CASARINI,44.5039680651617,11.3301185112516
681,5205,MALVASIA,44.5029792970821,11.3255190648647
682,5206,SCALO,44.5024992327117,11.3278711713393
683,5207,PARCHEGGIO TANARI,44.5068830552505,11.3267609746112
684,5208,TANARI,44.5062349528848,11.3290467762621
685,5209,PORTA SAN FELICE,44.4998243486802,11.3266286542484
686,5210,SAN PIO V,44.5010356175884,11.3246194057653
687,5211,SCALO,44.5023304276684,11.3275955682818
688,5213,TANARI,44.5062100093158,11.3303043087643
689,5214,TANARI,44.5057132441029,11.3294112541689
690,5255,ITC LUXEMBURG,44.5141072241925,11.3114361031433
691,5256,ITC LUXEMBURG,44.513975738479,11.3112720832333
692,5257,ITC LUXEMBURG,44.513915290578,11.3113576145085
693,5258,GIACINTO,44.5080471221801,11.303543575016
694,5260,GIORGIONE,44.5112648448236,11.2994195207561
695,527,DON MINZONI - MAMBO,44.5029561625376,11.3358843740055
696,53,PORTA SANT`ISAIA,44.4934653814858,11.3284941793112
697,5301,DE GAMA,44.5221228023256,11.3270870273571
698,5302,DE GAMA,44.5217243552781,11.3284985875675
699,5304,PANE,44.5210660974436,11.3249899216909
700,5305,USODIMARE,44.518577771798,11.3243388440271
701,5306,USODIMARE,44.5188870046956,11.3244054017299
702,5307,PANE,44.5208429294298,11.3247584812373
703,54,PORTA LAME,44.5017573151947,11.3319951060074
704,5401,AGUCCHI,44.5244149598556,11.3159981880209
705,5402,AGUCCHI,44.5242883650755,11.3161646267208
706,5403,VARANINI,44.5237313423428,11.3131672458755
707,5404,VARANINI,44.5235888793124,11.3132559843623
708,5406,BERTALIA,44.5213800981676,11.312606208299
709,5410,BERTALIA,44.5213539798068,11.3121458811185
710,5412,C.S. PONTELUNGO,44.5140611171718,11.301493076834
711,5501,ZANARDI CINTURA FERROVIARIA,44.5373758628791,11.3171045226486
712,5502,ZANARDI CINTURA FERROVIARIA,44.5373906805376,11.3170122952462
713,5504,CAVE,44.545251299057,11.3204603564641
714,5604,ZONA ARTIGIANALE DUE SCALE,44.5411268381986,11.262418422596
715,5606,CALDERARA BIVIO,44.5438279065884,11.2603295874902
716,5610,BARGELLINO,44.5461750680094,11.2585227094957
717,5620,LE PIASTRE,44.553976579541,11.252529372575
718,57,PORTA SANT`ISAIA,44.4953355791177,11.3279468215186
719,5701,TRIUMVIRATO,44.5117392500375,11.2912162969782
720,5702,TRIUMVIRATO,44.5119177529389,11.2910691728115
721,5703,ACQUEDOTTO TRIUMVIRATO,44.5154901607467,11.2927465883399
722,5704,ACQUEDOTTO TRIUMVIRATO,44.5154534789099,11.2925281078158
723,5705,DUE PONTI,44.5193963623409,11.2941570398376
724,5706,DUE PONTI,44.518871055487,11.2938757996222
725,5709,BIRRA,44.5213231864248,11.2950745327579
726,5710,BIRRA,44.5212924888592,11.2948940139415
727,5712,AEROPORTO,44.5292566152574,11.2947250226211
728,5713,AEROPORTO,44.5293921655147,11.2944308218513
729,5714,AEROPORTO,44.5294213313322,11.2927049738389
730,5750,CASE GHEDINI@,44.5254885565612,11.2879825360254
731,5751,CASE GHEDINI@,44.5256012930315,11.2879444791954
732,5754,VILLA SALTARELLI@,44.5275343907791,11.2858760679054
733,5755,VILLA SALTARELLI@,44.5275917557119,11.2856525803081
734,5758,CASERMA R.R.A.E.@,44.5294963278068,11.2871146152897
735,5759,CASERMA R.R.A.E.@,44.5293261212396,11.2868200541547
736,5762,AEROCLUB@,44.5310121981212,11.2881527181074
737,5766,CASE SAVINI@,44.5272801100691,11.2808218700492
738,59,VICINI,44.4965456428938,11.3275437669673
739,598,PIAZZA ROOSEVELT,44.4944115241861,11.3406943621274
740,6,STAZIONE CENTRALE,44.5049284438364,11.3437823251683
741,600,PIAZZA ROOSEVELT,44.4944783247431,11.3402631089877
742,6001,SAN PIO V,44.5001926240763,11.3249019341133
743,6002,SAN PIO V,44.5000281377994,11.324828562914
744,6003,SAFFI,44.501699663294,11.3204663862532
745,6004,SAFFI,44.5009460655465,11.3221912466647
746,6005,TIMAVO,44.5027909557624,11.3174049559163
747,6006,TIMAVO,44.5024720197639,11.3178435847953
748,6007,OSPEDALE MAGGIORE,44.5037030931786,11.3150447011436
749,6008,OSPEDALE MAGGIORE,44.5041594465788,11.3158474163243
750,6009,OSPEDALE MAGGIORE,44.5039839205593,11.3142090480449
751,601,UGO BASSI,44.4956474908511,11.3381799868529
752,6010,OSPEDALE MAGGIORE,44.5038237909193,11.315141462504
753,6012,OSPEDALE MAGGIORE,44.5038168339326,11.3140970800793
754,6013,PRATI DI CAPRARA,44.5053441153809,11.3103639047992
755,6014,PRATI DI CAPRARA,44.5050629112689,11.3105524847636
756,6016,OSPEDALE MAGGIORE - MATERNITA`,44.5063790985455,11.3161271925819
757,6017,BERRETTA ROSSA - OPIFICIO GOLINELLI,44.5062770323671,11.3073862470692
758,6018,BERRETTA ROSSA - OPIFICIO GOLINELLI,44.5063667979564,11.3068142481268
759,6019,SANTA VIOLA,44.5075425622684,11.3034887555569
760,602,UGO BASSI,44.4952617137606,11.3400761633788
761,6020,SANTA VIOLA,44.5076076550662,11.3027865770179
762,6021,BERNARDI,44.5083648106597,11.299395858602
763,6022,BERNARDI,44.5081131445214,11.3002131290393
764,6023,OSPEDALE MAGGIORE,44.5041431961857,11.3159827966118
765,6024,BERRETTA ROSSA - OPIFICIO GOLINELLI,44.5066247863277,11.3062324019769
766,6025,PONTELUNGO,44.5089826109884,11.2963488929734
767,6026,PONTELUNGO,44.5087582841101,11.296787474254
768,6027,CINTA DAZIARIA TEATRI DI VITA,44.5117990503924,11.2887401200783
769,6028,ROTONDA GRANATIERI - AVIS,44.5073720259186,11.3123051525139
770,6029,BORGO PANIGALE STAZIONE,44.5144147419428,11.2837169920891
771,6030,CINTA DAZIARIA TEATRI DI VITA,44.5118993131484,11.2882856070356
772,6032,OSPEDALE MAGGIORE,44.5036234296244,11.3149833162691
773,6033,SCALA,44.5165572304563,11.2778374731139
774,6034,BORGO PANIGALE STAZIONE,44.5142171968531,11.2840010208517
775,6035,CHIESA BORGO PANIGALE,44.5177239971816,11.2746861780668
776,6036,SCALA,44.5160175660013,11.2791092633483
777,6037,BORGO PANIGALE - MUSEO DUCATI,44.5185911051845,11.2720846290514
778,6038,CHIESA BORGO PANIGALE,44.5176193726041,11.2745436971385
779,6039,OSPEDALE MAGGIORE - MATERNITA`,44.5066883153818,11.3152792837042
780,604,UGO BASSI,44.4954712920285,11.338471913874
781,6040,BORGO PANIGALE CIMITERO,44.5157929542819,11.2723164375353
782,6041,DUCATI,44.5198047703611,11.2684630671535
783,6042,BORGO PANIGALE - MUSEO DUCATI,44.5183179768025,11.2724640741158
784,6043,VILLAGGIO INA,44.5212977079498,11.2642300960968
785,6044,DUCATI,44.5196081743669,11.2687008037787
786,6045,ROTONDA GRANATIERI - AVIS,44.5075732180286,11.3119836675473
787,6046,VILLAGGIO INA,44.5210855650917,11.2644578128556
788,6048,VILLAGGIO INA,44.5208438859251,11.2652399710857
789,6049,NORMANDIA,44.5227592568066,11.2639013717121
790,605,LAME,44.4969554874152,11.3368686688394
791,6050,NORMANDIA,44.5222201950548,11.263790034066
792,6054,CAVALIERI DUCATI,44.516956260024,11.269526597271
793,6058,TERRACINI,44.5136660142037,11.318543054633
794,6059,TERRACINI,44.5142911257622,11.3189161621427
795,607,LAME,44.497148641945,11.3367506059875
796,609,RONDONE,44.499950155834,11.3348248017273
797,61,PORTA SAN FELICE,44.4984158362911,11.3269963538121
798,612,LAME,44.4964769960353,11.3370223446872
799,613,RIVA RENO,44.4985367646991,11.3344389614964
800,614,RONDONE,44.500160039675,11.3344943345598
801,615,PALASPORT,44.4981991753876,11.3313823067338
802,61533,Z.I. ZOLA PREDOSA CURIEL,44.4965916506097,11.2482111080256
803,616,SAN FELICE,44.4974859045367,11.3320621878719
804,617,PORTA SAN FELICE,44.4990586935591,11.3279747634196
805,619,LAME,44.4974842367533,11.3365462619701
806,620,PORTA SAN FELICE,44.4988202757042,11.3282710806239
807,62001,RIGOSA CHIESA,44.5109376349497,11.2374240617917
808,62002,RIGOSA CHIESA,44.5110520866668,11.2379002367388
809,6201,DEPOSITO BATTINDARNO,44.5024463303234,11.2970807965983
810,6202,VITTORIO VENETO,44.4991162996063,11.3203371371592
811,6203,VITTORIO VENETO,44.4993185428628,11.3203247222217
812,6204,PASUBIO,44.4981228797974,11.3189408257385
813,6205,PASUBIO,44.4982391173677,11.3188966939852
814,6206,WEBER,44.4991764978329,11.3154881227798
815,6209,WEBER,44.4991428849338,11.3159246778026
816,621,LAME,44.4973433959046,11.3366098145858
817,6210,VELODROMO,44.5003341077885,11.3117571635434
818,6211,VELODROMO,44.5002440659584,11.3123966838732
819,6212,CIVIDALI,44.5013820062617,11.30824264022
820,6214,CHIESA CERTOSA,44.4992144896244,11.3079715424438
821,6215,CERTOSA GANDHI,44.4985765397363,11.3107522152047
822,6216,CERTOSA GANDHI,44.4985712884734,11.3105205061266
823,6217,CHIESA CERTOSA,44.4992018635772,11.3088185278545
824,6218,TOGLIATTI,44.5023218227836,11.2991165161528
825,6219,TOGLIATTI,44.5022377102115,11.3003593482608
826,622,MARCONI,44.4978326126839,11.3379065620016
827,6220,CENTRO VITTORIA - MAST,44.5037835914596,11.2940839917702
828,6221,EINAUDI,44.5050912312344,11.2813643594784
829,6222,TOGLIATTI PIETRA,44.5066247952646,11.2845558978757
830,6223,CENTRO VITTORIA - MAST,44.503959094437,11.2942261093341
831,6224,EINAUDI,44.5050456153026,11.2815913821444
832,6225,TOGLIATTI PIETRA,44.5067859062573,11.2846872038814
833,6226,LA MALFA,44.5052405121564,11.2798912649742
834,6227,LA MALFA,44.5053469613753,11.2798293715542
835,6228,DE NICOLA,44.5051937666277,11.2784278081481
836,6230,GALEAZZA,44.5031735342479,11.2775958836505
837,6231,DE NICOLA,44.5052198777092,11.2782471970197
838,6233,GALEAZZA,44.5030449883211,11.2775240415608
839,6234,SALVEMINI,44.5009118480367,11.2754408940834
840,6235,BOTTONELLI,44.5026193422989,11.278919493196
841,6236,ROTTA,44.4989328039425,11.2751665632759
842,6238,CASTELDEBOLE,44.5000389075321,11.27734405846
843,6239,LE TORRI,44.5039747738657,11.2797656358081
844,6241,SALVEMINI,44.5013525168576,11.2756616731131
845,6242,LE TORRI,44.50421213761,11.2803614196545
846,6243,VILLA RANUZZI,44.4925366644626,11.275382308035
847,6244,VILLA RANUZZI,44.4923780613462,11.2756331896369
848,6271,PIETRA,44.5107573748591,11.2860541548611
849,6272,PIETRA,44.5113927112738,11.2868637457109
850,6273,FAGGIOLO,44.5090141017399,11.2844314655557
851,6274,FAGGIOLO,44.5089013893646,11.2844962546008
852,6285,MARZABOTTO,44.5013411173223,11.3114589028666
853,6286,MARZABOTTO,44.5015614411021,11.3117765936982
854,6451,SANTA VIOLA,44.5068584900206,11.3035580783038
855,6452,SANTA VIOLA,44.5068733289367,11.3037426367781
856,6453,BATTINDARNO SEGANTINI,44.5042114776981,11.3003340176328
857,6454,BATTINDARNO SEGANTINI,44.5043102902509,11.300595789578
858,6455,DEPOSITO BATTINDARNO,44.5020510720601,11.2973612947963
859,6456,DEPOSITO BATTINDARNO,44.5021255830164,11.2978807638293
860,6459,BATTINDARNO DE CAROLIS,44.5000085598689,11.2958258426618
861,6460,DEPOSITO BATTINDARNO,44.5017760146951,11.2973850799963
862,6461,BERTOCCHI,44.500031899095,11.2938251465538
863,6462,BATTINDARNO DE CAROLIS,44.5001656288174,11.2961574740279
864,6463,DE PISIS,44.5005619263775,11.2903780988009
865,6464,BERTOCCHI,44.4999313114026,11.2937347341798
866,6467,GIOTTO,44.4993184840095,11.2899834816215
867,6468,GIOTTO,44.4998348388552,11.2905532311575
868,6469,ALTOBELLI,44.4993229427313,11.2883020558747
869,6470,GNUDI,44.4982079321678,11.2887702004295
870,6471,VIGHI,44.4982421546948,11.2854893685101
871,6472,VIGHI,44.4981139924343,11.2854552656935
872,6477,CENTRO SPORTIVO BARCA,44.49287464821,11.2813546376709
873,6478,NALDI,44.4922180964784,11.2828839582414
874,65,SILVANI,44.5005411700662,11.3289473283478
875,6501,PALLAVICINI,44.5241307333912,11.256271197129
876,6502,PALLAVICINI,44.5240422798844,11.255736108482
877,6503,PIOPPA,44.5274611937013,11.2460811581005
878,6504,PIOPPA,44.527237127307,11.2461732204508
879,6505,LAVINO DI MEZZO CHIESA,44.5304805621928,11.2381985508036
880,6506,LAVINO DI MEZZO CHIESA,44.5300099922721,11.2390661245501
881,6509,LAVINO DI MEZZO PONTE,44.5324361280859,11.2326050815474
882,6510,LAVINO DI MEZZO PONTE,44.5324141646841,11.2322895975503
883,6657,ARIOSTO,44.514023423288,11.2623959959044
884,6661,CAVALIERI DUCATI,44.5141291217757,11.2592467532405
885,6665,VILLA BELLOMBRA,44.5155458000151,11.2545556993546
886,6667,VILLAGGIO SPERANZA,44.5161367172374,11.2502148023724
887,6669,CA` NUOVA@,44.5163570170979,11.2459995655414
888,6673,RIGOSA@,44.5113801870134,11.2392448502367
889,6677,OLMETOLA@,44.5102350659419,11.2414867858427
890,6681,LA PICCIONAIA@,44.5098651042068,11.2457674094102
891,6685,VILLA BOSCHI@,44.508392105653,11.2523054183843
892,6689,COLLEGIO SAN LUIGI@,44.5070766398108,11.2568614834386
893,6693,CASE GIARDINO@,44.5095367902787,11.2596676364828
894,6695,BOIARDO@,44.5112109217003,11.2604809375913
895,67,PORTA LAME,44.5029411954924,11.3336996634339
896,7,STAZIONE CENTRALE,44.5057169730481,11.3428932332151
897,7001,PORTA SARAGOZZA - RISORGIMENTO,44.4905179456975,11.3283391113364
898,7002,PORTA SARAGOZZA - RISORGIMENTO,44.4903603428347,11.3282589496347
899,7003,SAN GIUSEPPE,44.4903418219043,11.3253860090079
900,7004,SAN GIUSEPPE,44.490194414059,11.3249431095771
901,7005,VILLA BENNI,44.4890743760065,11.3184861865623
902,7006,ORSONI,44.4896796162701,11.3214853240633
903,7007,ORSONI,44.4896184252516,11.3206764121098
904,7009,VILLA SPADA,44.4893438100317,11.3156074184809
905,701,PIAZZA MALPIGHI,44.494327673307,11.3363006599377
906,7010,VILLA BENNI,44.4889061605117,11.3183191702631
907,7011,MELONCELLO,44.4901195754765,11.3120891614491
908,7012,VILLA SPADA,44.4893879346814,11.3153183338034
909,7013,DELLO SPORT,44.4909103779746,11.307404112023
910,7014,MELONCELLO,44.4900126975161,11.3121989062339
911,7015,BIVIO SAN LUCA,44.4901943119635,11.3101207227761
912,7017,FUNIVIA,44.4912741401184,11.3030715576613
913,7018,BIVIO SAN LUCA,44.4901684017699,11.3094546958165
914,7019,DON STURZO,44.4895458529701,11.2995724808739
915,702,PIAZZA MALPIGHI,44.4941732509585,11.3364172728594
916,7020,DELLO SPORT,44.4909179638612,11.3070011605273
917,7021,TREVES,44.4887406666328,11.2975459717127
918,7022,FUNIVIA,44.4912483141675,11.3038495286117
919,7025,MILANI,44.4879620640398,11.29517772269
920,7028,DON STURZO,44.4890817507509,11.2988971174306
921,703,PIAZZA SAN FRANCESCO,44.4952327838339,11.3358981565668
922,7030,TREVES,44.4882003572106,11.2964502048772
923,704,PIAZZA MALPIGHI,44.4937066117216,11.3363222231153
924,705,SANT`ISAIA,44.4940177908548,11.3322760621384
925,7053,CROCEFISSI,44.490321957254,11.2894850378714
926,7054,CROCEFISSI,44.4895437233352,11.2895166804286
927,7055,LORENZETTI,44.4915995283907,11.2919922715833
928,7056,BONINSEGNA,44.4901909288939,11.2906031569813
929,706,SANT`ISAIA,44.4939418608581,11.332247086831
930,7060,FILANDA,44.4907264771293,11.29147779138
931,707,SANT`ISAIA,44.4934555621235,11.332707289457
932,709,PORTA SANT`ISAIA,44.4945503106171,11.329425668268
933,710,PORTA SANT`ISAIA,44.494379535675,11.3299636383733
934,7101,ANDREA COSTA,44.4950067683526,11.3264118308818
935,7102,ANDREA COSTA,44.494962159891,11.3259501907694
936,7103,SAN PAOLO RAVONE,44.4953842873193,11.3228209614683
937,7104,SAN PAOLO RAVONE,44.4952742503328,11.3230854405819
938,7105,CROCETTA,44.4953654164345,11.3195704279181
939,7106,CROCETTA,44.4953247352639,11.3202157898108
940,7109,MARTINI,44.4950162049607,11.3159860810055
941,711,PORTA SARAGOZZA - FRASSINAGO,44.4906302225976,11.330777963436
942,7110,MARTINI,44.4948761742757,11.315760426309
943,7111,MAGNANI,44.4943098348732,11.3126392062553
944,7112,MAGNANI,44.4941505609901,11.3125574429992
945,7113,STADIO,44.4938351811178,11.309431273224
946,7114,STADIO,44.4938106589552,11.3102832067829
947,7117,LINO,44.4934035326085,11.3063756894372
948,7118,LINO,44.4934475341347,11.3072276548217
949,7119,CERTOSA,44.4929352706847,11.3032871148415
950,7120,CERTOSA,44.4929151262789,11.3041737978576
951,7123,FUNIVIA,44.4915495062813,11.301916679405
952,7124,FUNIVIA,44.4918117357476,11.3021942613204
953,7125,GHISELLO,44.4933321354898,11.2992583474081
954,7126,GHISELLO,44.4930719442778,11.2998848314326
955,7127,BARCA,44.4940746936232,11.2966108829791
956,7128,BARCA,44.4939621735238,11.296666207563
957,7129,BELCANTONE,44.4954159060529,11.2936252218849
958,7130,BELCANTONE,44.4953104927415,11.2936069502732
959,7133,DE AMBRIS,44.495968102449,11.2910920024016
960,7134,DE AMBRIS,44.4958248225007,11.2916429606067
961,7135,BUOZZI,44.4962162596352,11.2882575185984
962,7136,BUOZZI,44.4961366089408,11.2881050514135
963,7140,RIGOLA,44.4941151936871,11.2869419356612
964,7142,TRENO,44.4949906539186,11.284780579982
965,7143,TRENO,44.4947782365705,11.284823371967
966,7144,TRENO,44.4943689601601,11.2845251671832
967,7145,TOMMASEO,44.4968000257922,11.2861648886356
968,7146,PIAZZA GIOVANNI XXIII,44.496330073638,11.2856096000971
969,7148,TOLSTOI,44.4970223647572,11.2883228707746
970,7150,TOMMASEO,44.4969001576197,11.2860257270434
971,7151,BELCANTONE,44.4956176511877,11.2944774342061
972,7152,BATTINDARNO VERONESE,44.4979843860663,11.295140246261
973,7153,BATTINDARNO VERONESE,44.4977701630575,11.2953008656098
974,7161,DI VITTORIO,44.4953482795727,11.2884436680316
975,7162,DI VITTORIO,44.4953024457896,11.2886808522199
976,7163,ROTONDA MALAGUTI,44.4907696003696,11.2881214761839
977,7171,MONTEFIORINO,44.4958575081354,11.3151751076882
978,7172,MONTEFIORINO,44.4965012390794,11.3153947720313
979,7201,RONCATI,44.4933270581829,11.3259779206274
980,7203,PIAZZA VOLTA,44.4928245911697,11.3234920078208
981,7204,PIAZZA VOLTA,44.4927802784954,11.3237614500977
982,7205,TURATI,44.4912352969713,11.3216280257835
983,7206,TURATI,44.4917436326878,11.3220027111066
984,7209,XXI APRILE ZANNONI,44.4918457558405,11.3175945233734
985,7210,XXI APRILE ZANNONI,44.4914287948304,11.3190283445212
986,7211,XXI APRILE MARTINI,44.4919805956185,11.3134353612114
987,7212,XXI APRILE MARTINI,44.4920122336889,11.3149277865313
988,7213,IRMA BANDIERA,44.4934695458907,11.3136782005696
989,7214,IRMA BANDIERA,44.4928956232286,11.3131453546947
990,7231,CASAGLIA,44.4866633934626,11.3151028237669
991,7232,CASAGLIA,44.4868136164947,11.3152698917457
992,7233,SCUOLE CARRACCI,44.4847172380044,11.3149314933217
993,7234,SCUOLE CARRACCI,44.4847347381654,11.3150398571567
994,7236,RAVONE,44.4824726026062,11.3148293135387
995,7301,AUDINOT,44.4917018377294,11.3273706472968
996,7302,GUIDOTTI,44.4925805402253,11.3254191983229
997,750,FARINI,44.4913272298124,11.3428780110771
998,753,FARINI,44.4913937567045,11.3422683307397
999,754,COLLEGIO DI SPAGNA,44.4902689213228,11.3368195652882
1000,755,COLLEGIO DI SPAGNA,44.4904475035705,11.3373750448484
1001,756,NOSADELLA,44.489997657892,11.333841110489
1002,758,D`AZEGLIO,44.4904402077467,11.3413552842558
1003,759,NOSADELLA,44.4901055866852,11.3341763461291
1004,760,PORTA SARAGOZZA - FRASSINAGO,44.4902541640872,11.3310082235157
1005,761,PORTA SARAGOZZA - FRASSINAGO,44.4903737912033,11.3312118663008
1006,799,PIAZZA CAVOUR,44.4911380953236,11.3436494084598
1007,8,STAZIONE CENTRALE,44.5048679385747,11.3446463347838
1008,800,PIAZZA CAVOUR,44.4909827348135,11.3436526159185
1009,8001,DELLE ROSE,44.4826007981663,11.3488521962647
1010,8002,PORTA CASTIGLIONE,44.4845413829601,11.3483068433986
1011,8003,CASTIGLIONE,44.4804958341879,11.3492368893607
1012,8004,DELLE ROSE,44.4817858487092,11.3492367424865
1013,8005,SCALINI,44.4783162234958,11.3479171205413
1014,8006,SCALINI,44.4776871734112,11.3464938185754
1015,8007,PORTA CASTIGLIONE,44.4842583259041,11.3482813343291
1016,8008,VILLA GUASTAVILLANI,44.4674760615122,11.3464341172012
1017,8009,BARBIANO,44.4763590193255,11.343603612131
1018,801,PIAZZA CAVOUR,44.4908116972176,11.3436520510135
1019,8010,BARBIANO,44.4761842543632,11.3433184338055
1020,8011,PUTTI,44.480608584582,11.3470927315764
1021,8012,IST. RIZZOLI - CENTRO RICERCA,44.4753565011427,11.3407171576292
1022,8013,PIAZZALE BACCHELLI,44.4806636963994,11.3441367648318
1023,8014,CASTIGLIONE,44.4805737998888,11.349352082467
1024,8015,BARBIANO 1,44.4751864026689,11.342700100215
1025,8016,SCALINI,44.4779730336437,11.3479701562305
1026,8017,PIAZZALE BACCHELLI,44.4807163892224,11.34378993006
1027,8018,PUTTI,44.4804806049405,11.3477068955724
1028,8019,ISTITUTO ORTOPEDICO RIZZOLI,44.4813262231845,11.3425883200241
1029,802,PIAZZA CAVOUR,44.490857404919,11.3441938927983
1030,8020,PIAZZALE BACCHELLI,44.4805391654756,11.3444194194114
1031,8021,CODIVILLA,44.4844686846827,11.3399003935368
1032,8022,ISTITUTO ORTOPEDICO RIZZOLI,44.4812985741386,11.3424826917141
1033,8023,BIVIO SAN VITTORE,44.4641928426214,11.3426569144533
1034,8024,POLIAMBULATORIO RIZZOLI,44.4760608226148,11.340997580925
1035,8026,SAN MICHELE IN BOSCO,44.4822874929936,11.3418911724614
1036,8028,CODIVILLA,44.4843874243454,11.3398570530496
1037,803,TRIBUNALE,44.4882271748656,11.3436899816823
1038,8030,BATTIVENTO,44.4712662434469,11.3468681607176
1039,8032,VILLA COLONNA,44.4735042857266,11.3466333549181
1040,8034,VILLA SAMPIERA,44.4746038479516,11.3481870329069
1041,8036,BELLA RIPA,44.4741879373012,11.3497506352877
1042,804,TRIBUNALE,44.487941664561,11.3442499663514
1043,805,XII GIUGNO,44.4857542029411,11.3469800592932
1044,806,XII GIUGNO,44.486361110632,11.3457853440705
1045,807,PIAZZA CAVOUR,44.4906625518747,11.3439282598029
1046,809,PIAZZA CAVOUR,44.4906438199961,11.3441004396043
1047,8101,ANNUNZIATA,44.4848039621945,11.3393274704809
1048,8102,ANNUNZIATA,44.4849362776501,11.3394876038595
1049,8103,BAGNI DI MARIO,44.482032254284,11.3373477842487
1050,8104,BAGNI DI MARIO,44.4824719347703,11.3380529779477
1051,8105,VILLA GHIGI,44.4792667683277,11.3359216448156
1052,8106,VILLA GHIGI,44.4801502600486,11.3366587357632
1053,8109,SAN MAMOLO,44.477670640798,11.3357219669932
1054,811,PIAZZA CAVOUR,44.4910375181768,11.3441908990591
1055,8110,SAN MAMOLO,44.4774636998932,11.3359911255437
1056,8111,BIVIO COLLI,44.4756320916292,11.3360531782993
1057,8112,BIVIO COLLI,44.4756533695166,11.3361954799398
1058,8113,FONTANINA,44.4722850516522,11.3382041855267
1059,8114,FONTANINA,44.472311132392,11.3382549844807
1060,8117,POLVERIERA,44.4705406059932,11.3380014233795
1061,8118,POLVERIERA,44.4704146761453,11.3380239017063
1062,8120,RONCRIO,44.4680827501128,11.3370467923058
1063,8144,VILLA BARUZZIANA,44.4834555179603,11.3358798169329
1064,8145,VILLA ALDINI,44.4811407364793,11.3289121770076
1065,8146,VILLA ALDINI,44.4810393191725,11.3286982937689
1066,8148,OSSERVANZA,44.481100886227,11.3266722926234
1067,8151,MONTE CUCCOLINO,44.4647639294214,11.3286605216502
1068,8152,MONTE CUCCOLINO,44.4649735777961,11.3288920001912
1069,8153,BIVIO GAIBOLA,44.4623470932501,11.3259929129398
1070,8154,GAIBOLA CHIESA,44.462897061411,11.3196484335046
1071,8155,GAIBOLA CHIESA,44.4629250674909,11.3195434832329
1072,8156,BIVIO GAIBOLA,44.4618354628119,11.3256143265069
1073,8157,CASA CANTINELLA,44.4558283955879,11.3192560977509
1074,8158,CASA CANTINELLA,44.4557778919153,11.3193876461155
1075,8159,FORTE,44.4539449101869,11.3172176238412
1076,8160,FORTE,44.4538555227282,11.3172140872038
1077,8161,PADERNO,44.4483098433671,11.3154418052004
1078,8162,PADERNO,44.4475368546896,11.3147703094437
1079,8163,TIRO AL PIATTELLO,44.4437017952941,11.309237897526
1080,8164,TIRO AL PIATTELLO,44.4437129610672,11.3094095585832
1081,8165,GAIBOLA,44.4665971293533,11.3199812647895
1082,8167,CAVAIONI,44.4421244611071,11.3080785253578
1083,8168,CAVAIONI,44.4421641724613,11.3082018324386
1084,8169,CA` BRUCIATA,44.4395549328931,11.308849074975
1085,8170,CA` BRUCIATA,44.439242040138,11.3093527197736
1086,8171,LUMIERA,44.4356461374513,11.3131548380841
1087,8172,LUMIERA,44.4355555842808,11.3132643482215
1088,8173,PARCO CAVAIONI,44.4422664300715,11.3039749162612
1089,8174,LASTRE,44.4489884187216,11.3234506226056
1090,8175,SABBIUNO,44.4289319746444,11.314841147723
1091,8176,SABBIUNO,44.4290559254964,11.3145280219653
1092,8177,CIPPO SABBIUNO,44.4215918654942,11.31470836555
1093,8178,CALANCHI,44.4281686685824,11.3154682186427
1094,8180,CIPPO SABBIUNO,44.4214569979807,11.3147273737089
1095,8181,CA` DI SAVINI,44.458448490962,11.3216758608717
1096,8182,CA` DI SAVINI,44.4581216978587,11.3216699811327
1097,851,TAGLIAPIETRE,44.491070817631,11.3400395132535
1098,855,SAN LUIGI PORTA SAN MAMOLO,44.4879902952184,11.3396301656664
1099,856,SAN LUIGI PORTA SAN MAMOLO,44.4872163370322,11.3396998191477
1100,897,PIAZZA MINGHETTI,44.4914667205311,11.3454288436924
1101,9,STAZIONE CENTRALE,44.505355911506,11.3427482589637
1102,9000,ISTITUTO ARCANGELI,44.4769760853259,11.3625179551851
1103,900002,SANT`ISAIA PIAZZA MALPIGHI,44.4934454449288,11.3351994858253
1104,9001,PORTA SANTO STEFANO,44.4835659228023,11.3578217749086
1105,9002,PORTA SANTO STEFANO,44.4838432897103,11.3576340623617
1106,9003,MURRI,44.4823647242179,11.3595353848415
1107,9004,MURRI,44.4823821165648,11.35975535617
1108,9005,STERLINO,44.4802656859159,11.3634125048337
1109,9006,STERLINO,44.4815392292964,11.361225633822
1110,9009,RAGNO,44.4781803901514,11.3654581644532
1111,9010,RAGNO,44.4797909839263,11.3642455315778
1112,9011,VARTHEMA,44.4762369027208,11.3668395693155
1113,9012,VARTHEMA,44.4773433492422,11.3663389157686
1114,9013,CHIESA NUOVA,44.473570669639,11.368673489741
1115,9014,CHIESA NUOVA,44.4739033098371,11.3684512060856
1116,9017,PARISIO,44.4721658160487,11.3696436662235
1117,9018,PARISIO,44.4716842467542,11.3703180298615
1118,9019,VILLA MAZZACORATI,44.4692465313267,11.3709807077204
1119,902,PIAZZA MINGHETTI,44.4915676549264,11.3457190170089
1120,9020,VILLA MAZZACORATI,44.4691073796737,11.3710976494422
1121,9021,CROCE DI CAMALDOLI,44.4665317110274,11.3706538892476
1122,9022,CROCE DI CAMALDOLI,44.4664095184323,11.3708485266729
1123,9025,DIRETTISSIMA,44.4639781656458,11.3707439289893
1124,9026,DIRETTISSIMA,44.4633857795966,11.370982986864
1125,9027,ANGELO CUSTODE,44.4606183244217,11.3702644022896
1126,9028,ANGELO CUSTODE,44.4600088266799,11.3703082869333
1127,9029,SAN RUFFILLO,44.4571108298822,11.3693627608559
1128,903,PIAZZA MINGHETTI,44.4914485173476,11.3471904690509
1129,9030,SAN RUFFILLO,44.4573066005837,11.3697171249232
1130,9035,PONTE SAVENA,44.4549374138082,11.3677823226861
1131,9036,PONTE SAVENA,44.4549023516322,11.367808445499
1132,9037,TOSCANA PIETRO DA ANZOLA,44.4525550459681,11.3645272894855
1133,904,PIAZZA MINGHETTI,44.4915695041157,11.3451908588863
1134,9040,TOSCANA PIETRO DA ANZOLA,44.4527314724958,11.3650552174304
1135,9042,SAN RUFFILLO STAZIONE,44.4630178117854,11.3728505642843
1136,905,GARGANELLI,44.4897524074418,11.3504834941819
1137,906,GARGANELLI,44.4896444767064,11.3507794094763
1138,909,FONDAZZA,44.4869197428306,11.3539349576484
1139,910,FONDAZZA,44.487096036265,11.3540355793021
1140,9100,PAVESE,44.4508371263027,11.3604808941941
1141,9101,GANDINO,44.4809216482541,11.3580303107386
1142,9102,GANDINO,44.4801963429898,11.3572143942693
1143,9103,BELLACOSTA,44.4795253406255,11.3581555888015
1144,9104,REDENTI,44.4783740672796,11.3549970983822
1145,9105,SANTA BARBARA,44.4777440630485,11.3559430840479
1146,9106,SANTA BARBARA,44.477054404337,11.3562076599299
1147,9109,BORGHI MAMO,44.4768167710353,11.3614445024105
1148,911,BARACCANO,44.4855267992865,11.3549344713453
1149,9110,SIEPELUNGA,44.4774763710745,11.3604848467268
1150,9111,VILLA HERCOLANI,44.4750731045091,11.3624224500363
1151,9112,BORGHI MAMO,44.4759653270323,11.3633818353869
1152,9113,MOLINELLI,44.473112602712,11.3648500514653
1153,9114,VILLA HERCOLANI,44.4745451242437,11.3634651517571
1154,9117,ROVIGHI,44.4725178854203,11.3662608985046
1155,9118,MOLINELLI,44.4727247823651,11.3659156505572
1156,9119,ARANZIO,44.4724300569766,11.3685424607458
1157,912,BARACCANO,44.4860180984749,11.3544661455621
1158,9120,ROVIGHI,44.4722439346515,11.367180209749
1159,9201,RAGNO,44.4785061873072,11.3671348939611
1160,9202,PARCHEGGIO LERCARO,44.4788714859563,11.3723601150258
1161,9203,DAGNINI,44.4773725290758,11.3680792296084
1162,9204,DAGNINI,44.4776589955404,11.3682118467904
1163,9205,ORTI,44.477071503369,11.3708175742283
1164,9206,ORTI,44.4775404655687,11.3699375377665
1165,9209,LUNETTA GAMBERINI,44.4765131457583,11.3737369540595
1166,9210,LUNETTA GAMBERINI,44.476657696168,11.372508487385
1167,9211,PO,44.4749249586325,11.379335514853
1168,9212,PO,44.4758775778729,11.3774434229288
1169,9213,CRICCA,44.4726557286863,11.3852672426605
1170,9214,PO,44.4752571763584,11.3791344938793
1171,9215,ROMA,44.470665253481,11.3903942635048
1172,9218,CRICCA,44.4728503766351,11.3853765511238
1173,9219,ALTURA,44.4639832676734,11.3933113131535
1174,9220,ROMA,44.4707521355456,11.3907859868657
1175,9221,OSPEDALE BELLARIA,44.4644108864681,11.3903305852647
1176,9222,ALTURA,44.4641301360154,11.3936865917505
1177,9225,ALTURA,44.4639478084596,11.3933923670943
1178,9226,OSPEDALE BELLARIA,44.4642965932096,11.3908986949724
1179,9227,CROARA BIVIO,44.4642764660006,11.3999820362401
1180,9229,PONTEBUCO BIVIO,44.4630430082101,11.4022067893803
1181,9261,PO,44.4760082303979,11.3768182858992
1182,9262,TORINO,44.472787795202,11.3778310330854
1183,9263,TORINO,44.4722989981515,11.3774182741349
1184,9264,ARMI,44.4691910415752,11.3770578814612
1185,9265,ARMI,44.4692238973435,11.3768038377337
1186,9266,MARCELLO,44.4669831356835,11.3764912924856
1187,9269,MARCELLO,44.4661216591084,11.3761685838065
1188,9270,CORTICELLI,44.463221958809,11.3756149984034
1189,9271,CORTICELLI,44.4627336684854,11.3752856306743
1190,9272,CORELLI,44.458745850194,11.3735617579243
1191,9273,CORELLI,44.4585372079841,11.373374154163
1192,9274,ROTONDA CORELLI,44.4556645471839,11.3719826370795
1193,9301,STERLINO,44.4805947670862,11.3617848127146
1194,9302,STERLINO,44.4805609882955,11.3618675355048
1195,9303,CARUSO,44.4788953782491,11.3607857272741
1196,9304,CARUSO,44.4785907580075,11.3607687094806
1197,9305,VILLA GETSEMANI,44.4722494108581,11.360421759776
1198,9306,SIEPELUNGA,44.4771949926236,11.3596134514348
1199,9309,VILLA MAGLI,44.4694114513369,11.3612054461787
1200,9310,VILLA GETSEMANI,44.4724772126389,11.3604796793724
1201,9311,VILLA BELCOLLE,44.4650156067222,11.3598597957556
1202,9312,VILLA MAGLI,44.4694771205858,11.361186093867
1203,9313,SCUOLE MERLANI,44.4625550156743,11.358229351998
1204,9314,VILLA BELCOLLE,44.4650657738799,11.3600189586761
1205,9318,SCUOLE MERLANI,44.4626396593192,11.358407972212
1206,9320,MONTE DONATO,44.4618864871334,11.3566806065508
1207,9322,SCUOLE MERLANI,44.4624076608879,11.3583592053111
1208,9323,BORGO GESSAIOLI,44.4608723139905,11.360613747472
1209,9324,BORGO GESSAIOLI,44.4608576230858,11.3604765959119
1210,9325,PICCHIO,44.4597121855547,11.3666563539743
1211,9326,PICCHIO,44.4593772777745,11.366691576736
1212,9328,ANGELO CUSTODE NOVARO,44.4587406551841,11.3687689774704
1213,9330,BUON PASTORE,44.4593347779697,11.369942088022
1214,9350,ALBORNOZ,44.4658597340313,11.3774796864682
1215,9352,PONCHIELLI,44.4671132539739,11.3732114282732
1216,9354,FOSCHERARA,44.4690624342387,11.373855407372
1217,9358,VILLA MAZZACORATI,44.4701577901249,11.3716430944088
1218,9360,PONCHIELLI,44.4664487472076,11.372588911666
1219,9401,VILLA MAZZACORATI,44.4691718400769,11.3717320104172
1220,9403,FOSCHERARA,44.4683251424906,11.3738655864827
1221,9405,BENEDETTO MARCELLO,44.4674502477278,11.3772158338238
1222,9450,CAVAZZONI,44.4708849898257,11.3781497630566
1223,9451,CAVAZZONI,44.4707594035757,11.3779120695717
1224,9452,CHERUBINI,44.4704851528728,11.381404709374
1225,9453,CHERUBINI,44.4704709079792,11.3806041974345
1226,9454,GUBELLINI,44.4687923068006,11.381313835971
1227,9455,GUBELLINI,44.4694771892538,11.3817125788525
1228,9458,BATTAGLIA,44.4666355631432,11.3794550647802
1229,9459,BATTAGLIA,44.4666131003002,11.3792097978474
1230,9460,ABBA,44.4649030364886,11.3788377975189
1231,9461,ALBORNOZ,44.4651450962283,11.3773202243603
1232,9462,STADIO FALCHI,44.4634964786879,11.3789409243131
1233,9463,STADIO FALCHI,44.463761919611,11.3785698796452
1234,9464,ALBORNOZ,44.4657701507535,11.3785116050399
1235,9466,ALBERTO MARIO,44.4607120643525,11.3794170366414
1236,9467,ALBERTO MARIO,44.4605852125646,11.3791321927155
1237,9499,TOSCANA PAVESE 2,44.4481439761853,11.3591313142172
1238,9501,TOSCANA PAVESE 1,44.4503269931326,11.3615050455315
1239,951,CARTOLERIA,44.4898128008817,11.3492447635044
1240,952,GARGANELLI,44.4894239539745,11.3496842645726
1241,953,CESTELLO,44.4879166167451,11.3478779806935
1242,954,RIALTO,44.4875084527322,11.3487096917284
1243,99010,VILLA SPADA,44.4887450396954,11.3161394268498
1244,99011,VILLA SPADA,44.488697353561,11.3162711749627
1245,99013,CASAGLIA 31,44.4846891945699,11.3142890340192
