node_id,stop_id,stop_name,stop_lat,stop_lon
0,106184,Achterdiek,53.08911,8.901169
1,430563,Agnes-Heineken-Str.,53.03877,8.832303
2,68592,Agnes-Heineken-Str.,53.03893,8.832407
3,316664,Ahrensstr.,53.086304,8.747167
4,62998,Ahrensstr.,53.08582,8.747961
5,297373,Akazienstr.,53.078526,8.779818
6,355674,Akazienstr.,53.07816,8.78067
7,200086,Albert-Bischof-Str.,53.11793,8.906047
8,53979,Albert-Bischof-Str.,53.117672,8.906197
9,198546,Albert-Bote-Str.,53.090313,8.704515
10,293132,Alfred-Faust-Str.,53.03003,8.823364
11,339672,Alfred-Faust-Str.,53.02999,8.82323
12,110137,Allerkai,53.057037,8.877513
13,73616,Allerkai,53.056507,8.878066
14,315988,Altenescher Str.,53.110226,8.770129
15,399112,Altenescher Str.,53.110477,8.769709
16,186828,Am Bahnhof St. Magnus,53.17484,8.668895
17,2558,Am Bahnhof St. Magnus,53.174507,8.670319
18,120143,Am Brill,53.07805,8.799591
19,171159,Am Brill,53.078194,8.801187
20,180063,Am Brill,53.078453,8.800291
21,184381,Am Brill,53.078663,8.801797
22,248996,Am Brill,53.078777,8.801379
23,94763,Am Brill,53.078087,8.801621
24,162946,Am Dammacker,53.055805,8.81528
25,213610,Am Dammacker,53.056057,8.815085
26,209149,Am Dobben,53.078526,8.824136
27,288153,Am Dobben,53.078445,8.823614
28,421155,Am Dobben,53.078373,8.823465
29,73041,Am Dobben,53.078632,8.823046
30,92037,Am Dobben,53.07858,8.822987
31,101546,Am Fillerkamp,53.198368,8.552387
32,126705,Am Fillerkamp,53.198895,8.553698
33,123230,Am Fuchsberg,53.129787,8.743014
34,301273,Am Fuchsberg,53.129715,8.743328
35,324970,Am Geestkamp,53.146896,8.711571
36,45542,Am Geestkamp,53.147892,8.711235
37,178958,Am Glockenstein,53.116802,8.690638
38,71767,Am Glockenstein,53.116795,8.690892
39,118040,Am Großen Kuhkamp,53.048183,8.949844
40,299790,Am Großen Kuhkamp,53.048183,8.949844
41,118296,Am Hahnenkamp,53.061996,8.951006
42,434993,Am Hahnenkamp,53.062416,8.950812
43,24782,Am Hallacker,53.06816,8.933873
44,437094,Am Hallacker,53.06779,8.933784
45,210356,Am Heidbergstift,53.174057,8.696494
46,366435,Am Heidbergstift,53.173836,8.698245
47,110167,Am Heiddamm,53.082165,8.940194
48,202942,Am Heiddamm,53.081173,8.940076
49,292396,Am Hulsberg,53.072296,8.84305
50,378084,Am Hulsberg,53.072395,8.842229
51,151494,Am Kapellenberg,53.164265,8.666061
52,222142,Am Kapellenberg,53.164253,8.665971
53,200306,Am Lehester Deich,53.118454,8.89707
54,358334,Am Lehester Deich,53.118866,8.897442
55,307175,Am Neuen Markt,53.072945,8.799376
56,444497,Am Neuen Markt,53.072727,8.799914
57,108796,Am Querkamp,53.09542,8.930085
58,160274,Am Querkamp,53.095493,8.929891
59,145312,Am Siek,53.063015,8.943547
60,158765,Am Siek,53.062954,8.943562
61,139349,Am Sodenmatt,53.045517,8.719165
62,430851,Am Sodenmatt,53.0461,8.718177
63,272588,Am Stern,53.083687,8.826085
64,340682,Am Stern,53.08454,8.825917
65,46687,Am Stern,53.08443,8.825351
66,51205,Am Stern,53.084038,8.825546
67,319771,Am Wall,53.08075,8.804593
68,361839,Am Wall,53.080338,8.8037
69,336115,Am Winterhafen,53.100754,8.763939
70,92901,Am Winterhafen,53.100735,8.763894
71,174619,Amselweg,53.108612,8.796956
72,21681,Amselweg,53.108433,8.797047
73,26238,Amselweg,53.10774,8.796886
74,458379,Amselweg,53.107624,8.796961
75,278408,An Smidts Park,53.152428,8.707513
76,56678,An Smidts Park,53.151302,8.709269
77,125546,An den Wühren,53.103523,8.902361
78,189833,An den Wühren,53.10375,8.902539
79,145589,An der Amtsweide,53.193024,8.533905
80,399872,An der Amtsweide,53.192657,8.534507
81,155280,An der Kämenade,53.059525,8.921999
82,394100,An der Kämenade,53.059277,8.924057
83,155317,An der Lehmkuhle,53.19362,8.565663
84,9610,An der Lehmkuhle,53.193863,8.566408
85,156813,Anna-Stiegler-Str.,53.040684,8.828017
86,298705,Anna-Stiegler-Str.,53.040874,8.82809
87,13569,Apfelallee,53.100048,8.902473
88,74946,Apfelallee,53.09975,8.90322
89,204901,Arberger Hafendamm,53.048058,8.883801
90,393987,Arberger Hafendamm,53.04784,8.883653
91,141505,Arensburgstr.,53.07821,8.855205
92,51264,Arensburgstr.,53.07888,8.854979
93,131851,Arsten,53.02765,8.837577
94,218024,Arsten,53.02735,8.837564
95,257133,Arster Kirche,53.030876,8.850667
96,46666,Arster Kirche,53.030838,8.850593
97,330966,Arster Landstr.,53.028214,8.850259
98,456712,Arster Landstr.,53.027855,8.849813
99,25432,Arsterdamm,53.047615,8.818908
100,381727,Arsterdamm,53.046486,8.818943
101,72627,Arsterdamm,53.04582,8.81735
102,152628,Ascherfeld,53.178894,8.624966
103,456485,Ascherfeld,53.178104,8.624703
104,340553,Auf dem Flintacker,53.189297,8.635003
105,162517,Auf dem Krümpel,53.17318,8.639417
106,323960,Auf dem Krümpel,53.17321,8.640314
107,187785,Auf dem Pasch,53.16708,8.684386
108,301665,Auf dem Pasch,53.168,8.686084
109,264804,Auf den Delben,53.14179,8.713802
110,441959,Auf den Delben,53.141956,8.713756
111,335688,Auf der Sandhöhe,53.080147,8.709882
112,419277,Auf der Sandhöhe,53.0801,8.709897
113,172441,August-Bebel-Allee,53.08566,8.873641
114,18640,August-Bebel-Allee,53.085896,8.873626
115,222763,August-Hinrichs-Str.,53.060028,8.803493
116,94287,August-Hinrichs-Str.,53.061604,8.805052
117,16416,Aumunder Heide,53.177734,8.618754
118,52990,Aumunder Heide,53.17849,8.618897
119,100130,Aumunder Kirche,53.17538,8.624323
120,76101,Aumunder Kirche,53.17438,8.623958
121,182556,BSAG - Zentrum,53.061626,8.786675
122,232653,BSAG - Zentrum,53.061253,8.784813
123,276573,BSAG - Zentrum,53.061092,8.785276
124,324174,BSAG - Zentrum,53.061264,8.785603
125,416422,BSAG - Zentrum,53.061413,8.7869
126,453001,BSAG - Zentrum,53.06122,8.784679
127,309005,Bakeweg,53.092323,8.750625
128,451538,Bakeweg,53.09201,8.75103
129,214109,Barbarossastr.,53.07904,8.860827
130,422174,Barbarossastr.,53.079006,8.860663
131,120734,Bardenflethstr.,53.060314,8.764204
132,357903,Bardenflethstr.,53.060627,8.767081
133,415999,Bardenflethstr.,53.060078,8.761759
134,93496,Bardenflethstr.,53.060684,8.767662
135,145655,Bayernstr.,53.10665,8.796055
136,77664,Bayernstr.,53.106293,8.795743
137,380031,"Beckedorf, Aumunder Weidestr., Mast 2",53.19496,8.614714
138,360312,"Beckedorf, Aumunder Weidestr., Mast 3",53.194424,8.615153
139,11717,Beckers Barg,53.167645,8.708636
140,427910,Beckers Barg,53.167946,8.709651
141,165845,Bei den Drei Pfählen,53.0712,8.85029
142,198008,Bei den Drei Pfählen,53.070995,8.850559
143,312832,Bei den Drei Pfählen,53.071148,8.850797
144,408873,Bei den Drei Pfählen,53.071507,8.850706
145,177332,Beim Bohnenhof,53.05147,8.949691
146,399491,Beim Bohnenhof,53.05116,8.949602
147,159352,Beim Kleinen Tagwerk,53.096825,8.909123
148,6095,Beim Kleinen Tagwerk,53.096333,8.909945
149,259834,Belmerstr.,53.050922,8.894844
150,33909,Belmerstr.,53.05116,8.895544
151,172551,Bennigsenstr.,53.070446,8.856454
152,264025,Bennigsenstr.,53.070526,8.855767
153,443014,Bennigsenstr.,53.06997,8.8575
154,27782,Bergener Str.,53.031395,8.903268
155,98863,Bergener Str.,53.03154,8.903103
156,119592,Berliner Freiheit,53.079308,8.89373
157,237390,Berliner Freiheit,53.079453,8.893685
158,313389,Berliner Freiheit,53.07944,8.891372
159,318295,Berliner Freiheit,53.07938,8.892715
160,40885,Berliner Freiheit,53.0792,8.890657
161,429083,Berliner Freiheit,53.079353,8.893536
162,282947,Bernauer Str.,53.10942,8.801522
163,81110,Bernauer Str.,53.109615,8.801625
164,186101,Berufsbildungswerk,53.102276,8.859409
165,276736,Berufsbildungswerk,53.10227,8.85926
166,29357,Berufsbildungswerk,53.10261,8.859304
167,95155,Berufsbildungswerk,53.102898,8.858392
168,254388,Besanstr.,53.189846,8.566165
169,395972,Besanstr.,53.189,8.567445
170,242841,Betonstr.,53.203712,8.524076
171,389724,Betonstr.,53.203102,8.524038
172,276646,Betriebshof Blumenthal,53.1935,8.559978
173,286572,Betriebshof Blumenthal,53.193295,8.560848
174,403420,Betriebshof Blumenthal,53.194206,8.559597
175,197316,Bf Aumund,53.183434,8.619407
176,431488,Bf Aumund,53.18364,8.61933
177,150762,Bf Blumenthal,53.183445,8.579781
178,191793,Bf Blumenthal,53.183353,8.579543
179,203497,Bf Blumenthal,53.183266,8.580367
180,357049,Bf Blumenthal,53.183167,8.579904
181,114118,Bf Burg,53.160465,8.704423
182,169153,Bf Burg,53.160606,8.704378
183,172275,Bf Burg,53.160267,8.70444
184,322221,Bf Burg,53.160797,8.704287
185,113271,Bf Farge,53.205456,8.519133
186,267318,Bf Farge,53.205734,8.517199
187,214098,Bf Kreinsloger,53.189823,8.557862
188,392539,Bf Kreinsloger,53.19017,8.558756
189,250400,Bf Lesum,53.171272,8.683638
190,46650,Bf Lesum,53.17108,8.685792
191,110109,Bf Mahndorf,53.03966,8.944188
192,171757,Bf Mahndorf,53.039753,8.944129
193,19194,Bf Mahndorf,53.040325,8.944262
194,357876,Bf Mahndorf,53.04023,8.944545
195,446855,Bf Mahndorf,53.039543,8.944427
196,53507,Bf Mahndorf,53.040245,8.944396
197,207947,Bf Neustadt,53.075916,8.78368
198,271975,Bf Neustadt,53.076347,8.783231
199,208305,Bf Oberneuland,53.08749,8.938366
200,98443,Bf Oberneuland,53.087723,8.938425
201,266184,Bf Oslebshausen,53.135044,8.740129
202,135923,Bf Schönebeck,53.174026,8.651583
203,187343,Bf Schönebeck,53.17379,8.648579
204,121856,Bf Sebaldsbrück,53.062202,8.887597
205,169423,Bf Sebaldsbrück,53.062244,8.885285
206,171388,Bf Sebaldsbrück,53.062428,8.887208
207,375090,Bf Sebaldsbrück,53.061726,8.886121
208,372235,Bf Turnerstr.,53.19412,8.545264
209,375081,Bf Turnerstr.,53.19409,8.54507
210,148972,Bf Vegesack,53.169327,8.628159
211,178763,Bf Vegesack,53.16954,8.627559
212,179120,Bf Vegesack,53.169346,8.628264
213,275118,Bf Vegesack,53.170044,8.627989
214,415820,Bf Vegesack,53.169758,8.628305
215,419435,Bf Vegesack,53.16971,8.627199
216,118333,Bf Walle,53.102623,8.784846
217,237249,Bf Walle,53.10213,8.784475
218,274940,Bf Walle,53.103374,8.787276
219,316618,Bf Walle,53.10203,8.785327
220,381691,Bf Walle,53.102924,8.785994
221,313149,Bgm.-Spitta-Allee,53.091427,8.872341
222,340335,Bgm.-Spitta-Allee,53.090984,8.870521
223,359127,Bgm.-Spitta-Allee,53.09115,8.870789
224,375294,Bgm.-Spitta-Allee,53.091362,8.870296
225,40505,Bgm.-Spitta-Allee,53.091362,8.869744
226,453652,Bgm.-Spitta-Allee,53.091274,8.873132
227,143494,Blumenhorster Str.,53.18463,8.603854
228,65792,Blumenhorster Str.,53.1846,8.60535
229,230979,Blumenkamp,53.168465,8.661527
230,397361,Blumenkamp,53.168724,8.66154
231,170212,Blumenthal/Markt,53.1815,8.573698
232,306242,Blumenthal/Markt,53.181408,8.573369
233,152776,Blumenthalstr.,53.08361,8.817519
234,57691,Blumenthalstr.,53.08372,8.81828
235,184182,Bockhorner Weg,53.19242,8.575086
236,203382,Bockhorner Weg,53.192905,8.574617
237,145129,Bollener Landstr.,53.03441,8.952751
238,417730,Bollener Landstr.,53.034588,8.952394
239,405832,Borchsholt,53.183086,8.634562
240,119327,Bordeaux-Str.,53.036255,8.901766
241,296407,Borgfeld,53.12729,8.898841
242,302279,Borgfeld,53.12674,8.898872
243,357827,Borgfeld-Ost,53.119705,8.912824
244,301586,Borgwardstr.,53.04544,8.844519
245,409766,Borgwardstr.,53.046143,8.845306
246,24824,Bottroper Str.,53.072132,8.920588
247,336315,Bottroper Str.,53.072132,8.921096
248,427835,Bottroper Str.,53.07163,8.920037
249,214145,Brahmsstr.,53.085808,8.831181
250,427484,Brahmsstr.,53.085777,8.830569
251,172642,Brandenburger Str.,53.082005,8.8681
252,408692,Brandenburger Str.,53.08229,8.866876
253,82183,Bremen Hbf,53.08348,8.813834
254,374746,Bremen central train station (Breitenweg),53.08218,8.810576
255,247255,"Bremen, Am Brill A",53.078358,8.80037
256,82321,"Bremen, Am Brill B",53.078312,8.799967
257,36016,"Bremen, Am Brill, M1-B",53.07824,8.799683
258,100675,"Bremen, Am Brill, M2-A",53.078213,8.799937
259,142215,"Bremen, Am Brill-Bussteig D",53.078316,8.799964
260,268396,"Bremen, Am Brill-Bussteig D",53.078377,8.800135
261,137154,"Bremen, Am Lehester Deich",53.1187,8.89734
262,186985,"Bremen, Am Lehester Deich",53.11863,8.89721
263,121762,"Bremen, Am Wall",53.080505,8.804002
264,153056,"Bremen, Am Wall",53.08062,8.804301
265,408206,"Bremen, Am Wall",53.080624,8.8043
266,4086,"Bremen, Am Wall",53.0805,8.803996
267,383001,"Bremen, Am Wall, Mast 1",53.080494,8.803928
268,256501,"Bremen, Am Wall, Mast 2",53.080505,8.804181
269,175933,"Bremen, Arster Hemm",53.024483,8.858918
270,243759,"Bremen, Arster Hemm",53.02448,8.858914
271,409251,"Bremen, Arster Hemm",53.024292,8.859436
272,70540,"Bremen, Arster Hemm",53.02429,8.859442
273,207037,"Bremen, Arster Hemm1",53.02424,8.859481
274,179570,"Bremen, Arster Hemm2",53.024433,8.859033
275,132563,"Bremen, Arster Landstraße",53.02786,8.849803
276,393646,"Bremen, Arster Landstraße",53.02786,8.849807
277,384746,"Bremen, Arster Landstraße1",53.027874,8.849688
278,107995,"Bremen, Arsterdamm",53.047592,8.818927
279,235753,"Bremen, Arsterdamm",53.04587,8.817331
280,250455,"Bremen, Arsterdamm",53.047455,8.818905
281,32767,"Bremen, Arsterdamm",53.0465,8.818924
282,403426,"Bremen, Arsterdamm",53.0465,8.818919
283,350040,"Bremen, Arsterdamm2",53.0475,8.818786
284,416098,"Bremen, Arsterdamm3",53.04654,8.818685
285,328120,"Bremen, Auf dem Bockhorn, Mast 1",53.213013,8.585262
286,416658,"Bremen, Auf dem Bockhorn, Mast 2",53.213127,8.585186
287,118203,"Bremen, August-Hinrichs-Straße",53.06001,8.803603
288,222011,"Bremen, August-Hinrichs-Straße",53.060127,8.803194
289,290580,"Bremen, August-Hinrichs-Straße",53.061584,8.805095
290,441899,"Bremen, August-Hinrichs-Straße",53.060104,8.80317
291,448948,"Bremen, August-Hinrichs-Straße",53.059998,8.803565
292,55061,"Bremen, August-Hinrichs-Straße1",53.06009,8.803259
293,192469,"Bremen, August-Hinrichs-Straße2",53.059963,8.803499
294,169671,"Bremen, Aumunder Heide1",53.17837,8.618903
295,54928,"Bremen, Aumunder Heide2",53.17785,8.618803
296,377639,"Bremen, Bahnhof Aumund1",53.183308,8.619413
297,120932,"Bremen, Bahnhof Aumund2",53.18375,8.619379
298,299172,"Bremen, Bahnhof Burg, Mast 4",53.16052,8.704298
299,254169,"Bremen, Bahnhof Burg, Mast 5",53.160313,8.704463
300,442455,"Bremen, Bahnhof Lesum, Mast 1",53.17105,8.685555
301,430128,"Bremen, Bahnhof Sebaldsbrück, Mast 1-D",53.06191,8.888233
302,209185,"Bremen, Bahnhof Sebaldsbrück, Mast 2-C",53.061977,8.888874
303,169970,"Bremen, Bahnhof Vegesack, Mast 4",53.169464,8.627643
304,68149,"Bremen, Blumenthalstraße",53.08364,8.8179
305,77135,"Bremen, Blumenthalstraße",53.08363,8.81777
306,346262,"Bremen, Borgfeld",53.12706,8.89883
307,385514,"Bremen, Borgfeld",53.12706,8.89888
308,423094,"Bremen, Brandenburger Straße, Mast 1",53.081993,8.868116
309,267299,"Bremen, Brandenburger Straße, Mast 2",53.082264,8.866816
310,268515,"Bremen, Bruchhauser Straße",53.039127,8.834928
311,381258,"Bremen, Bruchhauser Straße",53.03914,8.834851
312,57659,"Bremen, Bruchhauser Straße",53.03914,8.834854
313,72972,"Bremen, Bruchhauser Straße",53.039124,8.834924
314,10878,"Bremen, Bruchhauser Straße1",53.03914,8.834794
315,439978,"Bremen, Bruchhauser Straße2",53.0392,8.834809
316,371652,"Bremen, DIAKO1",53.126717,8.746778
317,424709,"Bremen, DIAKO2",53.12618,8.747245
318,328268,"Bremen, Delmestraße",53.068024,8.79079
319,334983,"Bremen, Delmestraße",53.068073,8.790881
320,336280,"Bremen, Delmestraße",53.06805,8.790836
321,62334,"Bremen, Delmestraße",53.068043,8.790731
322,223152,"Bremen, Delmestraße1",53.06805,8.790701
323,425729,"Bremen, Delmestraße2",53.068104,8.790686
324,76554,"Bremen, Friedehorst, Mast 1",53.176975,8.685018
325,40813,"Bremen, Fähranleger Blumenthal",53.181824,8.560992
326,366429,"Bremen, Fähranleger Farge",53.198566,8.518456
327,331288,"Bremen, Fähranleger Vegesack",53.168613,8.622535
328,281078,"Bremen, Föhrenstraße, Mast 1",53.065502,8.877911
329,69223,"Bremen, Föhrenstraße, Mast 2",53.065403,8.878374
330,30599,"Bremen, G.-Heinemann-Bürgerhaus1",53.174656,8.618008
331,157844,"Bremen, G.-Heinemann-Bürgerhaus2",53.174404,8.618339
332,306777,"Bremen, Gastfeldstraße",53.066536,8.793335
333,312998,"Bremen, Gastfeldstraße",53.066265,8.794083
334,388157,"Bremen, Gastfeldstraße",53.066235,8.794071
335,440423,"Bremen, Gastfeldstraße",53.06655,8.793361
336,187409,"Bremen, Gastfeldstraße, Mast 1",53.066563,8.793365
337,456897,"Bremen, Gastfeldstraße, Mast 2",53.065945,8.794532
338,121691,"Bremen, Gerhard-Rohlfs-Straße1",53.17172,8.621565
339,267623,"Bremen, Gerhard-Rohlfs-Straße2",53.171658,8.621476
340,306550,"Bremen, Goldbergplatz1",53.17044,8.702703
341,443848,"Bremen, Goldbergplatz2",53.1707,8.702567
342,232140,"Bremen, Gröpelingen, Mast 1",53.121284,8.753071
343,219835,"Bremen, Gröpelingen, Mast 2",53.12151,8.752651
344,221146,"Bremen, Gröpelingen, Mast 3",53.120537,8.75197
345,355969,"Bremen, Gröpelingen, Mast 4",53.120537,8.752896
346,100729,"Bremen, Hauptbahnhof",53.0818,8.81385
347,19335,"Bremen, Hauptbahnhof",53.082066,8.81352
348,336989,"Bremen, Hauptbahnhof",53.082146,8.813355
349,380706,"Bremen, Hauptbahnhof",53.0818,8.81385
350,9179,"Bremen, Hauptbahnhof I",53.082012,8.813281
351,296490,"Bremen, Hauptbahnhof M",53.081905,8.813834
352,300462,"Bremen, Hauptbahnhof, Mast 2-H",53.081867,8.81364
353,334033,"Bremen, Hauptbahnhof, Mast 3-I",53.082012,8.813341
354,299959,"Bremen, Hauptbahnhof, Mast 4-J (SEV)",53.082146,8.813087
355,379205,"Bremen, Hauptbahnhof, Mast 5-K",53.08222,8.813251
356,151425,"Bremen, Hbf Bremen-Bussteig K",53.082146,8.813349
357,210803,"Bremen, Hochschule Bremen",53.072174,8.790865
358,379508,"Bremen, Hochschule Bremen",53.072487,8.791224
359,421140,"Bremen, Hochschule Bremen",53.07249,8.791217
360,441232,"Bremen, Hochschule Bremen",53.072178,8.790861
361,171071,"Bremen, Hochschule Bremen1",53.07259,8.791351
362,376240,"Bremen, Hochschule Bremen2",53.072178,8.79098
363,289474,"Bremen, Hochschulring",53.10659,8.86246
364,343733,"Bremen, Hochschulring",53.1067,8.86218
365,80480,"Bremen, Holzweide, Mast 1",53.042236,8.959087
366,340206,"Bremen, Holzweide, Mast 2",53.042175,8.959266
367,209983,"Bremen, Huckelriede",53.051823,8.818973
368,427249,"Bremen, Huckelriede",53.05192,8.819342
369,62397,"Bremen, Huckelriede, Mast 1",53.051987,8.819155
370,90749,"Bremen, Huckelriede, Mast 2",53.051746,8.819126
371,247888,"Bremen, In der Laake",53.030575,8.845488
372,27366,"Bremen, In der Laake",53.030327,8.845813
373,403548,"Bremen, In der Laake",53.030575,8.845493
374,459236,"Bremen, In der Laake",53.030323,8.845817
375,257471,"Bremen, In der Laake1",53.030476,8.845563
376,221903,"Bremen, In der Laake2",53.030575,8.845548
377,281282,"Bremen, Klinikum Bremen-Mitte, Mast 1",53.076744,8.837889
378,401637,"Bremen, Klinikum Bremen-Mitte, Mast 2",53.07701,8.836694
379,139247,"Bremen, Kopernikusstraße",53.10975,8.88572
380,50902,"Bremen, Kopernikusstraße",53.10989,8.88593
381,361268,"Bremen, Kurfürstenallee, Mast 1",53.082474,8.855156
382,189991,"Bremen, Kurfürstenallee, Mast 2",53.08258,8.854738
383,397999,"Bremen, Lerchenstraße, Mast 1",53.190704,8.618404
384,454690,"Bremen, Lerchenstraße, Mast 2",53.190884,8.618388
385,312910,"Bremen, Loignystraße, Mast 1",53.082382,8.860158
386,350632,"Bremen, Loignystraße, Mast 2",53.082695,8.859783
387,219554,"Bremen, Martin-Buber-Str., Mast 1",53.03531,8.841609
388,178951,"Bremen, Martin-Buber-Str., Mast 2",53.03565,8.840952
389,116840,"Bremen, Martin-Buber-Straße",53.035732,8.840931
390,264119,"Bremen, Martin-Buber-Straße",53.035244,8.841669
391,268938,"Bremen, Martin-Buber-Straße",53.03573,8.840936
392,357605,"Bremen, Martin-Buber-Straße",53.035248,8.841665
393,89257,"Bremen, Mercedes-Benz Tor 7, Mast 1",53.06218,8.914197
394,256231,"Bremen, Mercedes-Benz, Tor 7, Richtung Hude",53.06235,8.914062
395,102219,"Bremen, Milchstraße, Mast 1",53.192505,8.617191
396,429157,"Bremen, Milchstraße, Mast 2",53.192856,8.616963
397,387081,"Bremen, Mittelsb. Landstraße, Mast 1",53.143078,8.714673
398,371544,"Bremen, Mittelsb. Landstraße, Mast 2",53.14305,8.714658
399,249307,"Bremen, Osterholzer Friedhof1",53.059547,8.913829
400,147701,"Bremen, Osterholzer Friedhof2",53.05988,8.914664
401,227759,"Bremen, Osterholzer Heerstraße1",53.05897,8.92996
402,50719,"Bremen, Osterholzer Heerstraße2",53.059097,8.930034
403,412894,"Bremen, Osterholzer Möhlendamm, Mast 1",53.05785,8.951149
404,430904,"Bremen, Osterholzer Möhlendamm, Mast 2",53.05795,8.950881
405,261591,"Bremen, Pappelstraße",53.06959,8.788037
406,282680,"Bremen, Pappelstraße",53.069595,8.788037
407,320522,"Bremen, Pappelstraße",53.06969,8.787952
408,414725,"Bremen, Pappelstraße",53.06969,8.787947
409,405823,"Bremen, Pappelstraße1",53.06962,8.788007
410,67225,"Bremen, Pappelstraße2",53.069584,8.787993
411,121990,"Bremen, Ritterhuder Heerstraße, Mast 1",53.13401,8.73557
412,48706,"Bremen, Ritterhuder Heerstraße, Mast 2",53.13325,8.737607
413,196320,"Bremen, Sebaldsbrück, M1 R Achim",53.05922,8.900729
414,16798,"Bremen, Sebaldsbrück, M2 R Bremen",53.059326,8.900296
415,210969,"Bremen, Sebaldsbrück1",53.059464,8.900012
416,359215,"Bremen, Segelsbrück, Ankunft",53.05865,8.897149
417,103156,"Bremen, Soester Straße",53.033924,8.810417
418,409065,"Bremen, Soester Straße",53.034275,8.810923
419,229750,"Bremen, St.-Joseph-Stift, Mast 1",53.082336,8.83748
420,177520,"Bremen, St.-Joseph-Stift, Mast 2",53.082333,8.835495
421,167819,"Bremen, Stader Landstraße, Mast 1",53.1676,8.702977
422,177935,"Bremen, Stader Landstraße, Mast 2",53.16723,8.702052
423,415833,"Bremen, Stader Str./Bismarckstr., Mast 1",53.073483,8.853261
424,347602,"Bremen, Stader Str./Bismarckstr., Mast 2",53.073902,8.851483
425,166841,"Bremen, Steubenstraße, Mast 1",53.071365,8.86291
426,234740,"Bremen, Steubenstraße, Mast 2",53.071526,8.863058
427,9241,"Bremen, Stockholmer Straße, Mast 1",53.17397,8.719974
428,5937,"Bremen, Stockholmer Straße, Mast 2",53.17423,8.720466
429,436018,"Bremen, Tenever, Mast 1",53.05735,8.961714
430,32412,"Bremen, Tenever, Mast 2",53.057674,8.964817
431,314866,"Bremen, Universität Süd",53.10529,8.84997
432,5773,"Bremen, Universität Süd",53.10484,8.85118
433,115926,"Bremen, Upsalastr., Mast 1",53.177296,8.716825
434,356995,"Bremen, Upsalastr., Mast 2",53.177296,8.716825
435,10598,"Bremen, Varreler Landstraße",53.03609,8.726759
436,315274,"Bremen, Varreler Landstraße",53.036312,8.727205
437,343434,"Bremen, Verdunstraße, Mast 1",53.081066,8.843695
438,430264,"Bremen, Verdunstraße, Mast 2",53.081165,8.843173
439,33523,"Bremen, Werner-Steenken-Straße, Mast 1",53.05293,8.961837
440,341300,"Bremen, Werner-Steenken-Straße, Mast 2",53.053432,8.962359
441,150588,"Bremen, Weserpark, Mast 1",53.04916,8.960542
442,327262,"Bremen, Weserpark, Mast 2",53.04924,8.960886
443,105416,"Bremen, Westerstraße",53.075043,8.795071
444,302586,"Bremen, Westerstraße",53.07397,8.79333
445,340876,"Bremen, Westerstraße",53.07397,8.79333
446,411781,"Bremen, Westerstraße",53.075047,8.795077
447,46520,"Bremen, Westerstraße",53.075043,8.795071
448,84862,"Bremen, Westerstraße",53.073967,8.79333
449,173916,"Bremen, Westerstraße, Mast 1",53.07387,8.793091
450,267090,"Bremen, Westerstraße, Mast 2",53.07507,8.795295
451,232337,"Bremen, Wilhelm-Zöllig-Straße, Mast 1",53.186256,8.619132
452,435689,"Bremen, Wilhelm-Zöllig-Straße, Mast 2",53.186607,8.619129
453,251632,"Bremen, Wolfskuhlenweg",53.039997,8.814552
454,409703,"Bremen, Wolfskuhlenweg",53.0389,8.813572
455,263166,Bremen-Huckelriede,53.051746,8.819171
456,73696,Bremen-Huckelriede,53.051888,8.819364
457,137988,"Bremen-Mahndorf, Bahnhof, Mast 1",53.0396,8.944294
458,258763,Bremer Vulkan,53.177567,8.601062
459,259640,Bremer Vulkan,53.177357,8.602126
460,27035,Bremervörder Str.,53.097767,8.781138
461,70849,Bremervörder Str.,53.09844,8.779925
462,35939,Brenningstr.,53.037426,8.836721
463,410389,Brenningstr.,53.037346,8.838257
464,106722,Bromberger Str.,53.12109,8.761497
465,201424,Bruchhauser Str.,53.039093,8.834911
466,253830,Bruchhauser Str.,53.039112,8.834911
467,376365,Brunnenstr.,53.072124,8.828847
468,75340,Brunnenstr.,53.072342,8.828354
469,25724,Brünsweg,53.044537,8.897185
470,260609,Brünsweg,53.044113,8.897708
471,159277,Brüsseler Str.,53.055775,8.716115
472,268026,Brüsseler Str.,53.05654,8.717498
473,335391,Brüsseler Str.,53.05654,8.717498
474,427093,Brüsseler Str.,53.056427,8.714963
475,174443,Bulthauptstr.,53.0882,8.832679
476,405534,Bulthauptstr.,53.088406,8.832887
477,103976,Burgdammer Postweg,53.175026,8.705984
478,178270,Burgdammer Postweg,53.175793,8.70716
479,81051,Burgdammer Postweg,53.17553,8.70598
480,105567,Burgdammer Ring,53.169453,8.712511
481,135176,Burgdammer Ring,53.169903,8.712748
482,334731,Burger Dorfstr.,53.154945,8.704626
483,335292,Burger Dorfstr.,53.155056,8.704565
484,133979,Buschdeel,53.18979,8.543739
485,270822,Buschdeel,53.18995,8.543363
486,149606,Buschdeel/Wendeplatz,53.190697,8.543041
487,138583,Busestr.,53.09498,8.837653
488,403493,Busestr.,53.09507,8.837698
489,52582,Busestr./ Bürgerpark,53.097424,8.835644
490,86946,Busestr./ Bürgerpark,53.096954,8.835004
491,425710,Bürgermeister-Kaisen-Allee,53.121063,8.899857
492,72557,Bürgermeister-Kaisen-Allee,53.120937,8.900156
493,292141,Bürgerpark,53.08662,8.818163
494,308191,Bürgerpark,53.086803,8.818864
495,382180,Bürgerpark,53.086605,8.818387
496,389937,Bürgerpark,53.086246,8.818105
497,138741,Campingplatz,53.11506,8.83374
498,409780,Campingplatz,53.11511,8.83253
499,121572,Carl-Goerdeler-Str.,53.079224,8.897013
500,155522,Carl-Goerdeler-Str.,53.079323,8.89658
501,322918,Carl-Goerdeler-Str.,53.079338,8.896759
502,333468,Carl-Goerdeler-Str.,53.07939,8.896923
503,321093,Carl-Hurtzig-Str.,53.0549,8.739864
504,387514,Carl-Hurtzig-Str.,53.05517,8.739117
505,60516,Carl-Hurtzig-Str.,53.0549,8.739864
506,9532,Carl-Hurtzig-Str.,53.05517,8.739117
507,238364,Carsten-Dreßler-Str.,53.034004,8.844366
508,364615,Carsten-Dreßler-Str.,53.033672,8.84477
509,353142,Celsiusstr.,53.10961,8.847962
510,439361,Celsiusstr.,53.109173,8.8475
511,232258,Christernstr.,53.054813,8.89461
512,415229,Christernstr.,53.054115,8.895462
513,428651,Christernstr.,53.054615,8.893656
514,45717,Christernstr.,53.054893,8.892552
515,183632,Colshornstr.,53.03816,8.924437
516,369629,Colshornstr.,53.038357,8.925465
517,217541,Contain.-Terminal II,53.587845,8.542565
518,32898,Contain.-Terminal II,53.587593,8.542537
519,118337,Container-Terminal I,53.580856,8.548136
520,265131,Container-Terminal I,53.581127,8.547891
521,176,Cornelius-Edzard-Str.,53.054066,8.790516
522,222880,Cornelius-Edzard-Str.,53.054005,8.79159
523,149875,Crüsemannallee,53.091076,8.834877
524,224524,Crüsemannallee,53.091778,8.835456
525,407855,Crüsemannallee,53.09158,8.835203
526,51544,Crüsemannallee,53.0912,8.835026
527,406100,Cuxhavener Str.,53.100224,8.77381
528,123749,D.-Bonhoeffer-Str.,53.078518,8.902894
529,318366,D.-Bonhoeffer-Str.,53.07869,8.902551
530,354385,D.-Bonhoeffer-Str.,53.078815,8.902655
531,399866,D.-Bonhoeffer-Str.,53.078552,8.903133
532,226382,DIAKO Bremen,53.125977,8.747189
533,342435,DIAKO Bremen,53.126713,8.746752
534,209007,Daniel-Jacobs-Allee,53.123928,8.900074
535,426781,Daniel-Jacobs-Allee,53.12356,8.90003
536,175868,Daniel-v.-Büren-Str.,53.085117,8.803872
537,264405,Daniel-v.-Büren-Str.,53.08551,8.802646
538,283586,Daniel-v.-Büren-Str.,53.08488,8.803291
539,412989,Daniel-v.-Büren-Str.,53.08474,8.802695
540,458798,Daniel-v.-Büren-Str.,53.084988,8.802261
541,85302,De Kreienbarg,53.210873,8.512636
542,88328,De Kreienbarg,53.210865,8.512636
543,134690,Delfter Str.,53.044106,8.722931
544,422116,Delfter Str.,53.043613,8.723471
545,129613,Deliusweg,53.089157,8.891766
546,291226,Deliusweg,53.08927,8.892825
547,163551,Delmestr.,53.068092,8.790672
548,171629,Delmestr.,53.06796,8.790836
549,26079,Dillener Park,53.18827,8.548183
550,83090,Dillener Park,53.18859,8.547567
551,417890,Dirschauer Str.,53.11677,8.768242
552,173595,Dithmarscher Freiheit,53.102882,8.798581
553,201196,Dithmarscher Freiheit,53.102676,8.798731
554,302392,Dobbenweg,53.078808,8.826194
555,68719,Dobbenweg,53.078648,8.826344
556,172660,Dobbheide,53.190586,8.631133
557,380886,Dohlenstr.,53.13511,8.731567
558,44239,Dohlenstr.,53.13559,8.730159
559,124858,Domsheide,53.0747,8.808589
560,18577,Domsheide,53.07396,8.810681
561,210106,Domsheide,53.074497,8.80962
562,293363,Domsheide,53.074306,8.809919
563,363512,Domsheide,53.07501,8.808498
564,383002,Domsheide,53.074547,8.808172
565,402768,Domsheide,53.07427,8.807785
566,418885,Domsheide,53.07464,8.809231
567,43277,Domsheide,53.074646,8.808634
568,457644,Domsheide,53.075294,8.808378
569,81925,Domsheide,53.074883,8.809021
570,214791,Dortmunder Str.,53.059074,8.778037
571,48967,Dortmunder Str.,53.059185,8.777932
572,134121,Doventor,53.08391,8.798609
573,148910,Doventor,53.08366,8.798536
574,324178,Doventor,53.083687,8.79673
575,383906,Doventor,53.08406,8.795997
576,294572,Doventorsteinweg,53.084454,8.799621
577,390563,Doventorsteinweg,53.084724,8.799367
578,422099,Doventorsteinweg,53.085514,8.798542
579,56787,Dreyer + Hillmann,53.131348,8.722476
580,98782,Dreyer + Hillmann,53.131966,8.721666
581,104701,Duckwitzstr.,53.064785,8.778903
582,258808,Duckwitzstr.,53.065098,8.779334
583,10118,Dötlinger Str.,53.081486,8.772535
584,738,Dötlinger Str.,53.08195,8.771622
585,15221,Düsseldorfer Str.,53.073353,8.930523
586,199036,Düsseldorfer Str.,53.073322,8.930016
587,144508,Eduard-Schopf-Allee,53.083183,8.786211
588,73603,Eduard-Schopf-Allee,53.082897,8.787973
589,294592,Egestorff-Stiftung,53.057693,8.95386
590,390822,Egestorff-Stiftung,53.05719,8.954546
591,19497,Eggestedter Str.,53.19191,8.562777
592,242951,Eggestedter Str.,53.1914,8.560868
593,387927,Eggestedter Str.,53.191456,8.561047
594,66816,Eggestedter Str.,53.19155,8.56332
595,310869,Ehrenfelsstr.,53.100407,8.757581
596,92138,Ehrenfelsstr.,53.100235,8.757581
597,250720,Eickedorfer Str.,53.092533,8.810809
598,447170,Eickedorfer Str.,53.093258,8.810104
599,205147,Einkaufsz. Blockdiek,53.072952,8.925734
600,87763,Einkaufsz. Blockdiek,53.073124,8.924287
601,115411,Elisabethstr.,53.095146,8.778076
602,144193,Elisabethstr.,53.094112,8.779007
603,176848,Ellenerbrokstr.,53.073494,8.94607
604,241328,Ellenerbrokstr.,53.0735,8.946279
605,154293,Emder Str.,53.101868,8.773548
606,18589,Emder Str.,53.10158,8.773967
607,253301,Emder Str.,53.101868,8.773786
608,382291,Emder Str.,53.10182,8.773309
609,385400,Emmastr.,53.091595,8.845861
610,93727,Emmastr.,53.09127,8.845563
611,16494,Emmastr./ Bürgerpark,53.094975,8.833877
612,386297,Emmastr./ Bürgerpark,53.094193,8.833074
613,110548,Emmentaler Str.,53.069168,8.935199
614,263887,Emmentaler Str.,53.069588,8.933692
615,116039,Engadiner Str.,53.06647,8.955521
616,299631,Engadiner Str.,53.066425,8.955939
617,22250,Eppenhainer Str.,53.04113,8.931693
618,251212,Eppenhainer Str.,53.041912,8.931632
619,284435,Erich-Kühlmann-Str.,53.09408,8.699533
620,358518,Erkelenzer Str.,53.07791,8.920996
621,96393,Erkelenzer Str.,53.07792,8.920876
622,231027,Ermlandstr.,53.197166,8.55023
623,266923,Ermlandstr.,53.195934,8.548073
624,189522,Erzhafen,53.57321,8.560098
625,237406,Erzhafen,53.57324,8.560218
626,113171,Europaallee-Ost,53.03015,8.908934
627,258340,Europaallee-Ost,53.030304,8.908785
628,336819,Europaallee/Autohof,53.03382,8.890994
629,6716,Europaallee/Autohof,53.034046,8.891113
630,202166,Europahafen,53.085228,8.780291
631,248845,Europahafen,53.085003,8.779889
632,321007,Europahafen,53.085167,8.780321
633,303353,Falkenstr.,53.082623,8.807151
634,329191,Falkenstr.,53.08292,8.806747
635,342914,Falkenstr.,53.08301,8.806657
636,281513,Fellendsweg,53.0508,8.839444
637,71942,Fellendsweg,53.050762,8.839161
638,10391,Findorffallee,53.09082,8.81322
639,57725,Findorffallee,53.08995,8.814015
640,214552,Finkenschlag,53.16361,8.656826
641,38339,Finkenschlag,53.163555,8.657081
642,388084,Flughafen,53.052692,8.78654
643,419380,Flughafen,53.0543,8.785503
644,77290,Flughafen,53.054184,8.78528
645,96492,Flughafen,53.052944,8.786137
646,153965,Flughafen-Süd,53.05036,8.789922
647,457947,Flughafen-Süd,53.05065,8.789652
648,131159,Flämische Str.,53.052517,8.715421
649,381025,Flämische Str.,53.052517,8.715332
650,252648,Focke-Museum,53.090195,8.862553
651,434200,Focke-Museum,53.09036,8.863269
652,181942,Fontanestr.,53.05048,8.842592
653,383077,Fontanestr.,53.050285,8.843979
654,420379,Franz-Stickan-Str.,53.090363,8.72468
655,131474,Franziusstr.,53.56793,8.565345
656,193195,Franziusstr.,53.567486,8.566436
657,360298,Fraunhoferstr.,53.116207,8.899465
658,437165,Fraunhoferstr.,53.116154,8.899375
659,180916,Fresenbergstr.,53.18394,8.57294
660,30378,Fresenbergstr.,53.183887,8.57333
661,128305,Friedhof Huchting,53.038628,8.728348
662,260087,Friedhof Huchting,53.03917,8.729254
663,315656,Friedhof Huchting,53.03917,8.728032
664,331158,Friedhof Huchting,53.03917,8.729254
665,82600,Friedhof Huchting,53.038628,8.728348
666,306187,Friedhof Huckelriede,53.05038,8.828291
667,346777,Friedhof Huckelriede,53.05036,8.829022
668,295579,Friedhofstr.,53.08867,8.855453
669,336851,Friedhofstr.,53.08892,8.857154
670,103954,Friedr.-Mißler-Str.,53.087006,8.871503
671,30804,Friedr.-Mißler-Str.,53.08733,8.870875
672,219162,Friedr.-Stampfer-Str.,53.086327,8.891071
673,222161,Friedr.-Stampfer-Str.,53.0862,8.891699
674,188667,Friedrich-Engels-Str.,53.05053,8.852464
675,189464,Friedrich-Engels-Str.,53.05053,8.853895
676,13010,Friedrich-Karl-Str.,53.07559,8.843605
677,231872,Friedrich-Karl-Str.,53.07514,8.845024
678,358772,Friedrichsdorfer Str.,53.171013,8.635667
679,367994,Friedrichsdorfer Str.,53.170696,8.635266
680,154401,Fuldahafen,53.045155,8.883839
681,29161,Fuldahafen,53.045353,8.883868
682,319574,Fultonstr.,53.114426,8.896034
683,49450,Fultonstr.,53.11447,8.896123
684,219918,Fähre Blumenthal,53.183193,8.562447
685,375994,Fähre Blumenthal,53.183113,8.562687
686,121274,Fähre Farge,53.199028,8.52742
687,50049,Fähre Farge,53.199455,8.526548
688,158062,Fährer Kämpe,53.184353,8.612308
689,457990,Fährer Kämpe,53.184288,8.61376
690,221542,Fährgrund,53.175297,8.612614
691,36210,Fährgrund,53.175507,8.613135
692,113224,Föhrenstr.,53.06559,8.877727
693,160443,Föhrenstr.,53.065475,8.878175
694,183593,Föhrenstr.,53.065365,8.878101
695,331227,Föhrenstr.,53.06523,8.878564
696,121265,Fürther Str.,53.099438,8.808659
697,196848,Fürther Str.,53.10012,8.806924
698,331188,Fürther Str.,53.09942,8.807405
699,117441,G.-Heinemann-Bürgerhaus,53.174347,8.61844
700,143736,G.-Heinemann-Bürgerhaus,53.17474,8.617838
701,21214,GVZ/Verkehrsgew. Ost,53.083538,8.723709
702,194426,GVZ/Zentralbereich,53.08545,8.717697
703,133602,Gastfeldstr.,53.06657,8.793871
704,292616,Gastfeldstr.,53.066525,8.793409
705,327586,Gastfeldstr.,53.06624,8.793992
706,357417,Gastfeldstr.,53.066338,8.793544
707,4491,Gem.-Zentrum Obervieland,53.03404,8.830726
708,50144,Gem.-Zentrum Obervieland,53.03394,8.830831
709,300547,Georg-Bitter-Str.,53.066833,8.855884
710,378530,Georg-Bitter-Str.,53.06782,8.855001
711,41188,Georg-Bitter-Str.,53.06726,8.853242
712,458754,Georg-Bitter-Str.,53.06726,8.852974
713,230499,Georg-Gries-Str.,53.071613,8.890631
714,61388,Georg-Gries-Str.,53.07149,8.891944
715,206667,Georg-Henschel-Str.,53.087925,8.736113
716,48491,Georg-Henschel-Str.,53.08789,8.736352
717,165580,Gerhard-Rohlfs-Str.,53.171555,8.621859
718,19765,Gerhard-Rohlfs-Str.,53.171757,8.621394
719,40445,Glockenstr./Bf Hemelingen,53.056084,8.888075
720,91830,Glockenstr./Bf Hemelingen,53.055862,8.888776
721,369383,Goldbergplatz,53.170513,8.70256
722,52612,Goldbergplatz,53.171227,8.702959
723,135451,Goosestr.,53.110416,8.757614
724,317152,Goosestr.,53.110664,8.755836
725,167688,Gottfried-Menken-Str.,53.06165,8.801144
726,320001,Gottfried-Menken-Str.,53.06179,8.803247
727,136668,Gottlieb-Daimler-Str.,53.139824,8.701277
728,342964,Gottlieb-Daimler-Str.,53.14033,8.702051
729,412381,Gottlieb-Daimler-Str.,53.14033,8.702051
730,92872,Gottlieb-Daimler-Str.,53.139824,8.701277
731,154310,Grasberger Str.,53.108665,8.763462
732,213496,Grasberger Str.,53.108543,8.763866
733,331275,Grasberger Str.,53.10874,8.76382
734,407688,Grasberger Str.,53.10882,8.763521
735,129781,Graubündener Str.,53.071106,8.948922
736,208878,Graubündener Str.,53.071457,8.948698
737,215442,Gravestr.,53.090664,8.911405
738,267380,Grenzstr.,53.091084,8.781933
739,405237,Grenzstr.,53.09139,8.781663
740,26992,Grenzwehr,53.06827,8.939035
741,319056,Grenzwehr,53.068207,8.938915
742,296183,Grohn/Markt,53.167053,8.630751
743,413918,Grohn/Markt,53.1671,8.631648
744,195631,Gröpelingen,53.12002,8.75281
745,358648,Gröpelingen,53.120167,8.752944
746,420491,Gröpelingen,53.1204,8.753495
747,431494,Gröpelingen,53.1203,8.753496
748,452723,Gröpelingen,53.11996,8.75299
749,47150,Gröpelingen,53.11996,8.75299
750,55548,Gröpelingen,53.1204,8.753495
751,252937,Gustavstr.,53.09769,8.78905
752,66740,Gustavstr.,53.098595,8.788285
753,157130,Güterbf. Grolland,53.07961,8.741835
754,50713,Güterbf. Grolland,53.079544,8.74185
755,251900,H.-H.-Meier-Allee,53.089104,8.843004
756,78670,H.-H.-Meier-Allee,53.088867,8.842587
757,236509,Habenhauser Brückenstr.,53.050217,8.847126
758,332891,Habenhauser Brückenstr.,53.04986,8.847262
759,347547,Habenhauser Brückenstr.,53.05092,8.848883
760,388551,Habenhauser Brückenstr.,53.050476,8.846976
761,296246,Haferkamp,53.08819,8.79235
762,324439,Haferkamp,53.088074,8.794142
763,451626,Haferkamp,53.089367,8.792688
764,173450,Haferwende,53.111626,8.878509
765,256126,Haferwende,53.11227,8.878776
766,128374,Hakenwehrstr.,53.189785,8.571282
767,93800,Hakenwehrstr.,53.18984,8.571491
768,143068,Halmerweg,53.123196,8.763129
769,133885,Hanfstr.,53.191708,8.537839
770,330914,Hanfstr.,53.191246,8.539041
771,47634,Hannoversche Str.,53.05636,8.884987
772,81077,Hannoversche Str.,53.056145,8.884928
773,262651,Hansator,53.08896,8.78475
774,375443,Hansator,53.089226,8.78442
775,56566,Hansator,53.088455,8.785588
776,143538,Hansestr.,53.09142,8.790603
777,163752,Hansestr.,53.092102,8.7906
778,217133,Hansestr.,53.091053,8.791501
779,243474,Hansestr.,53.092102,8.7906
780,332820,Hansestr.,53.091763,8.791602
781,209073,Harriersand,53.057545,8.727648
782,262543,Harriersand,53.057545,8.727648
783,392711,Harriersand,53.05778,8.729272
784,68004,Harriersand,53.05778,8.729272
785,159384,Hasenbüren,53.120697,8.671521
786,283763,Hasenbüren/ Hagens,53.116524,8.697137
787,55520,Hasenbüren/ Hagens,53.116596,8.697032
788,135043,Hasenbürener Deich,53.11967,8.674098
789,274307,Hasenbürener Deich,53.11967,8.674188
790,111214,Hauptbahnhof,53.082775,8.811225
791,119897,Hauptbahnhof,53.081512,8.813916
792,152629,Hauptbahnhof,53.08196,8.812601
793,168134,Hauptbahnhof,53.08178,8.813841
794,174294,Hauptbahnhof,53.08215,8.812765
795,222099,Hauptbahnhof,53.081474,8.813887
796,263603,Hauptbahnhof,53.082085,8.813541
797,275278,Hauptbahnhof,53.08239,8.811898
798,366790,Hauptbahnhof,53.082085,8.812631
799,386529,Hauptbahnhof,53.081375,8.813783
800,327919,Hauptbahnhof/ZOB,53.082085,8.813526
801,427123,Hauptbahnhof/ZOB-N,53.08177,8.814184
802,343595,Hegeweg,53.204594,8.576836
803,58728,Hegeweg,53.20429,8.576704
804,416613,Heiligenbergstr.,53.05373,8.953461
805,438725,Heiligenbergstr.,53.053307,8.953328
806,352167,Heinrich-Hertz-Str.,53.08319,8.875066
807,410090,Heinrich-Hertz-Str.,53.08274,8.874933
808,286740,Heisiusstr.,53.039043,8.915297
809,31769,Heisiusstr.,53.039017,8.91719
810,260260,Helene-Lange-Str.,53.050964,8.835671
811,397153,Helene-Lange-Str.,53.050922,8.836864
812,268631,Helmer,53.099316,8.862688
813,272245,Helmer,53.099236,8.863002
814,175356,Helsingborger Str.,53.17868,8.719674
815,440657,Helsingborger Str.,53.17857,8.718703
816,101875,Hemelinger Bahnhofstr.,53.05823,8.885429
817,404123,Hemelinger Bahnhofstr.,53.058624,8.885592
818,139546,Hemmstr.,53.095173,8.809066
819,26788,Hemmstr.,53.095062,8.807469
820,319233,Hemmstr.,53.095036,8.807842
821,94241,Hemmstr.,53.094982,8.809007
822,7649,Herbartstr.,53.188496,8.640725
823,242294,Herbststr.,53.090603,8.805907
824,298761,Herbststr.,53.091267,8.805247
825,128929,Herdentor,53.07988,8.810387
826,404467,Herdentor,53.079376,8.809732
827,330781,Hermann - Frese - Str.,53.08923,8.904184
828,169245,Hermann-Funk-Str.,53.05683,8.881317
829,325728,Hermann-Funk-Str.,53.056896,8.880586
830,248702,Hermann-Helms-Str.,53.033527,8.85121
831,407139,Hermann-Helms-Str.,53.033276,8.851166
832,209471,Hermann-Koenen-Str.,53.071213,8.917263
833,364732,Hermann-Koenen-Str.,53.070827,8.915936
834,74807,Hermann-Koenen-Str.,53.071327,8.915144
835,325711,Hermann-Osterloh-Str.,53.038963,8.932889
836,337177,Hermann-Osterloh-Str.,53.03874,8.931771
837,428009,Hermann-Osterloh-Str.,53.039513,8.932247
838,151768,Heukämpendamm,53.032227,8.83844
839,220392,Heukämpendamm,53.032486,8.838126
840,304460,Hexenstieg,53.037872,8.944384
841,454241,Hexenstieg,53.037766,8.945026
842,142811,Hochschule Bremen,53.0723,8.791039
843,71350,Hochschule Bremen,53.072372,8.791084
844,106425,Hochschule für Künste,53.097725,8.769628
845,280004,Hochschule für Künste,53.09762,8.769778
846,432194,Hohenbuchener Str.,53.211372,8.580107
847,436280,Hohenbuchener Str.,53.210526,8.579053
848,346104,Hohenesch,53.213203,8.511233
849,93370,Hohenesch,53.21366,8.510898
850,145005,Hohenhorster Weg,53.044518,8.737123
851,330200,Hohenhorster Weg,53.044518,8.737123
852,366303,Hohenhorster Weg,53.045017,8.73627
853,439966,Hohenhorster Weg,53.04462,8.736079
854,398290,Hohentorsplatz,53.073357,8.789378
855,51819,Hohentorsplatz,53.073357,8.789676
856,163525,Hohweg,53.111607,8.797958
857,171064,Hohwisch,53.066227,8.860421
858,395664,Hohwisch,53.066128,8.860869
859,132530,Hollerallee,53.08124,8.831795
860,174551,Hollerallee,53.08138,8.832392
861,141699,Holsteiner Str.,53.103,8.794758
862,418635,Holsteiner Str.,53.103287,8.793383
863,192140,Holthorster Weg,53.173332,8.676788
864,316626,Holthorster Weg,53.173622,8.675036
865,141697,Holzweide,53.042255,8.959273
866,453624,Holzweide,53.042194,8.959124
867,312426,Horn,53.09654,8.870325
868,85458,Horn,53.09695,8.870085
869,117006,Horn/Wendeplatz,53.097034,8.87122
870,117525,Horner Mühle,53.101654,8.880298
871,180599,Horner Mühle,53.101463,8.879537
872,225067,"Huchting, Roland-Center",53.048454,8.741897
873,280636,"Huchting, Roland-Center",53.048454,8.741882
874,123628,Huckelriede,53.05193,8.819024
875,154996,Huckelriede,53.05191,8.819427
876,241568,Huckelriede,53.051823,8.819741
877,246451,Huckelriede,53.05179,8.819741
878,306067,Huckelriede,53.05181,8.818995
879,340977,Huckelriede,53.05167,8.819741
880,80013,Huder Str.,53.079445,8.77653
881,84026,Huder Str.,53.079838,8.775782
882,444793,Humboldtstr.,53.07536,8.822657
883,69215,Humboldtstr.,53.075035,8.822613
884,231678,Höger Weg,53.115513,8.893985
885,281040,Höger Weg,53.115395,8.893926
886,222483,Höpkens Ruh,53.093258,8.932984
887,292487,Höpkens Ruh,53.093227,8.932999
888,90798,Hüttenstraße Süd,53.126495,8.713978
889,206472,Ikensdamm,53.08515,8.932788
890,315248,Im Achterkamp,53.089558,8.901481
891,294422,Im Holter Feld,53.071663,8.902507
892,302379,Im Holter Feld,53.071465,8.903074
893,219934,Im Holze,53.098965,8.922256
894,74156,Im Holze,53.099243,8.921659
895,328107,In den Barken,53.11375,8.770245
896,168540,In der Laake,53.030285,8.845795
897,395144,In der Laake,53.030605,8.845392
898,152279,Innsbrucker Str.,53.10155,8.814711
899,417679,Innsbrucker Str.,53.10145,8.814697
900,234613,Jadestr.,53.104176,8.769101
901,456457,Jadestr.,53.10415,8.769191
902,354848,Johann-Bornemacher-Str.,53.090668,8.786682
903,61993,Johann-Bornemacher-Str.,53.090508,8.786772
904,302564,Joseph-Haydn-Str.,53.087288,8.836981
905,376309,Joseph-Haydn-Str.,53.08719,8.836444
906,104035,Julius-Brecht-Allee,53.074875,8.869629
907,28368,Julius-Brecht-Allee,53.07404,8.86993
908,363035,Julius-Brecht-Allee,53.0743,8.868721
909,375758,Julius-Brecht-Allee,53.07479,8.868854
910,246956,Kalischer Str.,53.118385,8.76553
911,451388,Kap-Horn-Str.,53.115555,8.752507
912,48579,Kap-Horn-Str.,53.11597,8.752714
913,160612,Kapitän-König-Weg,53.101162,8.916101
914,423913,Kapitän-König-Weg,53.10109,8.91646
915,124518,Karl-Bröger-Str.,53.125233,8.748568
916,37022,Karl-Bröger-Str.,53.124435,8.74917
917,151996,Karl-Carstens-Brücke,53.054634,8.851436
918,155367,Karl-Carstens-Brücke,53.0544,8.851153
919,323933,Karl-Peters-Str.,53.09562,8.782179
920,99561,Karl-Peters-Str.,53.095306,8.78224
921,194132,Kaspar-Ohm-Str.,53.18418,8.626386
922,334118,Kattenescher Weg,53.030586,8.812108
923,337373,Kattenescher Weg,53.030308,8.812884
924,156967,Kattenturm-Mitte,53.034283,8.826417
925,279135,Kattenturm-Mitte,53.03537,8.826025
926,299029,Kattenturm-Mitte,53.036217,8.827483
927,308524,Kattenturm-Mitte,53.034653,8.826103
928,34912,Kattenturm-Mitte,53.036144,8.827766
929,368633,Kattenturm-Mitte,53.034214,8.827535
930,37716,Kattenturm-Mitte,53.035873,8.827246
931,377346,Kattenturm-Mitte,53.0359,8.826932
932,63828,Kattenturm-Mitte,53.03621,8.827975
933,133464,Kirchbachstr.,53.085163,8.848391
934,203592,Kirchbachstr.,53.08519,8.84863
935,266092,Kirchbachstr.,53.08503,8.849272
936,299225,Kirchbachstr.,53.08505,8.851107
937,318686,Kirchbachstr.,53.085136,8.849421
938,336186,Kirchbachstr.,53.08461,8.850825
939,281206,Kirchweg,53.061947,8.810525
940,348829,Kirchweg,53.062798,8.80994
941,244593,Kleine Marschstr.,53.041046,8.883999
942,24473,Kleine Marschstr.,53.040237,8.883986
943,342675,Klinikum Bremen-Mitte,53.07673,8.837901
944,7114,Klinikum Bremen-Mitte,53.077034,8.83678
945,13157,Klinikum Bremen-Ost,53.065468,8.944394
946,379422,Klinikum Bremen-Ost,53.06637,8.943796
947,84428,Klinikum Bremen-Ost,53.06668,8.94302
948,8815,Klinikum Bremen-Ost,53.06558,8.944364
949,213545,Klinikum Haupteingang,53.036507,8.817583
950,275584,Klinikum Links d. Weser,53.037476,8.822484
951,309680,Klinikum Links d. Weser,53.037556,8.822349
952,315799,Klinikum Links d. Weser,53.036957,8.822441
953,401573,Klinikum Links d. Weser,53.037422,8.821649
954,396258,Kluvenhagener Str.,53.038303,8.939941
955,42336,Kluvenhagener Str.,53.038383,8.939375
956,141232,Klärwerk,53.109993,8.716551
957,221543,Klärwerk,53.11036,8.7161
958,258616,Knoops Park,53.165688,8.677638
959,270904,Knoops Park,53.165665,8.676442
960,111848,Konsul-Smidt-Str.,53.0873,8.78328
961,130795,Konsul-Smidt-Str.,53.08684,8.782536
962,178408,Konsul-Smidt-Str.,53.087467,8.782041
963,308182,Konsul-Smidt-Str.,53.08738,8.782907
964,55000,Konsul-Smidt-Str.,53.08665,8.782149
965,150939,Kopernikusstr.,53.108994,8.888312
966,162471,Kopernikusstr.,53.108643,8.887327
967,413622,Kopernikusstr.,53.108894,8.8877
968,75306,Kopernikusstr.,53.109127,8.888267
969,315509,Krefelder Str.,53.07087,8.93005
970,414817,Krefelder Str.,53.071365,8.92978
971,364053,Kriegerdenkmal,53.116737,8.700033
972,44445,Kriegerdenkmal,53.116722,8.700451
973,24766,Krimpelweg,53.04368,8.81642
974,440127,Krimpelweg,53.04284,8.815782
975,244216,Krönkeskamp,53.104538,8.816774
976,48270,Krönkeskamp,53.10414,8.816507
977,200534,Kuhgrabenweg,53.113743,8.844244
978,365959,Kuhgrabenweg,53.113983,8.84366
979,243466,Kulenkampffallee,53.098396,8.839462
980,403583,Kulenkampffallee,53.097897,8.840106
981,436532,Kulenkampffallee,53.098427,8.839925
982,439304,Kulenkampffallee,53.09829,8.839701
983,65071,Kulenkampffallee,53.09831,8.839507
984,140963,Kurfürstenallee,53.082405,8.85525
985,177172,Kurfürstenallee,53.08263,8.854668
986,244743,Kurfürstenallee,53.081863,8.855058
987,451113,Kurfürstenallee,53.08217,8.85452
988,381312,Kurt-Huber-Str.,53.077805,8.912431
989,392692,Kurt-Huber-Str.,53.07847,8.910385
990,49860,Kurt-Huber-Str.,53.078037,8.912296
991,72354,Kurt-Huber-Str.,53.07844,8.910982
992,101625,Köhler Brücke,53.07678,8.722871
993,342407,Köhler Brücke,53.076717,8.72323
994,138241,Köhlhorster Str.,53.19972,8.562758
995,293736,Köhlhorster Str.,53.198967,8.563454
996,396812,La-Rochelle-Str.,53.033154,8.899999
997,344078,Lachmundsdamm,53.059635,8.941448
998,391984,Lachmundsdamm,53.05853,8.939779
999,107999,Landrat-Berthold-Str.,53.1974,8.572164
1000,27656,Landrat-Berthold-Str.,53.195892,8.571116
1001,338871,Landrat-Berthold-Str.,53.19787,8.572623
1002,388846,Landshuter Str.,53.094566,8.802112
1003,63420,Landshuter Str.,53.094505,8.802501
1004,104997,Lange Reihe,53.100792,8.780869
1005,235879,Lange Reihe,53.100376,8.779527
1006,165581,Lerchenstr.,53.19094,8.618428
1007,28385,Lesum Park,53.173874,8.680672
1008,335711,Lesum Park,53.173786,8.68154
1009,200963,Lesum/Kirche,53.169582,8.689018
1010,36877,Lesum/Kirche,53.169643,8.688734
1011,228831,Lindenhofstr.,53.11654,8.758371
1012,452361,Lindenhofstr.,53.11654,8.758371
1013,9182,Lindenhofstr.,53.115658,8.759556
1014,118682,Linzer Str.,53.10821,8.861346
1015,397292,Linzer Str.,53.108776,8.860911
1016,107103,Lise-Meitner-Str.,53.103935,8.855134
1017,140737,Lise-Meitner-Str.,53.10379,8.855134
1018,224149,Lise-Meitner-Str.,53.103153,8.856644
1019,328442,Lise-Meitner-Str.,53.103745,8.855642
1020,438573,Lloyd-Werft,53.568943,8.560127
1021,440249,Lloyd-Werft,53.56936,8.560545
1022,14761,Lloydstr.,53.085815,8.791272
1023,296461,Lloydstr.,53.085983,8.790884
1024,108039,Lohmannstr.,53.093178,8.803955
1025,221646,Lohmannstr.,53.093204,8.804104
1026,309862,Loignystr.,53.082718,8.859801
1027,376821,Loignystr.,53.08242,8.860205
1028,371364,Louise-Böhm-Weg,53.118965,8.908524
1029,382714,Louise-Böhm-Weg,53.11919,8.908808
1030,204563,Ludwig-Erhard-Str.,53.08129,8.730692
1031,256020,Ludwig-Quidde-Str.,53.067184,8.863521
1032,303266,Ludwig-Quidde-Str.,53.068043,8.86146
1033,358874,Ludwig-Sütterlin-Str.,53.08563,8.908057
1034,124012,Ludwig-von-Kapff-Str.,53.032227,8.88514
1035,303371,Ludwig-von-Kapff-Str.,53.032127,8.885439
1036,132715,Luley,53.0887,8.674257
1037,80285,Luley,53.088787,8.674197
1038,274241,Löhstr.,53.184837,8.598182
1039,400402,Machandelweg,53.188145,8.629328
1040,142451,Mackensenweg,53.090622,8.905614
1041,212317,Malerstr.,53.067158,8.871726
1042,77928,Malerstr.,53.06712,8.871204
1043,220539,Malthusstr.,53.039577,8.959589
1044,318966,Malthusstr.,53.039272,8.960573
1045,364390,Malthusstr.,53.038795,8.959634
1046,339659,Marcuskaje,53.09436,8.76769
1047,411166,Marcuskaje,53.094612,8.767271
1048,194410,Margaretenallee,53.17863,8.596251
1049,376034,Margaretenallee,53.178825,8.595142
1050,172442,Marschstr.,53.047615,8.892451
1051,272529,Marschstr.,53.04706,8.893377
1052,297204,Martin-Buber-Str.,53.03576,8.840886
1053,434923,Martin-Buber-Str.,53.035248,8.841663
1054,149176,Martin-Luther-Str.,53.188503,8.576979
1055,296125,Martin-Luther-Str.,53.187588,8.577377
1056,188012,Martinistr.,53.07676,8.803477
1057,98107,Martinistr.,53.07702,8.803341
1058,200168,Martinsheide,53.183346,8.626139
1059,42622,Martinshof Aumund,53.18193,8.630743
1060,187447,Marßel,53.178734,8.723981
1061,288204,Marßel,53.17858,8.724326
1062,398410,Marßel,53.178654,8.724012
1063,231803,Mercedes-Benz Tor 7,53.062317,8.914163
1064,422121,Mercedes-Benz Tor 7,53.063,8.914325
1065,156676,Mercedes-Benz Tor 8,53.06503,8.914336
1066,455391,Mercedes-Benz Tor 8,53.064903,8.914113
1067,148304,Messe - Zentrum,53.08432,8.81665
1068,18544,Messe - Zentrum,53.084587,8.816799
1069,226415,Messe - Zentrum,53.08456,8.816754
1070,134292,Metzer Str.,53.0832,8.841861
1071,197242,Metzer Str.,53.08334,8.842383
1072,275362,Meyerstr.,53.06478,8.797251
1073,443038,Meyerstr.,53.064808,8.796535
1074,262902,Mittelsb. Landstr.,53.143047,8.714705
1075,262974,Mittelsb. Landstr.,53.143173,8.71451
1076,139132,Mittelshuchtinger Dorfstr.,53.056892,8.722551
1077,17229,Mittelshuchtinger Dorfstr.,53.05695,8.72355
1078,179479,Mittelshuchtinger Dorfstr.,53.05695,8.72355
1079,258889,Mittelshuchtinger Dorfstr.,53.056892,8.722551
1080,249141,Modersohnweg,53.094017,8.91516
1081,292312,Modersohnweg,53.09434,8.914458
1082,260501,Moorstr.,53.112885,8.765052
1083,296247,Moorstr.,53.112644,8.765472
1084,172585,Moorstücke,53.227543,8.511129
1085,401682,Moorstücke,53.22751,8.51113
1086,114917,Morsumer Str.,53.027676,8.819275
1087,253946,Morsumer Str.,53.02806,8.818379
1088,116928,Munte,53.103924,8.840233
1089,298139,Munte,53.105698,8.84157
1090,173158,Müdener Str.,53.074223,8.876062
1091,267786,Müdener Str.,53.073765,8.875422
1092,135281,Mühlenfeldstr.,53.090374,8.935586
1093,92920,Mühlenfeldstr.,53.089897,8.93584
1094,98601,Mühlenfeldstr.,53.090023,8.93575
1095,414344,Mühlenhauser Fleet,53.09022,8.714531
1096,381495,Mülheimer Str.,53.074894,8.926
1097,425116,Mülheimer Str.,53.074966,8.92585
1098,319920,Nauheimer Str.,53.044792,8.915718
1099,458524,Nauheimer Str.,53.04458,8.914466
1100,85239,Nedderland,53.092236,8.909685
1101,16649,Neue Vahr Nord,53.086105,8.895818
1102,56242,Neue Vahr Nord,53.086193,8.896176
1103,67807,Neue Vahr Nord,53.086212,8.8964
1104,154547,Neuenkirchener Weg,53.20203,8.560684
1105,18732,Neuenkirchener Weg,53.201595,8.5603
1106,420525,Neuenkirchener Weg,53.201416,8.559778
1107,421761,Neuenkirchener Weg,53.201923,8.561299
1108,112685,Neuenlander Kämpe,53.056095,8.7836
1109,124747,Neuenlander Kämpe,53.05632,8.784241
1110,262611,Neuenlander Kämpe,53.056393,8.783987
1111,314976,Neuenlander Kämpe,53.056473,8.784076
1112,100862,Neuenlander Str.,53.066452,8.781535
1113,156494,Neuenlander Str.,53.067314,8.783052
1114,212761,Neuer Schutzdeich,53.08591,8.752767
1115,438109,Neuer Schutzdeich,53.085938,8.752751
1116,255593,Neustädter Hafen,53.088707,8.744347
1117,226939,Neuwieder Str.,53.066826,8.961787
1118,84470,Neuwieder Str.,53.06667,8.962204
1119,143241,Nienburger Str.,53.068832,8.843689
1120,88761,Nienburger Str.,53.068832,8.843823
1121,210956,Norderländer Str.,53.0586,8.759381
1122,21572,Norderländer Str.,53.058563,8.758874
1123,238751,Norderländer Str.,53.05853,8.759307
1124,385774,Norderländer Str.,53.058163,8.757161
1125,327984,Nußhorn,53.043915,8.951101
1126,338792,Nußhorn,53.04378,8.950594
1127,106474,Nürnberger Str.,53.094604,8.797709
1128,144823,Nürnberger Str.,53.094685,8.797096
1129,137446,OS Lerchenstr.,53.192265,8.627363
1130,247779,Oberneul. Heerstr.,53.102146,8.912994
1131,377946,Oberneul. Heerstr.,53.10231,8.912501
1132,295037,Obernstr.,53.076828,8.805924
1133,99764,Obernstr.,53.07655,8.806373
1134,165704,Oberste Kämpe,53.10976,8.882202
1135,251240,Oberste Kämpe,53.10993,8.881828
1136,132716,Obervielander Str.,53.052155,8.74076
1137,166264,Obervielander Str.,53.052155,8.74076
1138,348195,Obervielander Str.,53.051533,8.740466
1139,68490,Obervielander Str.,53.051533,8.740466
1140,166126,Oewerweg,53.062634,8.931868
1141,402934,Oewerweg,53.061714,8.931511
1142,151261,Ohmstr.,53.10922,8.891148
1143,447389,Ohmstr.,53.109104,8.891178
1144,156332,Ortsamt Seehausen,53.115788,8.704401
1145,283097,Ortsamt Seehausen,53.11567,8.704372
1146,142538,Oslebshauser Landstr.,53.128517,8.7298
1147,209722,Oslebshauser Landstr.,53.128937,8.728871
1148,14563,Osterholzer Friedhof,53.060104,8.914167
1149,156165,Osterholzer Friedhof,53.05956,8.914064
1150,167237,Osterholzer Friedhof,53.06006,8.914406
1151,423241,Osterholzer Friedhof,53.05987,8.914853
1152,204707,Osterholzer Heerstr.,53.05911,8.929696
1153,314545,Osterholzer Heerstr.,53.058956,8.931143
1154,336159,Osterholzer Heerstr.,53.058983,8.929979
1155,75922,Osterholzer Heerstr.,53.059406,8.930739
1156,198174,Osterholzer Landstr.,53.074047,8.936207
1157,252974,Osterholzer Landstr.,53.074314,8.936654
1158,287954,Osterholzer Landstr.,53.07401,8.935505
1159,358350,Osterholzer Landstr.,53.074047,8.93646
1160,224897,Osterholzer Möhlendamm,53.057922,8.950936
1161,227381,Osterholzer Möhlendamm,53.057854,8.951414
1162,351204,Osterhop,53.052574,8.899701
1163,351519,Osterhop,53.05294,8.899119
1164,216724,Osthafen,53.578526,8.558563
1165,402614,Osthafen,53.578453,8.558805
1166,103031,Ostwaldstr.,53.1112,8.893174
1167,197124,Ostwaldstr.,53.110928,8.892772
1168,226047,Otto-Braun-Str.,53.08608,8.886953
1169,87404,Otto-Braun-Str.,53.08623,8.88646
1170,265802,Panrepel-Nord,53.04606,8.965875
1171,449144,Panrepel-Nord,53.04587,8.965741
1172,159945,Panrepel-Süd,53.042355,8.961062
1173,192602,Panrepel-Süd,53.042336,8.961152
1174,196348,Pappelstr.,53.069527,8.788084
1175,293796,Pappelstr.,53.069805,8.787292
1176,322298,Pappelstr.,53.069534,8.786905
1177,85116,Pappelstr.,53.06974,8.787814
1178,211145,Parkallee,53.099148,8.837369
1179,31561,Parkallee,53.099598,8.837173
1180,361387,Parkallee,53.098904,8.836444
1181,176830,Parkstr.,53.07968,8.827235
1182,293325,Parkstr.,53.08013,8.828457
1183,16859,Parsevalstr.,53.06704,8.887793
1184,54553,Parsevalstr.,53.067272,8.887867
1185,300839,Paul-Feller-Str.,53.05589,8.796174
1186,63046,Paul-Feller-Str.,53.05599,8.795353
1187,317591,Peter-Henlein-Str.,53.113003,8.891617
1188,457229,Peter-Henlein-Str.,53.11314,8.891691
1189,318462,Pfarrfeldsweg,53.044964,8.850604
1190,83913,Pfarrfeldsweg,53.04526,8.851408
1191,304436,Phi.-Scheidemann-Str.,53.08598,8.879342
1192,455546,Phi.-Scheidemann-Str.,53.085846,8.8797
1193,231061,Piependamm,53.04118,8.850348
1194,427348,Piependamm,53.041862,8.850525
1195,194726,Poggenburg,53.065605,8.933071
1196,222119,Poggenburg,53.06477,8.932625
1197,125604,Polizeipräsidium,53.078945,8.880465
1198,154339,Polizeipräsidium,53.079357,8.878524
1199,250886,Polizeipräsidium,53.07896,8.877615
1200,412110,Polizeipräsidium,53.079,8.878197
1201,8777,Polizeipräsidium,53.079933,8.877583
1202,314011,R.-A.-Schröder-Str.,53.100937,8.817386
1203,438747,R.-A.-Schröder-Str.,53.100864,8.817551
1204,125332,Rablinghausen,53.096016,8.746111
1205,232949,Rablinghausen,53.096195,8.7459
1206,308061,Rablinghausen,53.09624,8.74596
1207,87133,Radio Bremen,53.08115,8.796607
1208,92546,Radio Bremen,53.080776,8.797072
1209,153365,Rastenburger Str.,53.213726,8.582719
1210,217483,Rastenburger Str.,53.214188,8.583283
1211,436589,Rechtenflether Str.,53.084484,8.766057
1212,47708,Rechtenflether Str.,53.08425,8.766596
1213,202831,Reedeich - Nord,53.081684,8.755402
1214,396823,Reedeich - Nord,53.081486,8.755329
1215,207520,Rekumer Siel,53.21787,8.509772
1216,235719,Rekumer Siel,53.218525,8.509346
1217,3144,Rembertistr.,53.08071,8.818113
1218,431447,Rembertistr.,53.08062,8.819098
1219,434640,Rembertistr.,53.080498,8.819129
1220,340585,Rennplatz,53.071033,8.886321
1221,35495,Rennplatz,53.07194,8.885781
1222,454342,Rennplatz,53.071636,8.886811
1223,54785,Rennplatz,53.071396,8.887185
1224,27019,Rhododendronpark,53.09045,8.883449
1225,49102,Rhododendronpark,53.09046,8.883643
1226,253223,Ricarda-Huch-Str.,53.101788,8.816278
1227,297374,Ricarda-Huch-Str.,53.101364,8.815936
1228,156789,Ricardostr.,53.043434,8.970112
1229,306700,Ricardostr.,53.043148,8.970008
1230,335337,Richthofenstr.,53.16393,8.66246
1231,354969,Richthofenstr.,53.16424,8.6618
1232,398488,Richthofenstr.,53.163773,8.661101
1233,109541,Riedemannstr.,53.134186,8.716855
1234,178203,Riedemannstr.,53.134933,8.717553
1235,191801,Riedemannstr.,53.135277,8.715877
1236,299030,Riedemannstr.,53.1354,8.714472
1237,253716,Riensberg,53.096474,8.853113
1238,330903,Riensberg,53.096935,8.854291
1239,355099,Riespot,53.129066,8.711809
1240,360463,Riespot,53.129154,8.711166
1241,344483,Ringofenstr.,53.20737,8.578695
1242,385408,Ringofenstr.,53.206844,8.578311
1243,206459,Ritterhuder Heerstr.,53.13319,8.737809
1244,34759,Ritterhuder Heerstr.,53.13319,8.737809
1245,160397,Robert-Koch-Str.,53.042007,8.824344
1246,180575,Robert-Koch-Str.,53.043922,8.824276
1247,206806,Robert-Koch-Str.,53.04395,8.82444
1248,289872,Robert-Koch-Str.,53.042133,8.824313
1249,249000,Roccoweg,53.094463,8.74809
1250,407339,Roccoweg,53.09443,8.74821
1251,314033,Rockwinkeler Heerstr.,53.091965,8.920418
1252,382336,Rockwinkeler Heerstr.,53.091984,8.920343
1253,101764,Roland-Center,53.048595,8.740871
1254,146202,Roland-Center,53.048798,8.742928
1255,220666,Roland-Center,53.048744,8.742943
1256,269638,Roland-Center,53.0485,8.741707
1257,273312,Roland-Center,53.048626,8.742601
1258,283548,Roland-Center,53.048546,8.742616
1259,304190,Roland-Center,53.048706,8.742138
1260,380712,Roland-Center,53.048706,8.742138
1261,417647,Roland-Center,53.048454,8.74211
1262,458093,Roland-Center,53.048546,8.742616
1263,77136,Roland-Center,53.04841,8.741827
1264,414647,Rosenpfad,53.05858,8.812926
1265,79932,Rosenpfad,53.05885,8.812791
1266,121640,Rotdornallee,53.173073,8.687214
1267,437316,Rotdornallee,53.173553,8.6889
1268,384252,Rotersand,53.561424,8.565592
1269,164810,Rotes-Kreuz-Krkhs.,53.067787,8.801921
1270,241788,Rotes-Kreuz-Krkhs.,53.067486,8.802266
1271,123156,Rotterdamer Str.,53.04099,8.731047
1272,1937,Rotterdamer Str.,53.04099,8.731047
1273,291297,Rotterdamer Str.,53.04083,8.731048
1274,94080,Rotterdamer Str.,53.04083,8.731048
1275,304152,Ruppertshainer Str.,53.044243,8.922965
1276,390444,Ruppertshainer Str.,53.044437,8.921802
1277,245449,Rönnebecker Str.,53.184887,8.556386
1278,270762,Rönnebecker Str.,53.18623,8.555056
1279,367970,Rönnebecker Str.,53.18629,8.556387
1280,11681,Saarstr.,53.059483,8.910022
1281,229962,Saarstr.,53.05975,8.908768
1282,209931,Sandkuhlenweg,53.22543,8.51009
1283,363290,Sandkuhlenweg,53.225304,8.510017
1284,173871,Schevemoorer Landstr.,53.078262,8.940722
1285,264110,Schevemoorer Landstr.,53.07699,8.939888
1286,322146,Schlehenweg,53.05022,8.857475
1287,260942,Schleiermacherstr.,53.06366,8.789261
1288,283271,Schleiermacherstr.,53.063896,8.789692
1289,276357,Schlengstr.,53.049644,8.892326
1290,394094,Schlengstr.,53.04971,8.892505
1291,180861,Schloßparkstr.,53.059265,8.896449
1292,284239,Schloßparkstr.,53.059147,8.89724
1293,430581,Schneverdinger Str.,53.07626,8.881413
1294,454486,Schneverdinger Str.,53.077114,8.880202
1295,225596,Schorf,53.098457,8.892653
1296,337668,Schorf,53.098404,8.89334
1297,412342,Schulzentr Sandwehen,53.20174,8.560717
1298,251305,Schuppen 1,53.08994,8.777103
1299,273184,Schuppen 1,53.089787,8.777357
1300,365071,Schuppen 3,53.092087,8.772479
1301,373568,Schuppen 3,53.092278,8.77215
1302,270625,Schwankhalle,53.06528,8.806125
1303,305873,Schwankhalle,53.064724,8.806903
1304,66031,Schwarzer Weg,53.125816,8.757557
1305,167,Schweizer Eck,53.064896,8.950362
1306,217930,Schweizer Eck,53.06498,8.950451
1307,231975,Schweizer Eck,53.06522,8.949675
1308,314617,Schweizer Eck,53.06513,8.949988
1309,352110,Schweizer Eck,53.065228,8.950108
1310,376441,Schweizer Eck,53.06502,8.950227
1311,14865,Schönebecker Str.,53.166874,8.636868
1312,165969,Schönebecker Str.,53.16667,8.638066
1313,294510,Schöpfwerk,53.101734,8.671173
1314,455473,Schöpfwerk,53.1019,8.671351
1315,131244,Schüsselkorb,53.076977,8.809833
1316,325097,Schüsselkorb,53.077263,8.809682
1317,176203,Sebaldsbrück,53.05915,8.900357
1318,249731,Sebaldsbrück,53.05941,8.899849
1319,258317,Sebaldsbrück,53.05987,8.900251
1320,266009,Sebaldsbrück,53.05952,8.900446
1321,27794,Sebaldsbrück,53.05986,8.89955
1322,318395,Sebaldsbrück,53.05952,8.900371
1323,384534,Sebaldsbrück,53.059547,8.899596
1324,156684,Seefahrtstr.,53.16503,8.645601
1325,82030,Seefahrtstr.,53.164898,8.646738
1326,135087,Seehausen/Schule,53.11076,8.70996
1327,395531,Seehausen/Schule,53.111073,8.708943
1328,435313,Sen.-Nolting-Hauff-Str.,53.101276,8.705127
1329,355876,Senator-Blase-Str.,53.095707,8.716376
1330,69798,Senator-Harmssen-Str.,53.08758,8.712056
1331,1374,Senator-Mester-Str.,53.09455,8.710995
1332,384720,Senator-Paulmann-Str.,53.07006,8.776116
1333,80779,Senator-Paulmann-Str.,53.070232,8.775876
1334,214538,Senator-Theil-Str.,53.03742,8.851524
1335,369392,Senator-Theil-Str.,53.038002,8.851045
1336,105466,Sielhof,53.048798,8.820424
1337,373508,Sielhof,53.04859,8.820947
1338,160224,Sielwall,53.072983,8.824904
1339,78729,Sielwall,53.07303,8.824382
1340,154007,Silbermannstr.,53.097565,8.761314
1341,310377,Silbermannstr.,53.098408,8.75998
1342,382387,Simon-Herm.-Post-Weg,53.09089,8.92445
1343,95633,Simon-Herm.-Post-Weg,53.09059,8.925331
1344,363501,Soester Str.,53.033855,8.810394
1345,436281,Soester Str.,53.03436,8.810884
1346,192920,Solinger Str.,53.06177,8.77413
1347,335586,Solinger Str.,53.061626,8.773087
1348,364604,Solinger Str.,53.061558,8.774101
1349,73793,Solinger Str.,53.061737,8.773593
1350,164605,Sollingstr.,53.042206,8.912517
1351,353556,Sollingstr.,53.042034,8.912279
1352,149011,St.-Joseph-Stift,53.082348,8.837522
1353,213755,St.-Joseph-Stift,53.08266,8.838864
1354,308236,St.-Joseph-Stift,53.082554,8.83758
1355,445065,St.-Joseph-Stift,53.082542,8.836999
1356,130371,St.-Jürgen-Str.,53.070885,8.83285
1357,137800,St.-Jürgen-Str.,53.070946,8.833417
1358,179709,St.-Jürgen-Str.,53.070686,8.833164
1359,60562,St.-Jürgen-Str.,53.070847,8.832746
1360,208408,St.-Magnus-Str.,53.09246,8.784583
1361,25061,St.-Magnus-Str.,53.092632,8.784507
1362,130760,Stackkamp,53.040276,8.90614
1363,142379,Stackkamp,53.041084,8.903157
1364,279603,Stader Landstr.,53.16716,8.702045
1365,379991,Stader Landstr.,53.16753,8.702102
1366,161803,Stader Str./ Bismarckstr.,53.073956,8.851444
1367,52178,Stader Str./ Bismarckstr.,53.073418,8.85343
1368,60601,Stader Str./ Bismarckstr.,53.074253,8.853368
1369,80994,Stader Str./ Bismarckstr.,53.074425,8.853472
1370,125287,Stader Str./Hamb.Str.,53.068146,8.848003
1371,185118,Stader Str./Hamb.Str.,53.068344,8.849166
1372,272243,Stader Str./Hamb.Str.,53.067806,8.849675
1373,186870,Stadtwaldsee,53.11491,8.83837
1374,240570,Stadtwaldsee,53.114964,8.837548
1375,261342,Stahlwerk Tor 1,53.138348,8.714049
1376,399283,Stahlwerk Tor 1,53.138374,8.714273
1377,422851,Stahlwerk Tor 2,53.142445,8.693129
1378,140692,Stahlwerk Tor 3,53.13089,8.706538
1379,407584,Stahlwerk Tor 3,53.13089,8.706538
1380,413070,Stahlwerk Tor 3,53.130608,8.706197
1381,331970,Staustr.,53.046574,8.859366
1382,39208,Staustr.,53.04678,8.859425
1383,251741,Stedinger Brücke,53.094616,8.666823
1384,306440,Stedinger Brücke,53.094543,8.666809
1385,407325,Stedinger Brücke,53.094532,8.665913
1386,89429,Stedinger Brücke,53.094505,8.665734
1387,169242,Steenkuhlenweg,53.20135,8.574743
1388,441569,Steenkuhlenweg,53.201595,8.574965
1389,232294,Stehnckenshoff,53.168682,8.695784
1390,249619,Stehnckenshoff,53.168877,8.694541
1391,271281,Stellfeldsweg,53.086327,8.690916
1392,349255,Stellfeldsweg,53.086227,8.691141
1393,161690,Stellichter Str.,53.071644,8.882858
1394,368429,Stellichter Str.,53.071712,8.882052
1395,292186,Stenumer Str.,53.05471,8.814986
1396,447098,Stenumer Str.,53.055115,8.814492
1397,112872,Steubenstr.,53.071472,8.86491
1398,371208,Steubenstr.,53.071507,8.863075
1399,134453,Stockholmer Str.,53.174145,8.720376
1400,226773,Stockholmer Str.,53.174,8.720123
1401,26092,Stockholmer Str.,53.174606,8.718833
1402,278535,Stockholmer Str.,53.174004,8.719181
1403,245272,Straubinger Str.,53.111645,8.799764
1404,68593,Straubinger Str.,53.111446,8.799765
1405,223687,Stresemannstr.,53.07263,8.85776
1406,337918,Stresemannstr.,53.072533,8.857656
1407,113415,Strom/Schule,53.08345,8.701219
1408,330825,Strom/Schule,53.08319,8.701848
1409,392206,Stromer Berg,53.079613,8.736418
1410,419436,Stromer Berg,53.07957,8.737985
1411,190356,Stromer Str.,53.08815,8.753515
1412,297893,Stromer Str.,53.089104,8.753345
1413,37669,Stromer Str.,53.089024,8.753405
1414,86776,Stromer Str.,53.088547,8.753901
1415,257885,Stumper,53.116463,8.683188
1416,397425,Stumper,53.116505,8.683023
1417,28006,Stuttgarter Str.,53.097393,8.815789
1418,362641,Stuttgarter Str.,53.0971,8.816731
1419,360641,Süntelstr.,53.03985,8.908348
1420,52864,Süntelstr.,53.039764,8.909078
1421,103795,Tannenhof,53.175232,8.661863
1422,244550,Tannenhof,53.17499,8.659771
1423,148961,Taunusstr.,53.164284,8.651543
1424,304557,Taunusstr.,53.164318,8.651363
1425,429520,Tenever - Zentrum,53.061073,8.963835
1426,52640,Tenever - Zentrum,53.061234,8.96385
1427,29669,Teneverstr.,53.058044,8.963032
1428,346374,Teneverstr.,53.05775,8.963286
1429,194625,Theater am Goetheplatz,53.07244,8.816551
1430,38808,Theater am Goetheplatz,53.072395,8.817089
1431,115056,Theater am Leibnizplatz,53.06997,8.799554
1432,142208,Theater am Leibnizplatz,53.069347,8.798632
1433,183127,Theater am Leibnizplatz,53.06969,8.799406
1434,191338,Theater am Leibnizplatz,53.069214,8.798185
1435,197828,Theater am Leibnizplatz,53.069977,8.799674
1436,288715,Theater am Leibnizplatz,53.069717,8.799197
1437,406155,Theodor-Heuss-Allee,53.087864,8.807919
1438,439653,Theodor-Heuss-Allee,53.088512,8.80808
1439,170796,Togostr.,53.125053,8.740009
1440,257346,Togostr.,53.124508,8.740804
1441,360251,Trinidadstr.,53.060375,8.892986
1442,74517,Trinidadstr.,53.06008,8.893673
1443,330117,Twiedelftsweg,53.029167,8.838034
1444,344430,Twiedelftsweg,53.029053,8.838034
1445,370643,Ulrichsplatz,53.07265,8.819624
1446,98830,Ulrichsplatz,53.072662,8.820116
1447,157436,Umspannwerk,53.107674,8.817597
1448,68005,Umspannwerk,53.107475,8.817523
1449,167979,Universität-Nord,53.110207,8.854739
1450,168572,Universität-Nord,53.110294,8.85453
1451,266380,Universität-Nord,53.110752,8.854991
1452,71077,Universität-Nord,53.111042,8.855334
1453,233945,Universität-Ost,53.10656,8.863755
1454,432472,Universität-Ost,53.10666,8.863964
1455,261055,Universität-Süd,53.10532,8.849798
1456,342323,Universität-Süd,53.1056,8.850813
1457,364100,Universität-Süd,53.10482,8.851249
1458,369493,Universität-Süd,53.105213,8.851053
1459,6802,Universität-Süd,53.105026,8.851517
1460,153687,Universität/Zentralbereich,53.10793,8.852567
1461,228736,Universität/Zentralbereich,53.107525,8.85221
1462,138502,Unterführung B75,53.06212,8.771786
1463,147087,Upsalastr.,53.177162,8.716962
1464,276692,Upsalastr.,53.176445,8.717385
1465,340153,Use Akschen,53.11275,8.752568
1466,402379,Use Akschen,53.112743,8.752449
1467,409344,Use Akschen,53.1125,8.752465
1468,416233,Use Akschen,53.111584,8.753068
1469,189347,Utbremer Ring,53.098564,8.812992
1470,28079,Utbremer Ring,53.097954,8.812278
1471,285678,Utbremer Ring,53.098026,8.813502
1472,305346,Utbremer Ring,53.09857,8.811678
1473,255342,Utbremer Str.,53.095375,8.791017
1474,61570,Utbremer Str.,53.0957,8.790822
1475,377179,Varreler Landstr.,53.03646,8.727184
1476,386907,Varreler Landstr.,53.03601,8.726785
1477,389998,Varreler Landstr.,53.03646,8.727184
1478,428223,Varreler Landstr.,53.03601,8.726785
1479,193055,Verdunstr.,53.080963,8.843809
1480,82549,Verdunstr.,53.081116,8.843122
1481,261884,Vereinsstr.,53.176567,8.605603
1482,57028,Vereinsstr.,53.176266,8.606817
1483,187489,Visbeker Str.,53.07583,8.761568
1484,53981,Visbeker Str.,53.07575,8.761643
1485,218941,Von-Ossietzky-Str.,53.137867,8.723585
1486,447299,Von-Ossietzky-Str.,53.137405,8.721959
1487,59686,Von-Ossietzky-Str.,53.138485,8.722789
1488,150819,Von-Thünen-Str.-Nord,53.04621,8.969871
1489,266929,Von-Thünen-Str.-Nord,53.045918,8.969976
1490,390459,Von-Thünen-Str.-Süd,53.03985,8.965418
1491,60188,Von-Thünen-Str.-Süd,53.03958,8.96585
1492,271022,Vor den Wischen,53.222954,8.508846
1493,46757,Vor den Wischen,53.223167,8.508948
1494,201601,Vorberger Str.,53.196827,8.565765
1495,316685,Vorberger Str.,53.197247,8.565267
1496,165687,Vorlöhnhorster Weg,53.190796,8.63532
1497,159566,Vorstr.,53.101376,8.874148
1498,366749,Vorstr.,53.10138,8.874909
1499,234252,Waller Friedhof,53.107952,8.774038
1500,278913,Waller Friedhof,53.108265,8.774007
1501,397467,Waller Friedhof,53.108284,8.773783
1502,179673,Waller Ring,53.099045,8.776936
1503,316656,Waller Ring,53.0981,8.776254
1504,322944,Waller Ring,53.09897,8.776728
1505,363519,Waller Ring,53.09844,8.776178
1506,133243,Waller Str.,53.105785,8.779604
1507,67451,Waller Str.,53.10601,8.77914
1508,359071,Walther-Jacobs-Str.,53.03476,8.885119
1509,58957,Walther-Jacobs-Str.,53.034805,8.885163
1510,166041,Wartburgstr.,53.093727,8.788786
1511,250079,Wartburgstr.,53.0937,8.788876
1512,402219,Wartburgstr.,53.093395,8.789027
1513,164291,Warturmer Heerstr.,53.072674,8.769478
1514,77351,Warturmer Heerstr.,53.072456,8.769777
1515,414310,Wasserhorster Str.,53.124664,8.760701
1516,206005,Wasserturm,53.186348,8.572737
1517,380304,Wasserturm,53.187065,8.572416
1518,241404,Wasserweg,53.19622,8.531266
1519,290787,Wasserweg,53.196354,8.531205
1520,23922,Weidedamm-Nord,53.099995,8.820048
1521,57670,Weidedamm-Nord,53.099827,8.820481
1522,422440,Weidedamm-Süd,53.096336,8.819197
1523,238053,Werner-Steenken-Str.,53.052734,8.961873
1524,408459,Werner-Steenken-Str.,53.053802,8.962365
1525,269975,Werner-v-Siemens-Str.,53.104946,8.883693
1526,308950,Werner-v-Siemens-Str.,53.10578,8.884587
1527,180301,Werrahafen,53.051003,8.883226
1528,220375,Werrahafen,53.05157,8.883001
1529,153891,Weserpark,53.048878,8.96052
1530,221622,Weserpark,53.049175,8.960713
1531,239674,Weserpark-Süd,53.0464,8.957883
1532,317833,Weserpark-Süd,53.04618,8.957242
1533,192429,Weserstadion,53.06994,8.837523
1534,57873,Weserstadion,53.069954,8.83715
1535,354917,Weserstadion Werder,53.08187,8.813561
1536,87448,Weserstadion Werder,53.08187,8.813561
1537,183179,Weserwehr,53.063583,8.867411
1538,222281,Weserwehr,53.063522,8.868082
1539,306981,Weserwehr,53.0638,8.867768
1540,401878,Weserwehr,53.06337,8.868112
1541,400995,Wessels,53.117626,8.678953
1542,404872,Wessels,53.117565,8.679058
1543,332055,Westerstr.,53.073776,8.793046
1544,335978,Westerstr.,53.075153,8.795218
1545,376402,Westerstr.,53.07398,8.795164
1546,412771,Westerstr.,53.07461,8.793371
1547,318999,Wetterungsweg,53.112,8.819595
1548,39180,Wetterungsweg,53.112038,8.820685
1549,454206,Wiener Str.,53.10631,8.845778
1550,87682,Wiener Str.,53.10607,8.845988
1551,172263,Wildeshauser Str.,53.083176,8.768795
1552,369317,Wildeshauser Str.,53.08279,8.769096
1553,100074,Wilh.-Brandhorst-Str.,53.208138,8.514044
1554,236468,Wilh.-Brandhorst-Str.,53.207764,8.514228
1555,130448,Wilh.-Kaisen-Brücke,53.07235,8.803795
1556,97558,Wilh.-Kaisen-Brücke,53.07197,8.803036
1557,157005,Wilh.-Leuschner-Str.,53.079166,8.885598
1558,190167,Wilh.-Leuschner-Str.,53.078953,8.885479
1559,309338,Wilh.-Leuschner-Str.,53.079067,8.885255
1560,76817,Wilh.-Leuschner-Str.,53.07906,8.885822
1561,237785,Wilhelm-Busch-Weg,53.071484,8.906267
1562,362931,Wilhelm-Busch-Weg,53.07135,8.906774
1563,322566,Wilhelm-Herbst-Str.,53.11215,8.849685
1564,373108,Wilhelm-Herbst-Str.,53.111763,8.849791
1565,196625,Wilhelm-Röntgen-Str.,53.099934,8.885469
1566,95350,Wilhelm-Röntgen-Str.,53.09949,8.886515
1567,300529,Wilhelm-Zöllig-Str.,53.186695,8.619093
1568,362943,Willakedamm,53.046764,8.737915
1569,39743,Willakedamm,53.046764,8.737915
1570,405709,Willakedamm,53.047314,8.738523
1571,90282,Willakedamm,53.047314,8.738523
1572,90037,Willigstr.,53.059166,8.808703
1573,91965,Willigstr.,53.05888,8.809017
1574,258095,Wilseder-Berg-Str.,53.07358,8.879018
1575,362893,Wilseder-Berg-Str.,53.07282,8.879408
1576,318396,Witzlebenstr.,53.077034,8.901435
1577,445170,Witzlebenstr.,53.076538,8.901571
1578,276623,Wolfskuhlenweg,53.04009,8.814541
1579,327026,Wolfskuhlenweg,53.038776,8.813548
1580,73828,Wolfskuhlenweg,53.03946,8.815364
1581,313709,Woltmersh. Friedhof,53.087654,8.761383
1582,39493,Woltmersh. Friedhof,53.087227,8.762251
1583,249395,Wätjens Park,53.179996,8.588894
1584,28150,Wätjens Park,53.180023,8.588789
1585,121501,Wätjenstr.,53.0949,8.850282
1586,145830,Wätjenstr.,53.09513,8.85067
1587,352140,Ziegeleiweg,53.1858,8.637531
1588,116918,Zolltor Wurster Str.,53.59584,8.53979
1589,149633,Zolltor Wurster Str.,53.59604,8.53932
1590,258147,Zum Donaufleet,53.181694,8.567787
1591,392261,Zum Donaufleet,53.181602,8.567938
1592,217353,Zum Huchtinger Bhf.,53.058064,8.73555
1593,223445,Zum Huchtinger Bhf.,53.058064,8.73555
1594,443061,Zum Huchtinger Bhf.,53.05825,8.734833
1595,55943,Zum Huchtinger Bhf.,53.05825,8.734833
1596,397344,Zum Kränholm,53.172478,8.67989
1597,71214,Zum Kränholm,53.172523,8.67968
1598,350668,Überseestadt-Nord,53.102055,8.75457
1599,59320,Überseestadt-Nord,53.102295,8.75445
1600,137527,Überseetor,53.09428,8.771527
1601,183435,Überseetor,53.09483,8.772778
