node_id,stop_id,stop_name,stop_lat,stop_lon
0,141641,D-Aachener Platz,51.19637,6.769408
1,150128,D-Aachener Platz,51.19624,6.769111
2,171595,D-Aachener Platz,51.19631,6.769066
3,273444,D-Aachener Platz,51.195786,6.768276
4,295034,D-Aachener Platz,51.19606,6.769434
5,229062,D-Abteihofstraße,51.186928,6.76258
6,280047,D-Adam-Stegerwald-Straße,51.143,6.907191
7,370347,D-Adam-Stegerwald-Straße,51.142628,6.907128
8,273222,D-Aderkirchweg,51.199703,6.742404
9,304396,D-Aderkirchweg,51.199993,6.742584
10,433434,D-Adlerstraße,51.2314,6.789727
11,81280,D-Adlerstraße,51.231186,6.789799
12,32221,D-Adolf-Klarenbach-Straße,51.17322,6.83582
13,328793,D-Adolf-Klarenbach-Straße,51.173046,6.835811
14,382951,D-Adolf-Klarenbach-Straße,51.17312,6.835829
15,69696,D-Adolf-Klarenbach-Straße,51.17312,6.835829
16,284438,D-Aldekerkstraße,51.230682,6.707352
17,418363,D-Aldekerkstraße,51.23077,6.707568
18,6208,D-Aldekerkstraße,51.23079,6.707343
19,15708,D-Alice-Heye-Platz,51.18512,6.84112
20,385545,D-Alice-Heye-Platz,51.18511,6.841066
21,92169,D-Allmendenweg,51.185036,6.759266
22,177764,D-Alt Eller,51.199963,6.843231
23,213567,D-Alt Eller,51.199875,6.842548
24,430023,D-Alt Eller,51.199646,6.842198
25,80860,D-Alt Eller,51.200188,6.842288
26,283894,D-Alt Himmelgeist,51.16853,6.807056
27,454548,D-Alt Himmelgeist,51.168716,6.806966
28,135533,D-Alte Gasse,51.334656,6.792638
29,71141,D-Alte Gasse,51.334423,6.792701
30,179495,D-Alte Kalkumer Straße,51.29814,6.751917
31,299106,D-Alte Kalkumer Straße,51.298164,6.751845
32,169513,D-Alte Landstraße,51.288563,6.73935
33,66555,D-Alte Landstraße,51.289608,6.738856
34,140227,D-Altenbrückstraße,51.183933,6.869624
35,375530,D-Altenbrückstraße,51.183872,6.870351
36,406620,D-Altenbrückstraße,51.18392,6.869507
37,72903,D-Alter Hafen,51.224148,6.769641
38,162008,D-Alter Schlachthof,51.249496,6.789422
39,196283,D-Alter Schlachthof,51.248978,6.789611
40,245437,D-Am Ellerforst,51.206287,6.857236
41,274472,D-Am Ellerforst,51.20618,6.856805
42,457636,D-Am Farnacker,51.16592,6.825391
43,298056,D-Am Fettpott,51.332874,6.79041
44,302430,D-Am Fettpott,51.332848,6.79032
45,334201,D-Am Flugfeld,51.2973,6.756095
46,341711,D-Am Flugfeld,51.297356,6.755681
47,288909,D-Am Frohnhof,51.301434,6.752546
48,432932,D-Am Frohnhof,51.30061,6.752205
49,231590,D-Am Hackenbruch,51.206207,6.832685
50,23535,D-Am Hackenbruch,51.205635,6.833215
51,297824,D-Am Hackenbruch,51.206028,6.833224
52,214840,D-Am Hain,51.26128,6.759257
53,7774,D-Am Hain,51.261627,6.760362
54,118735,D-Am Kreuzweg,51.268543,6.924888
55,280281,D-Am Kreuzweg,51.26864,6.925068
56,124048,D-Am Lehn,51.239723,6.86091
57,53966,D-Am Lehn,51.239807,6.860838
58,203156,D-Am Mergelsberg,51.267746,6.875481
59,29065,D-Am Mergelsberg,51.26771,6.875328
60,187149,D-Am Mühlenacker,51.31304,6.74483
61,7827,D-Am Mühlenacker,51.312805,6.744937
62,54070,D-Am Pflanzkamp,51.192875,6.863129
63,400215,D-Am Püttkamp,51.26839,6.873603
64,134095,D-Am Quellenbusch,51.22354,6.857505
65,8828,D-Am Quellenbusch,51.223476,6.857802
66,177442,D-Am Roten Haus,51.269016,6.760415
67,26529,D-Am Roten Haus,51.268913,6.760415
68,109220,D-Am Röttchen,51.273308,6.780556
69,347530,D-Am Röttchen,51.273132,6.781634
70,397401,D-Am Röttchen,51.273743,6.781643
71,84266,D-Am Röttchen,51.27334,6.780771
72,410835,D-Am Scharfenstein,51.19379,6.76974
73,437686,D-Am Scharfenstein,51.19353,6.769785
74,188594,D-Am Schein,51.258457,6.806813
75,267758,D-Am Schein,51.25861,6.807002
76,266226,D-Am Scheitenweg,51.174465,6.807406
77,268649,D-Am Scheitenweg,51.17426,6.807334
78,225078,D-Am Schönenkamp,51.189175,6.860281
79,450738,D-Am Schönenkamp,51.188545,6.860865
80,158677,D-Am Seestern,51.24205,6.738658
81,180833,D-Am Seestern,51.241856,6.737715
82,265312,D-Am Seestern,51.242096,6.73882
83,314598,D-Am Seestern,51.241795,6.737796
84,343320,D-Am Seestern,51.241856,6.737715
85,411632,D-Am Seestern,51.241325,6.737904
86,433093,D-Am Steinberg,51.199875,6.780834
87,5507,D-Am Steinberg,51.199837,6.781328
88,56240,D-Am Steinberg,51.19986,6.781202
89,10329,D-Am Stufstock,51.20656,6.825813
90,123942,D-Am Stufstock,51.20655,6.826244
91,264669,D-Am Stufstock,51.206585,6.826145
92,311306,D-Am Stufstock,51.206657,6.826028
93,198504,D-Am Trippelsberg,51.165997,6.847112
94,253464,D-Am Trippelsberg,51.165382,6.848576
95,258125,D-Am Trippelsberg,51.165524,6.848019
96,335189,D-Am Trippelsberg,51.1655,6.848298
97,401739,D-Am Trippelsberg,51.16567,6.846645
98,414658,D-Am Trippelsberg,51.165657,6.84677
99,139157,D-Am Zault,51.20166,6.903993
100,379338,D-Am Zault,51.20173,6.903939
101,324652,D-An den Birken,51.26712,6.757128
102,459256,D-An den Birken,51.2672,6.75666
103,143297,D-An den Kämpen,51.32586,6.775552
104,276575,D-An den Kämpen,51.326054,6.775857
105,131457,D-An der Apfelweide,51.241005,6.749447
106,232320,D-An der Apfelweide,51.241364,6.749483
107,170833,D-An der Bausenheide,51.279137,6.725291
108,253446,D-An der Bausenheide,51.278797,6.726333
109,147975,D-An der Piwipp,51.26314,6.775813
110,219237,D-An der Piwipp,51.263012,6.775741
111,274239,D-An der Piwipp,51.263145,6.775633
112,154953,D-An der Schützenwiese,51.216152,6.827762
113,336622,D-An der Schützenwiese,51.216408,6.827331
114,269330,D-An der Vehlingshecke,51.195023,6.76453
115,382105,D-An der Vehlingshecke,51.195293,6.764458
116,124463,D-Angeraue,51.338863,6.787787
117,139941,D-Angermund S,51.330097,6.782424
118,265499,D-Anna-von-Krane-Straße,51.27326,6.739781
119,403254,D-Arnulfstraße,51.23344,6.749932
120,324141,D-Auf dem Rheindamm,51.187534,6.771177
121,405755,D-Auf dem Rheindamm,51.187164,6.77053
122,243756,D-Auf der Hardt/LVR-Klinikum,51.241226,6.844031
123,411760,D-Auf der Hardt/LVR-Klinikum,51.24029,6.844084
124,438014,D-Auf der Hardt/LVR-Klinikum,51.240154,6.844291
125,449913,D-Auf der Hardt/LVR-Klinikum,51.241173,6.844129
126,62879,D-Auf der Hardt/LVR-Klinikum,51.241364,6.844543
127,291114,D-Auf der Krone,51.328465,6.779127
128,85158,D-Auf der Krone,51.32844,6.779037
129,198255,D-Auf der Lausward,51.222393,6.740087
130,194034,D-Auf'm Hennekamp,51.203983,6.784724
131,272541,D-Auf'm Hennekamp,51.202557,6.783817
132,34950,D-Auf'm Hennekamp,51.204014,6.784975
133,449819,D-Auf'm Hennekamp,51.202713,6.783664
134,324212,D-Auf'm Winkel,51.16886,6.814072
135,387318,D-Auf'm Winkel,51.16866,6.813057
136,402142,D-Bachstraße,51.206207,6.765078
137,51978,D-Bachstraße,51.206276,6.765123
138,341535,D-Bankstraße,51.244884,6.780017
139,354863,D-Bankstraße,51.245228,6.779756
140,192639,D-Barbarossaplatz,51.231533,6.755663
141,305865,D-Barbarossaplatz,51.231567,6.754325
142,370870,D-Barbarossaplatz,51.23164,6.754963
143,402260,D-Barbarossaplatz,51.23146,6.754882
144,154405,D-Barmer Straße,51.228664,6.748908
145,213808,D-Barmer Straße,51.229053,6.747192
146,110102,D-Belsenplatz,51.23158,6.748019
147,1780,D-Belsenplatz,51.2317,6.747408
148,211305,D-Belsenplatz,51.23159,6.747489
149,251079,D-Belsenplatz,51.23158,6.748019
150,35015,D-Belsenplatz,51.23184,6.748567
151,406461,D-Belsenplatz,51.23134,6.747596
152,419912,D-Belsenplatz,51.231377,6.747381
153,456041,D-Belsenplatz,51.231842,6.747354
154,53572,D-Belsenplatz,51.23179,6.747192
155,56850,D-Belsenplatz,51.23151,6.747102
156,85544,D-Belsenplatz,51.23158,6.748019
157,92976,D-Belsenplatz,51.231354,6.747543
158,236256,D-Benediktusstraße,51.234978,6.715572
159,363926,D-Benediktusstraße,51.234978,6.715572
160,428275,D-Benediktusstraße,51.2349,6.715661
161,291901,D-Benninghauser Straße,51.18761,6.828346
162,296991,D-Benninghauser Straße,51.187634,6.828463
163,101484,D-Benrath Btf,51.161015,6.883116
164,135363,D-Benrath Btf,51.16085,6.884077
165,254709,D-Benrath Btf,51.160915,6.884787
166,359527,D-Benrath Btf,51.16111,6.885739
167,409163,D-Benrath Btf,51.16111,6.885739
168,56446,D-Benrath Btf,51.161015,6.883116
169,141105,D-Benrath S,51.16165,6.878328
170,157789,D-Benrath S,51.16167,6.877996
171,158415,D-Benrath S,51.161777,6.878382
172,16366,D-Benrath S,51.161358,6.878095
173,164429,D-Benrath S,51.16129,6.8784
174,179688,D-Benrath S,51.161606,6.878382
175,204931,D-Benrath S,51.16177,6.878176
176,208459,D-Benrath S,51.161488,6.877565
177,25128,D-Benrath S,51.161713,6.878283
178,27924,D-Benrath S,51.16129,6.8784
179,284268,D-Benrath S,51.161522,6.877807
180,287821,D-Benrath S,51.161537,6.87893
181,305374,D-Benrath S,51.161777,6.878382
182,342773,D-Benrath S,51.161617,6.87761
183,343389,D-Benrath S,51.16177,6.878176
184,395030,D-Benrath S,51.161945,6.878194
185,399853,D-Benrath S,51.161522,6.877807
186,405679,D-Benrath S,51.161537,6.87893
187,423052,D-Benrath S,51.161945,6.878194
188,73918,D-Benrath S,51.16167,6.877996
189,86170,D-Benrath S,51.161617,6.87761
190,162625,"D-Benrath, Krankenhaus",51.152416,6.869273
191,28045,"D-Benrath, Krankenhaus",51.152416,6.869273
192,57407,"D-Benrath, Krankenhaus",51.152744,6.869471
193,84873,"D-Benrath, Krankenhaus",51.152744,6.869471
194,412939,"D-Benrath, Rathaus",51.163586,6.865976
195,53344,"D-Benrath, Rathaus",51.163586,6.865976
196,72253,"D-Benrath, Rathaus",51.163563,6.865707
197,151618,D-Benrather Marktplatz,51.163967,6.871824
198,264967,D-Benrather Marktplatz,51.163967,6.871824
199,387349,D-Benrather Marktplatz,51.163776,6.871726
200,422355,D-Benrather Marktplatz,51.163826,6.873019
201,137409,D-Benrather Straße U,51.222763,6.775633
202,279377,D-Benrather Straße U,51.2241,6.777079
203,335622,D-Benrather Straße U,51.22276,6.775525
204,364282,D-Benrather Straße U,51.223827,6.775606
205,133543,D-Benrodestraße,51.163685,6.860847
206,197180,D-Benrodestraße,51.163685,6.860847
207,54294,D-Benrodestraße,51.163696,6.860964
208,244176,D-Berliner Allee,51.21889,6.781364
209,342186,D-Berliner Allee,51.218533,6.781795
210,405274,D-Berliner Allee,51.219276,6.781939
211,408882,D-Berliner Allee,51.21885,6.782604
212,444058,D-Berliner Allee,51.218548,6.781966
213,69258,D-Berliner Allee,51.218365,6.782092
214,143016,D-Bernburger Straße,51.198486,6.839153
215,160417,D-Bernburger Straße,51.198376,6.839045
216,212471,D-Bernburger Straße,51.19834,6.839683
217,287826,D-Bernburger Straße,51.19846,6.839862
218,146856,D-Bertastraße,51.22956,6.847067
219,300739,D-Bertastraße,51.229336,6.846663
220,144183,D-Berzeliusstraße,51.237385,6.710963
221,209630,D-Berzeliusstraße,51.237484,6.710828
222,348265,D-Berzeliusstraße,51.237385,6.710963
223,205968,D-Betriebshof Stadtwerke,51.221905,6.816668
224,259354,D-Betriebshof Stadtwerke,51.22203,6.816336
225,136291,D-Bilk S,51.208622,6.776747
226,156159,D-Bilk S,51.20861,6.77698
227,372196,D-Bilk S,51.20857,6.777151
228,3919,D-Bilk S,51.208584,6.777358
229,18252,D-Bilker Allee/Friedrichstraße,51.21073,6.776154
230,222584,D-Bilker Allee/Friedrichstraße,51.21068,6.774735
231,302723,D-Bilker Allee/Friedrichstraße,51.21082,6.777007
232,215103,D-Bilker Kirche,51.21184,6.763407
233,272817,D-Bilker Kirche,51.21107,6.763047
234,301443,D-Bilker Kirche,51.21185,6.763344
235,456288,D-Bilker Kirche,51.21159,6.762778
236,74704,D-Bilker Kirche,51.21142,6.763622
237,2404,D-Bingener Weg,51.204155,6.817135
238,342608,D-Bingener Weg,51.204124,6.817602
239,258137,D-Birkenstraße,51.22744,6.801163
240,399132,D-Birkenstraße,51.22775,6.801792
241,84708,D-Birkenstraße,51.227013,6.800202
242,18896,D-Birkhahnweg,51.26281,6.76267
243,455456,D-Birkhahnweg,51.261993,6.762985
244,219620,D-Blanckertzstraße,51.254753,6.864863
245,87332,D-Blanckertzstraße,51.25549,6.866012
246,116709,D-Bocholter Straße,51.26304,6.780672
247,426388,D-Bocholter Straße,51.263046,6.78175
248,157302,D-Brands Hof,51.208427,6.855439
249,348318,D-Brands Hof,51.208527,6.855906
250,115307,D-Brehmplatz,51.238537,6.801397
251,356413,D-Brehmplatz,51.237972,6.802304
252,208535,D-Bremer Straße,51.219814,6.743294
253,293587,D-Bremer Straße,51.220737,6.744767
254,432234,D-Bremer Straße,51.21977,6.743294
255,395123,D-Breslauer Straße,51.211784,6.836682
256,45462,D-Breslauer Straße,51.212227,6.836521
257,361563,D-Briedestraße,51.17441,6.8602
258,368784,D-Briedestraße,51.174484,6.860218
259,85331,D-Briedestraße,51.17441,6.8602
260,213466,D-Brockenstraße,51.16107,6.893725
261,410334,D-Brockenstraße,51.161037,6.893824
262,203378,D-Brückerbach,51.178448,6.801971
263,243928,D-Brückerbach,51.179,6.801415
264,335342,D-Bunzlauer Weg,51.21442,6.843411
265,378214,D-Bunzlauer Weg,51.21422,6.843779
266,225083,D-Burgenlandweg,51.182728,6.836467
267,304157,D-Burgenlandweg,51.182693,6.836449
268,106028,D-Buschgasser Weg,51.312702,6.755241
269,421513,D-Buschgasser Weg,51.312927,6.754864
270,333525,D-Böhlerstraße,51.240887,6.712562
271,359722,D-Böhlerstraße,51.240814,6.71267
272,18866,D-Börchemstraße,51.165394,6.873226
273,418117,D-Börchemstraße,51.16531,6.87319
274,442195,D-Börchemstraße,51.16531,6.87319
275,96096,D-Börchemstraße,51.165394,6.873226
276,131080,D-Büttgenweg,51.24727,6.722498
277,40301,D-Büttgenweg,51.24698,6.722453
278,32614,D-Carl-Severing-Straße,51.141365,6.904721
279,416876,D-Carl-Severing-Straße,51.141277,6.904343
280,54784,D-Carl-Sonnenschein-Straße,51.265457,6.761727
281,86369,D-Carl-Sonnenschein-Straße,51.265373,6.761754
282,72213,D-Carlsplatz,51.22308,6.774447
283,143887,D-Charlottenstr./Oststraße,51.222725,6.790347
284,280169,D-Charlottenstr./Oststraße,51.222477,6.790536
285,414390,D-Charlottenstr./Oststraße,51.222538,6.790123
286,440061,D-Charlottenstr./Oststraße,51.222633,6.790257
287,357714,D-Chlodwigstraße,51.19624,6.783565
288,9343,D-Chlodwigstraße,51.195766,6.783745
289,290866,D-Clara-Viebig-Straße,51.242714,6.813299
290,313768,D-Clara-Viebig-Straße,51.24347,6.814081
291,93207,D-Clara-Viebig-Straße,51.24269,6.813596
292,25267,D-Clarissenstraße,51.2279,6.708699
293,92815,D-Clarissenstraße,51.22788,6.708825
294,154175,D-Comenius-Gymnasium,51.23546,6.742539
295,280685,D-Comenius-Gymnasium,51.235535,6.741964
296,72604,D-Comenius-Gymnasium,51.235336,6.74244
297,89769,D-Comenius-Gymnasium,51.234825,6.74341
298,355107,D-Comeniusplatz,51.23582,6.750318
299,144453,D-Corellistraße,51.154175,6.880242
300,170829,D-Corellistraße,51.154175,6.880242
301,336743,D-Corellistraße,51.15433,6.880646
302,439020,D-Corellistraße,51.15433,6.880646
303,169328,D-Corneliusstraße,51.21389,6.783233
304,353903,D-Corneliusstraße,51.213936,6.782092
305,413779,D-Corneliusstraße,51.214222,6.782721
306,98513,D-Corneliusstraße,51.2135,6.782667
307,251937,D-Curt-Beckmann-Straße,51.2869,6.727959
308,73045,D-Curt-Beckmann-Straße,51.286804,6.727878
309,108705,D-DOME/Am Hülserhof,51.273544,6.807173
310,124035,D-DOME/Am Hülserhof,51.274734,6.807182
311,187864,D-DOME/Am Hülserhof,51.2748,6.807272
312,225634,D-DOME/Am Hülserhof,51.27409,6.806661
313,237174,D-DOME/Am Hülserhof,51.27466,6.806391
314,260488,D-DOME/Am Hülserhof,51.274128,6.808439
315,203399,D-Daelenstraße,51.233177,6.822929
316,447733,D-Daelenstraße,51.23324,6.823028
317,437676,D-Daimlerstraße,51.22972,6.823702
318,449439,D-Daimlerstraße,51.229836,6.823908
319,194195,D-Dechenweg,51.182796,6.81806
320,395258,D-Dechenweg,51.183014,6.818339
321,337736,D-Dellestraße,51.203777,6.898298
322,432437,D-Dellestraße,51.20372,6.898226
323,113985,D-Demagstraße,51.17147,6.882002
324,20824,D-Demagstraße,51.17147,6.882002
325,383335,D-Demagstraße,51.171413,6.88202
326,412749,D-Demagstraße,51.171413,6.88202
327,196617,D-Derendorf S,51.24716,6.793958
328,23271,D-Derendorf S,51.24737,6.79465
329,255617,D-Derendorf S,51.2474,6.794758
330,310148,D-Derendorf S,51.2474,6.794758
331,324013,D-Derendorf S,51.24765,6.795369
332,335048,D-Derendorf S,51.24737,6.79465
333,165548,D-Derfflingerstraße,51.258457,6.817387
334,425062,D-Derfflingerstraße,51.25837,6.817602
335,113736,D-Deutzer Straße,51.193703,6.857047
336,190093,D-Deutzer Straße,51.19315,6.856472
337,415637,D-Deutzer Straße,51.193634,6.856832
338,60985,D-Deutzer Straße,51.192307,6.857487
339,219,D-Dieselstraße,51.227882,6.828418
340,283019,D-Dieselstraße,51.227814,6.828283
341,233094,D-Dillenburger Weg,51.194664,6.823217
342,3687,D-Dillenburger Weg,51.19451,6.826702
343,385255,D-Dillenburger Weg,51.194496,6.826792
344,54840,D-Dillenburger Weg,51.19437,6.825489
345,336754,D-Dirschauer Weg,51.177406,6.882658
346,409721,D-Dirschauer Weg,51.17769,6.881742
347,121401,D-Dormagener Straße,51.19978,6.762598
348,274150,D-Dormagener Straße,51.19942,6.762706
349,200074,D-Dreherstraße,51.234894,6.85605
350,291123,D-Dreherstraße,51.234802,6.857074
351,310491,D-Dreherstraße,51.23486,6.85667
352,369578,D-Dreherstraße,51.235195,6.856697
353,1037,D-Dreieck,51.240337,6.782451
354,284876,D-Dreieck,51.239925,6.781211
355,442148,D-Dreieck,51.240425,6.781822
356,239264,D-Dresdener Straße,51.13559,6.907164
357,391342,D-Dresdener Straße,51.136562,6.906446
358,454250,D-Dresdener Straße,51.13559,6.907164
359,72546,D-Dresdener Straße,51.136562,6.906446
360,167981,D-Drususstraße,51.230976,6.738766
361,433117,D-Drususstraße,51.230877,6.739107
362,371412,D-Dörpfeldstraße,51.23113,6.86003
363,9617,D-Dörpfeldstraße,51.23095,6.859913
364,189145,D-Eckenerstraße,51.272133,6.774851
365,220235,D-Eckenerstraße,51.271694,6.773809
366,60405,D-Eckenerstraße,51.27218,6.77442
367,93710,D-Eckenerstraße,51.2721,6.774312
368,315478,D-Edmund-Bertrams-Straße,51.298008,6.75949
369,81192,D-Edmund-Bertrams-Straße,51.298046,6.759508
370,270739,D-Eichelstraße,51.17418,6.85384
371,378354,D-Eichelstraße,51.174442,6.853625
372,261758,D-Eichsfelder Straße,51.132442,6.913551
373,81206,D-Eichsfelder Straße,51.132442,6.913551
374,116365,D-Einbrunger Straße,51.312218,6.761152
375,206756,D-Einbrunger Straße,51.311405,6.7602
376,389554,D-Einbrunger Straße,51.31096,6.760667
377,378854,D-Eisenacher Weg,51.216568,6.860074
378,75755,D-Eisenacher Weg,51.21651,6.860272
379,220455,D-Elbinger Weg,51.282646,6.72539
380,48338,D-Elbinger Weg,51.282413,6.725219
381,107268,D-Elbruchstraße,51.178955,6.828193
382,162389,D-Elbruchstraße,51.179302,6.827618
383,351491,D-Elbruchstraße,51.179466,6.827502
384,433955,D-Elbruchstraße,51.179195,6.827672
385,224239,D-Elisabethkirche,51.22682,6.799869
386,3638,D-Elisabethkirche,51.226505,6.798863
387,410971,D-Elisabethkirche,51.226696,6.799582
388,73131,D-Elisabethkirche,51.226254,6.799142
389,106166,D-Eller Kamp,51.20734,6.851406
390,385534,D-Eller Kamp,51.206547,6.849942
391,202499,D-Eller Mitte S,51.20168,6.837248
392,232517,D-Eller Mitte S,51.20129,6.838272
393,290540,D-Eller Mitte S,51.201244,6.837248
394,423084,D-Eller Mitte S,51.201244,6.838389
395,222570,D-Eller S,51.203434,6.85199
396,228615,D-Eller S,51.20354,6.851442
397,32025,D-Eller S,51.203564,6.851226
398,403753,D-Eller S,51.20332,6.851514
399,301917,D-Eller Süd S,51.197243,6.836593
400,73606,D-Eller Süd S,51.197342,6.836844
401,150804,"D-Eller, Friedhof",51.192524,6.831005
402,211399,"D-Eller, Friedhof",51.19252,6.830933
403,102132,D-Ellerstraße,51.213417,6.806041
404,204745,D-Ellerstraße,51.213356,6.805421
405,208581,D-Ellerstraße,51.213654,6.805852
406,316442,D-Ellerstraße,51.213272,6.805726
407,345776,D-Ellerstraße,51.213478,6.80605
408,41574,D-Ellerstraße,51.213547,6.805906
409,406331,D-Elsässer Straße,51.267834,6.77433
410,65914,D-Elsässer Straße,51.267773,6.774375
411,115447,D-Engerstraße,51.233,6.814925
412,149223,D-Engerstraße,51.23336,6.81709
413,307519,D-Engerstraße,51.232952,6.816892
414,37507,D-Engerstraße,51.2332,6.814171
415,60797,D-Engerstraße,51.233,6.81488
416,61778,D-Engerstraße,51.233215,6.814404
417,28691,D-Erftstraße/Grand Bateau,51.214336,6.755645
418,34835,D-Erftstraße/Grand Bateau,51.214363,6.755762
419,386500,D-Erftstraße/Grand Bateau,51.214054,6.75543
420,385708,D-Erich-Müller-Straße,51.164024,6.870567
421,66145,D-Erich-Müller-Straße,51.164024,6.870567
422,263577,D-Erich-Ollenauer-Str.,51.140854,6.895037
423,428181,D-Erich-Ollenauer-Str.,51.140774,6.895055
424,168046,D-Erlenkamp,51.21004,6.857811
425,253853,D-Erlenkamp,51.210068,6.85791
426,324679,D-Essener Straße,51.244423,6.782999
427,435040,D-Essener Straße,51.244423,6.782954
428,26095,D-Falkenweg,51.26675,6.760775
429,294650,D-Falkenweg,51.266827,6.760721
430,171937,D-Ferdinand-Braun-Platz,51.236465,6.731445
431,65869,D-Ferdinand-Braun-Platz,51.23637,6.731463
432,118936,D-Feuerbachstraße,51.20609,6.782999
433,236295,D-Feuerbachstraße,51.206207,6.783152
434,118012,D-Fichtenstraße,51.218784,6.806822
435,13208,D-Fichtenstraße,51.21923,6.807173
436,457735,D-Fichtenstraße,51.2186,6.806715
437,126857,D-Flehe,51.192093,6.770333
438,428450,D-Flehe,51.19213,6.770351
439,27634,D-Flingern S,51.227074,6.810083
440,276566,D-Flingern S,51.227455,6.811889
441,382730,D-Flingern S,51.226807,6.811539
442,86472,D-Flingern S,51.22669,6.811494
443,274879,D-Florence-Nightingale-Krhs.,51.302185,6.748531
444,361106,D-Florence-Nightingale-Krhs.,51.30217,6.748638
445,347095,D-Florensstraße,51.204205,6.742323
446,358861,D-Florensstraße,51.20463,6.742413
447,25684,D-Flughafen Bf,51.291008,6.785748
448,350655,D-Flughafen Bf,51.291,6.785901
449,412179,D-Flughafen Bf,51.291176,6.788164
450,232739,D-Flughafen Parkhaus 4,51.28024,6.774492
451,27691,D-Flughafen Parkhaus 4,51.28028,6.774231
452,365517,D-Flughafen Term. A/B/C,51.278305,6.765949
453,446830,D-Flughafen Term. A/B/C,51.27854,6.766021
454,454419,D-Flughafen Term. A/B/C,51.278095,6.765895
455,69194,D-Flughafen Term. A/B/C,51.27896,6.766335
456,420778,D-Flughafen Term. C,51.27737,6.765608
457,154157,D-Flughafen Terminal A/B,51.279377,6.766102
458,70626,D-Flughafen Terminal A/B,51.279457,6.766542
459,270138,"D-Flughafen, Halle 7",51.284496,6.779541
460,424605,"D-Flughafen, Halle 7",51.284615,6.77981
461,235932,D-Flughafenverwaltung,51.274254,6.76939
462,304200,D-Flughafenverwaltung,51.275063,6.767323
463,257303,D-Flößerstraße,51.148506,6.870486
464,258767,D-Flößerstraße,51.14905,6.872256
465,1749,D-Flügelstraße,51.214508,6.800696
466,236173,D-Flügelstraße,51.214565,6.801379
467,352534,D-Flügelstraße,51.214474,6.801711
468,352555,D-Flügelstraße,51.214493,6.800507
469,367704,D-Flügelstraße,51.214485,6.800354
470,48251,D-Flügelstraße,51.214977,6.801154
471,257361,D-Forst Kalkum,51.30633,6.779244
472,276219,D-Forst Kalkum,51.30624,6.779648
473,154408,D-Forststraße,51.16849,6.874178
474,419840,D-Forststraße,51.16849,6.874178
475,458409,D-Forststraße,51.16836,6.873828
476,57384,D-Forststraße,51.168694,6.87407
477,96004,D-Forststraße,51.168694,6.874663
478,251664,D-Fortunaplatz,51.22639,6.824789
479,42860,D-Fortunaplatz,51.226295,6.824959
480,181857,D-Frankenplatz,51.24863,6.776369
481,451714,D-Frankenplatz,51.24821,6.776774
482,180283,D-Franz-Liszt-Straße,51.15593,6.88485
483,36271,D-Franz-Liszt-Straße,51.15593,6.88485
484,55726,D-Franz-Liszt-Straße,51.15613,6.885335
485,93699,D-Franz-Liszt-Straße,51.15613,6.885335
486,238237,D-Franziusstraße,51.2132,6.752474
487,239653,D-Franziusstraße,51.212673,6.752888
488,292231,D-Franziusstraße,51.212753,6.752708
489,329989,D-Franziusstraße,51.2132,6.752528
490,225124,D-Freiligrathplatz,51.264362,6.753247
491,274820,D-Freiligrathplatz,51.2653,6.750291
492,349787,D-Freiligrathplatz,51.26622,6.752888
493,382466,D-Freiligrathplatz,51.266144,6.75251
494,50151,D-Freiligrathplatz,51.26604,6.75304
495,51866,D-Freiligrathplatz,51.2659,6.751387
496,56701,D-Freiligrathplatz,51.265923,6.753022
497,82530,D-Freiligrathplatz,51.265205,6.751019
498,84365,D-Freiligrathplatz,51.266037,6.752609
499,138366,D-Friedberger Weg,51.19451,6.830565
500,369692,D-Friedberger Weg,51.194557,6.83052
501,220426,D-Friederike-Fliedner-Weg,51.31531,6.750202
502,72295,D-Friederike-Fliedner-Weg,51.31491,6.751324
503,361381,D-Friedingstraße,51.238754,6.848935
504,61559,D-Friedingstraße,51.238884,6.848603
505,25735,D-Friedrichstadt S,51.21111,6.788344
506,300396,D-Friedrichstadt S,51.21117,6.788317
507,341601,D-Fritz-Wüst-Straße,51.24174,6.810586
508,63753,D-Fritz-Wüst-Straße,51.241688,6.810739
509,33144,D-Froschenteich,51.33902,6.751405
510,387810,D-Froschenteich,51.338806,6.751387
511,237420,D-Fuldaer Straße,51.19394,6.837347
512,432744,D-Fuldaer Straße,51.193966,6.837365
513,176216,D-Further Straße,51.185673,6.859473
514,435640,D-Further Straße,51.186237,6.859491
515,249396,D-Färberstraße,51.20866,6.782262
516,76608,D-Färberstraße,51.20931,6.782667
517,172783,D-Fürstenplatz,51.212376,6.785074
518,239992,D-Fürstenplatz,51.21241,6.784796
519,267961,"D-G'heim, Krankenhaus",51.24507,6.853436
520,275226,"D-G'heim, Krankenhaus",51.24506,6.85411
521,287443,"D-G'heim, Krankenhaus",51.24542,6.853705
522,308357,"D-G'heim, Krankenhaus",51.244797,6.853804
523,369202,"D-G'heim, Krankenhaus",51.245438,6.853948
524,175095,D-Gallberg,51.248775,6.860353
525,18017,D-Gallberg,51.24825,6.861808
526,220071,D-Gangelplatz,51.210564,6.800157
527,230683,D-Gangelplatz,51.21054,6.801648
528,283193,"D-Garath S, Ostseite",51.145153,6.89881
529,376483,"D-Garath S, Ostseite",51.144478,6.899726
530,216513,"D-Garath S, Westseite",51.14313,6.897175
531,28149,"D-Garath S, Westseite",51.14313,6.897175
532,4935,"D-Garath S, Westseite",51.14308,6.897184
533,86672,"D-Garath S, Westseite",51.14308,6.897184
534,30889,D-Garather Kirchweg,51.138763,6.904829
535,353249,D-Garather Kirchweg,51.138515,6.904945
536,76227,D-Garather Kirchweg,51.138515,6.904945
537,136414,D-Georg-Schulhoff-Platz,51.20753,6.760712
538,199631,D-Georg-Schulhoff-Platz,51.207436,6.75949
539,299335,D-Georg-Schulhoff-Platz,51.207546,6.759445
540,352204,D-Georg-Schulhoff-Platz,51.207687,6.760667
541,391539,D-Georg-Schulhoff-Platz,51.20727,6.759346
542,99203,D-Georg-Schulhoff-Platz,51.207462,6.759966
543,346583,D-Gerresheim S,51.220947,6.86665
544,348310,D-Gerresheim S,51.220703,6.866587
545,458345,D-Gerresheim S,51.22102,6.865491
546,72233,D-Gerresheim S,51.220764,6.866102
547,157015,"D-Gerresheim, Rathaus",51.236404,6.859787
548,206663,"D-Gerresheim, Rathaus",51.236607,6.859221
549,262471,"D-Gerresheim, Rathaus",51.23654,6.859113
550,270719,"D-Gerresheim, Rathaus",51.23674,6.859814
551,406098,"D-Gerresheim, Rathaus",51.23735,6.859805
552,137563,D-Gewerbege. Zülpicher Str.,51.232525,6.701863
553,405488,D-Gewerbege. Zülpicher Str.,51.232597,6.701684
554,406319,D-Gewerbege. Zülpicher Str.,51.23263,6.701827
555,6711,D-Gewerbege. Zülpicher Str.,51.23263,6.701827
556,357886,D-Gilbachstraße,51.21237,6.754397
557,400404,D-Ginsterweg,51.323944,6.772058
558,89111,D-Ginsterweg,51.323708,6.771456
559,18188,D-Golzheimer Platz,51.246162,6.768545
560,95299,D-Golzheimer Platz,51.24705,6.767611
561,328918,D-Gothaer Weg,51.217396,6.855484
562,101590,D-Graf-Adolf-Platz U,51.218094,6.775381
563,132435,D-Graf-Adolf-Platz U,51.218998,6.776396
564,168406,D-Graf-Adolf-Platz U,51.21876,6.775435
565,185220,D-Graf-Adolf-Platz U,51.21903,6.776199
566,252226,D-Graf-Adolf-Platz U,51.219032,6.777412
567,326704,D-Graf-Adolf-Platz U,51.21847,6.776962
568,394967,D-Graf-Adolf-Platz U,51.219135,6.774977
569,417864,D-Graf-Adolf-Platz U,51.218063,6.775444
570,61303,D-Graf-Adolf-Platz U,51.219135,6.774977
571,212537,D-Graf-Recke-Straße,51.24537,6.822112
572,213510,D-Graf-Recke-Straße,51.245247,6.820719
573,277445,D-Graf-Recke-Straße,51.24546,6.821977
574,35924,D-Graf-Recke-Straße,51.24605,6.821815
575,367778,D-Graf-Recke-Straße,51.245106,6.821905
576,44086,D-Graf-Recke-Straße,51.24529,6.820854
577,10801,D-Greifswalder Straße,51.15214,6.89474
578,224255,D-Greifswalder Straße,51.152534,6.894615
579,383639,D-Grenzweg,51.32618,6.738146
580,423247,D-Grenzweg,51.32555,6.734777
581,69216,D-Grenzweg,51.32528,6.735631
582,113899,D-Großmarkt,51.259594,6.777843
583,373405,D-Großmarkt,51.25974,6.777771
584,43498,D-Großmarkt,51.260315,6.777313
585,261008,D-Grunerstraße,51.243683,6.80181
586,358531,D-Grunerstraße,51.243637,6.801558
587,3958,D-Grunerstraße,51.243816,6.801693
588,95260,D-Grunerstraße,51.243076,6.801729
589,242214,"D-Gräulinger Str./G'heim, Krhs",51.24482,6.856894
590,34134,"D-Gräulinger Str./G'heim, Krhs",51.244858,6.856787
591,153591,D-Grünberger Weg,51.218533,6.848899
592,373024,D-Grünberger Weg,51.21796,6.848917
593,288829,D-Gubener Straße,51.21382,6.847157
594,405745,D-Gubener Straße,51.21397,6.84713
595,216642,D-Guerickeweg,51.18456,6.814108
596,372624,D-Guerickeweg,51.184322,6.814467
597,13026,D-Gut Rothenberg,51.211487,6.874717
598,241793,D-Gut Rothenberg,51.2115,6.874735
599,341421,D-Güstrower Straße,51.15024,6.899358
600,430210,D-Güstrower Straße,51.15048,6.899007
601,176702,D-Haeselerstraße,51.254776,6.803337
602,301649,D-Haeselerstraße,51.254906,6.803319
603,315115,D-Haeselerstraße,51.254776,6.803094
604,361303,D-Haeselerstraße,51.25501,6.802609
605,54040,D-Haeselerstraße,51.254856,6.802654
606,59707,D-Haeselerstraße,51.254738,6.803157
607,25087,D-Hamburger Straße,51.21146,6.734292
608,380155,D-Hamburger Straße,51.21184,6.734786
609,267348,D-Hamm S,51.21004,6.739143
610,298506,D-Hamm S,51.21089,6.738541
611,445130,D-Hamm S,51.210052,6.740572
612,79302,D-Hamm S,51.211132,6.739332
613,116179,D-Hammer Dorfstraße,51.20978,6.742296
614,280092,D-Hammer Dorfstraße,51.20984,6.741874
615,243354,D-Handelszentrum/Moskauer Str.,51.218613,6.801163
616,273140,D-Handelszentrum/Moskauer Str.,51.219105,6.802214
617,420979,D-Handelszentrum/Moskauer Str.,51.218567,6.801145
618,54648,D-Handelszentrum/Moskauer Str.,51.219173,6.802861
619,126879,D-Handweiser,51.229538,6.699573
620,181311,D-Handweiser,51.228683,6.698809
621,185089,D-Handweiser,51.228428,6.697947
622,212069,D-Handweiser,51.228683,6.698809
623,214096,D-Handweiser,51.228832,6.698333
624,228061,D-Handweiser,51.228233,6.698504
625,252220,D-Handweiser,51.228683,6.698809
626,276812,D-Handweiser,51.228683,6.698809
627,279828,D-Handweiser,51.228203,6.698396
628,321990,D-Handweiser,51.228863,6.699581
629,373707,D-Handweiser,51.228683,6.698809
630,425571,D-Handweiser,51.228916,6.699986
631,429291,D-Handweiser,51.228428,6.697947
632,437040,D-Handweiser,51.228306,6.697399
633,46034,D-Handweiser,51.228203,6.698396
634,97414,D-Handweiser,51.228306,6.697399
635,98737,D-Handweiser,51.228683,6.698809
636,99508,D-Handweiser,51.228794,6.698324
637,171995,D-Hansaplatz,51.246918,6.8019
638,195620,D-Hansaplatz,51.24701,6.801756
639,375355,D-Hansaplatz,51.246807,6.801855
640,97909,D-Hansaplatz,51.246983,6.802025
641,223106,D-Hardenbergstraße,51.22686,6.861862
642,79163,D-Hardenbergstraße,51.226852,6.861799
643,328843,"D-Hassels, Denkmal",51.176342,6.871384
644,361397,"D-Hassels, Denkmal",51.17556,6.870908
645,153188,"D-Hassels, Friedhof",51.172256,6.873504
646,384091,"D-Hassels, Friedhof",51.17204,6.873621
647,327788,"D-Hassels, Kirche",51.17937,6.876002
648,363094,"D-Hassels, Kirche",51.17936,6.874942
649,64949,"D-Hassels, Kirche",51.180347,6.874331
650,399988,D-Haus der Stiftungen,51.251358,6.773441
651,69412,D-Haus der Stiftungen,51.25125,6.773522
652,162687,D-Haydnstraße,51.155186,6.874223
653,261815,D-Haydnstraße,51.155186,6.874223
654,419266,D-Haydnstraße,51.155273,6.874133
655,430266,D-Haydnstraße,51.155273,6.874133
656,115932,"D-Heerdt, Friedhof",51.235275,6.719955
657,136324,"D-Heerdt, Friedhof",51.23562,6.720009
658,210662,"D-Heerdt, Friedhof",51.235275,6.719955
659,232192,D-Heerdter Krankenhaus,51.233006,6.726854
660,32789,D-Heerdter Krankenhaus,51.23302,6.727079
661,413324,D-Heerdter Krankenhaus,51.233036,6.726558
662,423242,D-Heerdter Krankenhaus,51.231236,6.728139
663,426366,D-Heerdter Krankenhaus,51.232986,6.726612
664,43327,D-Heerdter Krankenhaus,51.233006,6.726854
665,110521,D-Heerdter Sandberg,51.23659,6.738434
666,27368,D-Heerdter Sandberg,51.23688,6.737993
667,274089,D-Heerdter Sandberg,51.23638,6.739745
668,399955,D-Heerdter Sandberg,51.23675,6.738254
669,182155,D-Heesenstraße,51.231754,6.712436
670,200835,D-Heesenstraße,51.23185,6.713667
671,249779,D-Heesenstraße,51.231483,6.714646
672,347742,D-Heesenstraße,51.231567,6.714655
673,409702,D-Heesenstraße,51.23185,6.714053
674,43406,D-Heesenstraße,51.231827,6.714341
675,161491,D-Heideweg,51.25355,6.806724
676,276862,D-Heideweg,51.25304,6.806032
677,173138,D-Heinrich-Ehrhardt-Straße,51.253918,6.786826
678,329826,D-Heinrich-Ehrhardt-Straße,51.253746,6.786161
679,446035,D-Heinrich-Ehrhardt-Straße,51.25373,6.786161
680,189371,D-Heinrich-Heine-Allee U,51.225555,6.777744
681,205149,D-Heinrich-Heine-Allee U,51.2269,6.777079
682,222706,D-Heinrich-Heine-Allee U,51.225273,6.776684
683,238030,D-Heinrich-Heine-Allee U,51.226055,6.776935
684,246184,D-Heinrich-Heine-Allee U,51.229206,6.777142
685,271296,D-Heinrich-Heine-Allee U,51.225975,6.777115
686,417841,D-Heinrich-Heine-Allee U,51.225704,6.777654
687,448267,D-Heinrich-Heine-Allee U,51.22609,6.776693
688,96835,D-Heinrich-Heine-Allee U,51.226067,6.776855
689,244865,D-Heinrich-Holtschneider-Weg,51.317307,6.745836
690,259994,D-Heinrich-Holtschneider-Weg,51.31741,6.745746
691,276959,D-Heinrich-Könn-Straße,51.24281,6.849582
692,44006,D-Heinrich-Könn-Straße,51.242756,6.849726
693,99987,D-Heinrich-Könn-Straße,51.242905,6.850031
694,113284,D-Heinrichstraße,51.250313,6.800256
695,16570,D-Heinrichstraße,51.250362,6.80119
696,209119,D-Heinrichstraße,51.250694,6.800669
697,216883,D-Heinrichstraße,51.250126,6.799851
698,227627,D-Heinrichstraße,51.25101,6.800076
699,260123,D-Heinrichstraße,51.249214,6.800319
700,273077,D-Heinrichstraße,51.250694,6.800669
701,351453,D-Heinrichstraße,51.249203,6.80022
702,364310,D-Heinrichstraße,51.251083,6.802609
703,375177,D-Heinrichstraße,51.25008,6.799887
704,427651,D-Heinrichstraße,51.250893,6.801199
705,73752,D-Heinrichstraße,51.250313,6.801513
706,77043,D-Heinrichstraße,51.250175,6.799762
707,191364,D-Heinsbergstraße,51.23958,6.751989
708,301051,D-Heinsbergstraße,51.23951,6.752034
709,1108,D-Hellerhof S,51.132545,6.907721
710,164548,D-Hellerhof S,51.133244,6.909895
711,183305,D-Hellerhof S,51.13281,6.910156
712,27513,D-Hellerhof S,51.1325,6.907856
713,32195,D-Hellerhof S,51.1325,6.907856
714,386151,D-Hellerhof S,51.132545,6.907721
715,17747,D-Hellriegelstraße,51.188522,6.763012
716,160302,D-Helmholtzstraße,51.21441,6.787491
717,208042,D-Helmholtzstraße,51.214764,6.786727
718,457019,D-Helmholtzstraße,51.21531,6.787877
719,77129,D-Helmholtzstraße,51.21427,6.78679
720,238556,D-Hemmersbachweg,51.211376,6.749788
721,342386,D-Hemmersbachweg,51.211357,6.749663
722,281920,D-Henkelstraße,51.174915,6.846231
723,387503,D-Henkelstraße,51.17489,6.846097
724,431101,D-Henkelstraße,51.17485,6.845845
725,243722,D-Herborner Weg,51.196922,6.82663
726,410077,D-Herborner Weg,51.19723,6.82654
727,298099,D-Hermann-vom-Endt-Straße,51.145138,6.884742
728,386346,D-Hermann-vom-Endt-Straße,51.14459,6.884886
729,350660,D-Hermannstraße,51.228592,6.807721
730,90404,D-Hermannstraße,51.228535,6.807676
731,398139,D-Herzogstraße,51.215668,6.775696
732,155067,D-Hilgener Weg,51.181923,6.832245
733,275948,D-Hilgener Weg,51.18159,6.832074
734,376871,"D-Himmelgeist, Friedhof",51.173294,6.802169
735,49778,"D-Himmelgeist, Friedhof",51.172653,6.802286
736,12512,D-Himmelgeister Landstraße,51.17566,6.802484
737,322303,D-Himmelgeister Landstraße,51.17608,6.802636
738,250306,D-Hinter den Höfen,51.178684,6.831966
739,385532,D-Hinter den Höfen,51.178375,6.832029
740,413547,D-Hinter den Kämpen,51.326668,6.732172
741,456158,D-Hinter den Kämpen,51.32678,6.732002
742,174346,D-Hirschweg,51.270126,6.830286
743,283787,D-Hirschweg,51.27047,6.830421
744,433543,D-Hirschweg,51.270218,6.83017
745,450201,D-Hirschweg,51.270252,6.830448
746,233650,D-Hoferhofstraße,51.26812,6.7867
747,405198,D-Hoferhofstraße,51.26745,6.788003
748,155101,D-Hoferhäuschen,51.271255,6.932164
749,177970,D-Hoferhäuschen,51.27129,6.932362
750,320096,D-Hoffeldstraße,51.22882,6.815042
751,322517,D-Hoffeldstraße,51.22837,6.814269
752,378056,D-Hohenzollernallee,51.23377,6.829083
753,55927,D-Hohenzollernallee,51.233738,6.829092
754,218098,D-Holthausen,51.17496,6.833484
755,23548,D-Holthausen,51.175007,6.833215
756,244064,D-Holthausen,51.17503,6.833269
757,247580,D-Holthausen,51.17496,6.833484
758,254575,D-Holthausen,51.174828,6.833332
759,274042,D-Holthausen,51.17504,6.83229
760,401701,D-Holthausen,51.175316,6.833448
761,438630,D-Holthausen,51.17504,6.83229
762,441374,D-Holthausen,51.174828,6.833332
763,306832,"D-Holthausen, Am Falder",51.17651,6.821761
764,329105,"D-Holthausen, Am Falder",51.17651,6.821761
765,298021,D-Hubbelrath,51.26098,6.907559
766,422266,D-Hubbelrath,51.260696,6.909509
767,106323,D-Hubert-Hermes-Straße,51.249233,6.722659
768,119476,D-Hubert-Hermes-Straße,51.249416,6.723477
769,183932,D-Hubert-Hermes-Straße,51.24981,6.722201
770,351161,D-Hubert-Hermes-Straße,51.248905,6.722596
771,128019,D-Hubertushain,51.273594,6.833862
772,275572,D-Hubertushain,51.27337,6.833673
773,372293,D-Hubertushain,51.27354,6.834113
774,404738,D-Hubertushain,51.273438,6.833583
775,168154,D-Hugo-Viehoff-Straße,51.25634,6.779927
776,25415,D-Hugo-Viehoff-Straße,51.256462,6.779334
777,120086,D-Höherhofstraße,51.21998,6.843887
778,315127,D-Höherhofstraße,51.219856,6.844606
779,137647,D-Höherweg,51.221924,6.822723
780,220292,D-Höherweg,51.22166,6.823297
781,312436,D-Höherweg,51.221752,6.820944
782,384043,D-Höherweg,51.221138,6.822067
783,70147,D-Höherweg,51.221554,6.821258
784,102416,D-Höxterweg,51.263603,6.788506
785,257341,D-Höxterweg,51.263763,6.788479
786,337271,D-Hürthstraße,51.212738,6.86329
787,437102,D-Hürthstraße,51.212776,6.863389
788,150569,D-IKEA Reisholz,51.187813,6.843851
789,243338,D-IKEA Reisholz,51.187775,6.843743
790,196450,"D-IKEA, Haupteingang",51.189007,6.849789
791,20034,"D-IKEA, Haupteingang",51.18921,6.84907
792,349123,D-ISS DOME,51.27308,6.811817
793,41297,D-ISS DOME,51.272823,6.812509
794,178603,D-Ickerswarder Straße,51.184406,6.8208
795,276515,D-Ickerswarder Straße,51.18454,6.82062
796,378559,D-Ickerswarder Straße,51.184525,6.820782
797,390768,D-Ickerswarder Straße,51.184,6.821815
798,401893,D-Ickerswarder Straße,51.18424,6.821133
799,420343,D-Ickerswarder Straße,51.184017,6.821932
800,243515,D-Im Brühl,51.223804,6.870199
801,418342,D-Im Brühl,51.22371,6.870118
802,124885,D-Im Dahlacker,51.204075,6.765374
803,298642,D-Im Dahlacker,51.20409,6.765401
804,44249,D-Im Großen Winkel,51.331875,6.787212
805,449007,D-Im Großen Winkel,51.33117,6.78635
806,6341,D-Im Großen Winkel,51.33142,6.785496
807,171672,D-Im Grund,51.277367,6.736781
808,119798,D-Im Lohauser Feld,51.279907,6.736799
809,107186,D-Im Schlank,51.281494,6.794462
810,20360,D-Im Schlank,51.280228,6.794578
811,21511,D-Im Schlank,51.281494,6.794462
812,448507,D-Im Schlank,51.28168,6.795081
813,452680,D-Im Schlank,51.28137,6.793923
814,146506,D-In den Kötten,51.21232,6.859095
815,178645,D-In den Kötten,51.213047,6.858583
816,276592,D-In den Kötten,51.212246,6.859212
817,370294,D-In den Kötten,51.212784,6.858538
818,198054,D-In den Maisbanden,51.19444,6.859994
819,325593,D-In den Maisbanden,51.194668,6.860074
820,364804,D-In der Donk,51.18224,6.865914
821,406166,D-In der Donk,51.182247,6.865985
822,217186,D-In der Elb,51.196053,6.85305
823,441893,D-In der Elb,51.1962,6.852421
824,294843,D-In der Flieth,51.26669,6.872705
825,329722,D-In der Flieth,51.2667,6.872822
826,177037,D-In der Hött,51.19017,6.771168
827,215394,D-In der Hött,51.190224,6.771168
828,285426,D-In der Steele,51.186962,6.867252
829,64367,D-In der Steele,51.187115,6.867575
830,208785,D-Industriepark Niederheid,51.167313,6.839243
831,390524,D-Industriepark Niederheid,51.16735,6.839278
832,226571,D-Itter,51.168903,6.817117
833,80302,D-Itter,51.16866,6.818384
834,283373,"D-Itter, Friedhof",51.170666,6.824124
835,384,"D-Itter, Friedhof",51.17062,6.823944
836,259679,"D-Itter, Friedhof Osteingang",51.172913,6.824456
837,433150,"D-Itter, Friedhof Osteingang",51.1729,6.824555
838,84402,"D-Itter, Friedhof Osteingang",51.1729,6.824555
839,121257,D-Jacobistraße,51.228317,6.787275
840,193723,D-Jacobistraße,51.2273,6.787625
841,271603,D-Jacobistraße,51.228046,6.788021
842,29739,D-Jacobistraße,51.228317,6.787275
843,305504,D-Jacobistraße,51.228046,6.788021
844,325972,D-Jacobistraße,51.227795,6.787329
845,352024,D-Jagenbergstraße,51.168137,6.882766
846,354288,D-Jagenbergstraße,51.16832,6.882371
847,453432,D-Jagenbergstraße,51.168137,6.882766
848,72907,D-Jagenbergstraße,51.16832,6.882371
849,141858,D-Jakob-Kneip-Straße,51.135143,6.900157
850,6501,D-Jakob-Kneip-Straße,51.135143,6.89996
851,133223,D-Johannes-Radke-Straße,51.142532,6.891929
852,301118,D-Johannes-Radke-Straße,51.1426,6.892504
853,178902,D-Johannsenstraße,51.23614,6.754621
854,384321,D-Johannsenstraße,51.236465,6.754424
855,152538,D-Johannstraße,51.25422,6.780259
856,158906,D-Johannstraße,51.253544,6.78025
857,267745,D-Johannstraße,51.25352,6.78034
858,385344,D-Johannstraße,51.253746,6.779603
859,387991,D-Johannstraße,51.253895,6.779361
860,402808,D-Johannstraße,51.254333,6.780142
861,137067,D-Josef-Kardinal-Frings-Brücke,51.198353,6.737697
862,208972,D-Josef-Kardinal-Frings-Brücke,51.19839,6.737212
863,323742,D-Josef-Kürten-Platz,51.149673,6.873307
864,38927,D-Josef-Kürten-Platz,51.14982,6.874214
865,261217,D-Josef-Neuberger-Straße,51.23479,6.843914
866,27570,D-Josef-Neuberger-Straße,51.23485,6.843492
867,233632,D-Joseph-Brodmann-Straße,51.304703,6.751208
868,447857,D-Joseph-Brodmann-Straße,51.304752,6.750606
869,173388,D-Jugendherberge,51.22698,6.757711
870,371404,D-Jugendherberge,51.22693,6.757972
871,251038,D-Julius-Raschdorff-Straße,51.143757,6.888192
872,84793,D-Julius-Raschdorff-Straße,51.143585,6.889018
873,104155,D-Jägerstraße,51.20378,6.835074
874,79590,D-Jägerstraße,51.203907,6.834994
875,202729,D-Kaiserpfalz,51.296524,6.736242
876,82601,D-Kaiserpfalz,51.296547,6.736305
877,228114,D-Kaiserslauterner Straße,51.204075,6.810452
878,260313,D-Kaiserslauterner Straße,51.203568,6.810649
879,348112,D-Kaiserslauterner Straße,51.203922,6.810703
880,399987,D-Kaiserslauterner Straße,51.204025,6.810847
881,288346,D-Kaldenberger Straße,51.172527,6.82805
882,34007,D-Kaldenberger Straße,51.172478,6.827178
883,432748,D-Kaldenberger Straße,51.172096,6.827178
884,72294,D-Kaldenberger Straße,51.17229,6.827618
885,377409,D-Kalkstraße,51.32262,6.740859
886,49682,D-Kalkstraße,51.32276,6.740796
887,130713,"D-Kalkum, Kirche",51.3033,6.758161
888,182185,"D-Kalkum, Kirche",51.30324,6.758376
889,288857,D-Kalkumer Schloßallee,51.30529,6.743913
890,315012,D-Kalkumer Schloßallee,51.304707,6.742772
891,352800,D-Kalkumer Schloßallee,51.30586,6.743752
892,382840,D-Kalkumer Schloßallee,51.305325,6.743824
893,166441,D-Kammerrathsfeldstraße,51.151432,6.880763
894,3163,D-Kammerrathsfeldstraße,51.151432,6.880763
895,64841,D-Kammerrathsfeldstraße,51.151493,6.880709
896,17150,D-Kanalstraße,51.238445,6.752923
897,394098,D-Kanalstraße,51.238575,6.752816
898,205136,D-Kapellweg,51.206066,6.7511
899,268179,D-Kapellweg,51.206078,6.751324
900,130823,D-Kappeler Straße,51.16227,6.860649
901,404517,D-Kappeler Straße,51.16223,6.859778
902,131210,D-Karl-Geusen-Straße,51.20949,6.809805
903,431967,D-Karl-Geusen-Straße,51.208813,6.810452
904,283046,D-Karolingerplatz,51.204525,6.780322
905,368980,D-Karolingerplatz,51.205082,6.780196
906,247083,D-Karolingerstraße,51.204987,6.776747
907,51081,D-Karolingerstraße,51.20506,6.776926
908,223563,D-Karweg,51.16462,6.831571
909,50946,D-Karweg,51.16436,6.832604
910,273247,D-Kennedydamm,51.24307,6.772453
911,34394,D-Kennedydamm,51.243736,6.771608
912,130376,D-Kettwiger Straße U,51.22135,6.809472
913,189257,D-Kettwiger Straße U,51.221207,6.809239
914,196339,D-Kettwiger Straße U,51.221367,6.809661
915,2908,D-Kettwiger Straße U,51.220688,6.80932
916,386715,D-Kettwiger Straße U,51.221104,6.808341
917,49152,D-Kettwiger Straße U,51.220585,6.809688
918,70194,D-Kettwiger Straße U,51.22035,6.810083
919,136870,D-Kikweg,51.208076,6.882667
920,218632,D-Kikweg,51.207603,6.88317
921,180142,D-Kirchplatz U,51.213455,6.776747
922,298952,D-Kirchplatz U,51.2134,6.775336
923,302043,D-Kirchplatz U,51.2142,6.775292
924,310001,D-Kirchplatz U,51.213974,6.77636
925,42039,D-Kirchplatz U,51.213383,6.775283
926,422664,D-Kirchplatz U,51.213486,6.775274
927,426347,D-Kirchplatz U,51.21396,6.776432
928,242872,D-Kissinger Straße,51.19236,6.840895
929,274715,D-Kissinger Straße,51.192486,6.840752
930,201402,D-Kittelbachstraße,51.29521,6.738829
931,47474,D-Kittelbachstraße,51.294453,6.73873
932,336087,D-Klashausweg,51.26512,6.87778
933,419834,D-Klashausweg,51.265057,6.877852
934,111156,D-Klemensplatz,51.30076,6.739107
935,14440,D-Klemensplatz,51.300533,6.739269
936,350943,D-Klemensplatz,51.300625,6.739359
937,353274,D-Klemensplatz,51.30111,6.739161
938,86396,D-Klosterstraße,51.224644,6.788137
939,97527,D-Klosterstraße,51.225105,6.788263
940,164656,D-Knuppertsbrück,51.218594,6.865896
941,170793,D-Knuppertsbrück,51.217323,6.866228
942,330247,D-Koblenzer Straße,51.15507,6.873208
943,401507,D-Koblenzer Straße,51.155403,6.872714
944,44677,D-Koblenzer Straße,51.15507,6.873208
945,377838,D-Kolpingplatz,51.241253,6.778966
946,55877,D-Kolpingplatz,51.241257,6.778409
947,10347,D-Kopernikusstraße,51.202995,6.780475
948,340316,D-Kopernikusstraße,51.202652,6.781454
949,444655,D-Kopernikusstraße,51.202045,6.78078
950,207843,D-Koppersstraße,51.224773,6.707792
951,213140,D-Koppersstraße,51.224632,6.707783
952,283292,D-Krahkampweg,51.19047,6.765715
953,72744,D-Krahkampweg,51.18986,6.765428
954,191984,D-Kronprinzenstraße,51.21083,6.77018
955,366117,D-Kronprinzenstraße,51.21083,6.769354
956,164028,D-Kruppstraße,51.211403,6.796249
957,223239,D-Kruppstraße,51.211227,6.794542
958,230194,D-Kruppstraße,51.21169,6.796752
959,244606,D-Kruppstraße,51.211216,6.794875
960,247921,D-Kruppstraße,51.21156,6.796519
961,456363,D-Kruppstraße,51.2116,6.796761
962,209046,D-Kurt-Tucholsky-Straße,51.144978,6.905224
963,82445,D-Kurt-Tucholsky-Straße,51.145126,6.904334
964,189374,D-Königsberger Straße,51.218185,6.822085
965,321775,D-Königsberger Straße,51.21831,6.822067
966,353669,D-Königsberger Straße,51.2194,6.821231
967,385946,D-Königsberger Straße,51.2186,6.820369
968,25194,D-Königsbusch,51.22318,6.843537
969,438825,D-Königsbusch,51.22311,6.843447
970,220697,D-Kürtenstraße,51.269947,6.797085
971,423499,D-Kürtenstraße,51.269947,6.796995
972,192880,D-Landtag/Kniebrücke,51.21826,6.767054
973,203091,D-Landtag/Kniebrücke,51.218334,6.766937
974,244610,D-Landtag/Kniebrücke,51.218548,6.767404
975,278710,D-Landtag/Kniebrücke,51.217834,6.768455
976,48873,D-Landtag/Kniebrücke,51.217777,6.768294
977,95693,D-Landtag/Kniebrücke,51.218506,6.767207
978,122071,D-Langenberger Straße,51.214626,6.817198
979,201261,D-Langenberger Straße,51.214527,6.817611
980,387834,D-Langenberger Straße,51.214054,6.817458
981,310670,D-Langerstraße,51.223236,6.804469
982,322250,D-Langerstraße,51.223557,6.804065
983,195363,D-Lanker Straße,51.234657,6.747435
984,214709,D-Lanker Straße,51.234657,6.747435
985,338829,D-Lanker Straße,51.235138,6.746689
986,398414,D-Lanker Straße,51.235138,6.746689
987,176461,D-Lantzallee,51.277866,6.741129
988,345518,D-Lausward,51.22341,6.736493
989,28542,D-Lennéstraße,51.239086,6.789512
990,337116,D-Lennéstraße,51.239784,6.789674
991,155556,D-Leo-Statz-Platz,51.21398,6.770782
992,343440,D-Leo-Statz-Platz,51.214066,6.769991
993,244821,D-Leuchtenberger Kirchweg,51.289906,6.731184
994,452111,D-Leuchtenberger Kirchweg,51.28971,6.730969
995,244434,D-Lewitstraße,51.236023,6.746689
996,332588,D-Lichtenbroich Quartier (n),51.285034,6.784948
997,417088,D-Lichtenbroich Quartier (n),51.28483,6.785407
998,269609,D-Lichtstraße,51.231026,6.817422
999,277117,D-Lichtstraße,51.23109,6.817063
1000,153167,D-Lierenfeld Btf,51.21229,6.821618
1001,320083,D-Lierenfeld Btf,51.21393,6.822749
1002,387798,D-Lierenfeld Btf,51.214153,6.822561
1003,426861,D-Lierenfeld Btf,51.214138,6.822705
1004,223471,D-Lierenfelder Straße,51.212738,6.820423
1005,285174,D-Lierenfelder Straße,51.21268,6.82071
1006,121421,D-Lindemannstraße,51.23178,6.808332
1007,160687,D-Lindemannstraße,51.231598,6.808969
1008,347289,D-Lindemannstraße,51.232086,6.809598
1009,350247,D-Lindemannstraße,51.23231,6.808808
1010,425465,D-Lindemannstraße,51.232063,6.809383
1011,457798,D-Lindemannstraße,51.23176,6.808116
1012,119430,D-Lindenstraße,51.229767,6.812131
1013,279600,D-Lindenstraße,51.229294,6.810344
1014,281167,D-Lindenstraße,51.229584,6.811539
1015,397564,D-Lindenstraße,51.22909,6.810362
1016,294324,D-Lingner Werke,51.164215,6.835155
1017,360215,D-Lingner Werke,51.164223,6.834464
1018,12739,D-Linnicher Straße,51.244442,6.741227
1019,240148,D-Linnicher Straße,51.243313,6.742198
1020,243868,D-Linnicher Straße,51.243313,6.742198
1021,209064,D-Lohausen,51.274128,6.747938
1022,266891,D-Lohausen,51.274338,6.747875
1023,184728,"D-Lohausen, Kirche",51.274956,6.736538
1024,74054,"D-Lohausen, Kirche",51.275215,6.736305
1025,208945,D-Lohauser Dorfstraße,51.27305,6.745009
1026,73073,D-Lohauser Dorfstraße,51.273315,6.744901
1027,122835,D-Lohweg,51.23983,6.727887
1028,203415,D-Lohweg,51.240116,6.728372
1029,220672,D-Lohweg,51.23979,6.72928
1030,253892,D-Lohweg,51.240234,6.728292
1031,336888,D-Lohweg,51.23991,6.729046
1032,374818,D-Lohweg,51.239697,6.727887
1033,85588,D-Lohweg,51.240265,6.728858
1034,99744,D-Lohweg,51.240116,6.728372
1035,266592,D-Lotharstraße,51.2465,6.737239
1036,76697,D-Lotharstraße,51.24636,6.737329
1037,16909,D-Ludwig-Beck-Straße,51.2451,6.810461
1038,383443,D-Ludwig-Beck-Straße,51.24543,6.810793
1039,201569,D-Ludwigstraße,51.19601,6.835685
1040,365270,D-Ludwigstraße,51.19464,6.833592
1041,405364,D-Ludwigstraße,51.19494,6.833439
1042,431087,D-Ludwigstraße,51.19508,6.833341
1043,4807,D-Ludwigstraße,51.19517,6.83388
1044,106943,D-Luegplatz,51.23145,6.761934
1045,169010,D-Luegplatz,51.231567,6.761961
1046,306856,D-Luegplatz,51.231606,6.761179
1047,413376,D-Luegplatz,51.231674,6.76143
1048,294402,D-Luisenstraße,51.21686,6.782712
1049,351081,D-Luisenstraße,51.21685,6.783376
1050,412403,D-Luisenstraße,51.216805,6.782586
1051,435680,D-Luisenstraße,51.21704,6.783224
1052,137327,D-Lörick,51.244762,6.717179
1053,241193,D-Lörick,51.24466,6.718042
1054,32704,D-Lörick,51.244576,6.717377
1055,3548,D-Lörick,51.24485,6.717179
1056,102004,D-Löricker Straße,51.242344,6.721788
1057,109243,D-Löricker Straße,51.242092,6.722489
1058,182712,D-Löricker Straße,51.24217,6.72239
1059,339306,D-Löricker Straße,51.242855,6.721905
1060,3772,D-Löricker Straße,51.242817,6.721878
1061,398730,D-Löricker Straße,51.241867,6.721662
1062,53517,D-Löricker Straße,51.242096,6.722138
1063,76747,D-Löricker Straße,51.242344,6.721788
1064,181169,D-Lütticher Straße,51.24016,6.743653
1065,250570,D-Lütticher Straße,51.240166,6.744246
1066,319375,D-Lütticher Straße,51.24016,6.743653
1067,337538,D-Lütticher Straße,51.240166,6.744246
1068,130790,D-MERKUR SPIEL-ARENA/Messe Nord,51.261276,6.736933
1069,428849,D-MERKUR SPIEL-ARENA/Messe Nord,51.261414,6.736269
1070,327009,D-Mahnmal,51.259098,6.762868
1071,419616,D-Mahnmal,51.258278,6.761987
1072,247319,D-Mannesmannröhrenwerke,51.26571,6.801441
1073,253371,D-Mannesmannröhrenwerke,51.265278,6.802007
1074,260024,D-Mannesmannufer,51.22127,6.7678
1075,118713,D-Mannheimer Weg,51.200863,6.824295
1076,136463,D-Mannheimer Weg,51.200676,6.823926
1077,129615,D-Marconistraße,51.173374,6.822875
1078,26729,D-Marconistraße,51.17327,6.822615
1079,404196,D-Marconistraße,51.17327,6.822615
1080,447558,D-Marconistraße,51.173374,6.822875
1081,108045,D-Marienhospital,51.23567,6.78352
1082,196542,D-Marienhospital,51.235252,6.782451
1083,298328,D-Marienhospital,51.234818,6.783116
1084,450030,D-Marienhospital,51.235317,6.783017
1085,401365,D-Markenstraße,51.21201,6.809239
1086,41173,D-Markenstraße,51.21153,6.81002
1087,371230,D-Max-Born-Straße,51.179344,6.807954
1088,436327,D-Max-Born-Straße,51.17925,6.807873
1089,327033,D-Max-Halbe-Straße,51.25081,6.810326
1090,79495,D-Max-Halbe-Straße,51.250793,6.810649
1091,412864,D-Maxplatz,51.223286,6.771887
1092,108583,"D-Medienhafen, Kesselstraße",51.213,6.746923
1093,141417,"D-Medienhafen, Kesselstraße",51.21319,6.747022
1094,178463,"D-Medienhafen, Kesselstraße",51.213223,6.747363
1095,7849,"D-Medienhafen, Kesselstraße",51.21304,6.747552
1096,191418,D-Meisenheimer Weg,51.19998,6.821267
1097,448492,D-Meisenheimer Weg,51.19979,6.820872
1098,397386,D-Meisenweg,51.271297,6.766299
1099,433631,D-Meisenweg,51.271324,6.766272
1100,318931,D-Mendelweg,51.181667,6.809697
1101,94138,D-Mendelweg,51.181477,6.809203
1102,380025,D-Mercedesstraße,51.249874,6.797669
1103,355989,D-Merkurstraße,51.201,6.766425
1104,5023,D-Merkurstraße,51.20152,6.766326
1105,193792,D-Merowingerplatz,51.19773,6.778049
1106,225223,D-Merowingerplatz,51.197422,6.777906
1107,313073,D-Merowingerplatz,51.197422,6.777178
1108,356950,D-Merowingerplatz,51.19816,6.777942
1109,366869,D-Merowingerplatz,51.198463,6.777798
1110,228185,D-Merowingerstraße,51.200714,6.776819
1111,455536,D-Merowingerstraße,51.200512,6.776891
1112,70801,D-Merowingerstraße,51.200367,6.777555
1113,68970,D-Merziger Straße,51.25024,6.786359
1114,166290,D-Messe Ost/Stockum. Kirchstr.,51.259804,6.75375
1115,211049,D-Messe Ost/Stockum. Kirchstr.,51.260544,6.754244
1116,217655,D-Messe Ost/Stockum. Kirchstr.,51.260582,6.754334
1117,295161,D-Messe Ost/Stockum. Kirchstr.,51.260067,6.754235
1118,303068,D-Messe Ost/Stockum. Kirchstr.,51.259808,6.753615
1119,36260,D-Messe Ost/Stockum. Kirchstr.,51.260212,6.754603
1120,256961,D-Messe Süd/Congress Center,51.255997,6.742198
1121,353204,D-Messe Süd/Congress Center,51.255924,6.742018
1122,141013,"D-Messe, Osteingang",51.259075,6.746554
1123,380293,"D-Messe, Osteingang",51.25932,6.748297
1124,338053,D-Messe-Center,51.258266,6.743168
1125,446711,D-Messe-Center,51.25831,6.743267
1126,277453,D-Mintard. Weg/Bezirkssp.anl.,51.27733,6.794551
1127,313141,D-Mintard. Weg/Bezirkssp.anl.,51.277863,6.794677
1128,380108,D-Mintard. Weg/Bezirkssp.anl.,51.277863,6.794677
1129,387206,D-Mintard. Weg/Bezirkssp.anl.,51.27733,6.794551
1130,174968,D-Mintropplatz,51.217594,6.790141
1131,74857,D-Mintropplatz,51.21813,6.790222
1132,190960,D-Moorenstraße,51.198074,6.78264
1133,288351,D-Moorenstraße,51.198437,6.782397
1134,306230,D-Moorenstraße,51.198322,6.781643
1135,31646,D-Moorenstraße,51.198914,6.782244
1136,328216,D-Moorenstraße,51.1983,6.783421
1137,355244,D-Moorenstraße,51.19803,6.782712
1138,6058,D-Moorenstraße,51.198437,6.782397
1139,105719,D-Morper Straße,51.223156,6.863982
1140,183432,D-Morper Straße,51.22295,6.86497
1141,42799,D-Morper Straße,51.223095,6.864979
1142,433062,D-Morper Straße,51.223213,6.863686
1143,79602,D-Morper Straße,51.223827,6.864162
1144,207838,D-Morsestraße,51.210445,6.782613
1145,226022,D-Morsestraße,51.21098,6.783556
1146,307494,D-Morsestraße,51.211674,6.783637
1147,428876,D-Morsestraße,51.21106,6.784032
1148,54039,D-Morsestraße,51.211395,6.78317
1149,77150,D-Morsestraße,51.21151,6.782721
1150,341496,D-Mörikestraße,51.2645,6.745458
1151,63468,D-Mörikestraße,51.26446,6.745548
1152,194326,D-Mörsenbroicher Weg,51.25115,6.823253
1153,217554,D-Mörsenbroicher Weg,51.251053,6.822758
1154,223075,D-Mörsenbroicher Weg,51.25081,6.821204
1155,22487,D-Mörsenbroicher Weg,51.25148,6.822246
1156,259961,D-Mörsenbroicher Weg,51.25131,6.822184
1157,328453,D-Mörsenbroicher Weg,51.251415,6.822067
1158,352095,D-Mörsenbroicher Weg,51.251503,6.822363
1159,431788,D-Mörsenbroicher Weg,51.25079,6.821052
1160,242319,D-Mühlenplatz,51.14625,6.86427
1161,376078,D-Mühlenplatz,51.14616,6.864063
1162,419284,D-Mühlenplatz,51.14625,6.86427
1163,5020,D-Mühlenplatz,51.14616,6.864063
1164,380429,D-Münchener Straße,51.175884,6.809984
1165,43227,D-Münchener Straße,51.17569,6.809778
1166,123543,D-Mündelheimer Weg,51.288486,6.792943
1167,365786,D-Mündelheimer Weg,51.288445,6.793024
1168,195601,D-Münsterplatz,51.243683,6.786215
1169,210794,D-Münsterplatz,51.243675,6.78705
1170,299671,D-Münsterplatz,51.2438,6.786583
1171,421266,D-Münsterplatz,51.24435,6.786619
1172,101751,D-Münsterstraße/Feuerwache,51.242535,6.782963
1173,213675,D-Münsterstraße/Feuerwache,51.241707,6.783287
1174,346485,D-Münsterstraße/Feuerwache,51.24186,6.782999
1175,360262,D-Münsterstraße/Feuerwache,51.241554,6.783529
1176,398311,D-Münsterstraße/Feuerwache,51.241325,6.783879
1177,453162,D-Münsterstraße/Feuerwache,51.241325,6.783879
1178,206290,D-Nagelsweg,51.277798,6.731768
1179,415027,D-Nagelsweg,51.277164,6.730852
1180,299633,D-Nernstweg,51.18447,6.80888
1181,458433,D-Nernstweg,51.184406,6.808853
1182,195354,D-Neu-Lichtenbroich,51.282204,6.799178
1183,2198,D-Neu-Lichtenbroich,51.282616,6.800786
1184,340456,D-Neu-Lichtenbroich,51.282204,6.799178
1185,239269,D-Neubrandenburger Straße,51.147125,6.900732
1186,282916,D-Neubrandenburger Straße,51.14738,6.900768
1187,243096,D-Neuenhaus,51.260815,6.891785
1188,414970,D-Neuenhaus,51.26091,6.889225
1189,196785,D-Neusser Weg,51.27965,6.732963
1190,13278,D-Neßlerstraße,51.153652,6.876837
1191,206821,D-Neßlerstraße,51.15375,6.876702
1192,348958,D-Neßlerstraße,51.15375,6.876702
1193,46243,D-Neßlerstraße,51.153652,6.876837
1194,124543,D-Niederdonker Straße,51.246044,6.722417
1195,144975,D-Niederdonker Straße,51.245605,6.722345
1196,225352,D-Niederheid,51.171055,6.8398
1197,247321,D-Niederheid,51.17099,6.839755
1198,280769,D-Niederheid,51.17048,6.839521
1199,297649,D-Niederheid,51.17099,6.839755
1200,347651,D-Niederheid,51.17048,6.839961
1201,408119,D-Niederheid,51.171055,6.8398
1202,65141,D-Niederheid,51.170563,6.839665
1203,95874,D-Niederheid,51.17034,6.839889
1204,138565,D-Niederheider Straße,51.172997,6.842575
1205,283210,D-Niederheider Straße,51.17296,6.842566
1206,350870,D-Niederheider Straße,51.172997,6.842593
1207,317171,D-Niederkassel,51.24192,6.750525
1208,431727,D-Niederkassel,51.24194,6.750336
1209,323540,D-Niederkasseler Kirchweg,51.237553,6.744749
1210,7658,D-Niederkasseler Kirchweg,51.237553,6.744749
1211,77633,D-Niederkasseler Kirchweg,51.237446,6.744731
1212,103859,D-Nikolaus-Knopp-Platz,51.23233,6.721132
1213,114888,D-Nikolaus-Knopp-Platz,51.232033,6.723001
1214,150730,D-Nikolaus-Knopp-Platz,51.233288,6.720135
1215,238112,D-Nikolaus-Knopp-Platz,51.23224,6.723252
1216,248634,D-Nikolaus-Knopp-Platz,51.232754,6.719713
1217,316484,D-Nikolaus-Knopp-Platz,51.23233,6.721132
1218,335438,D-Nikolaus-Knopp-Platz,51.232777,6.719812
1219,34387,D-Nikolaus-Knopp-Platz,51.232193,6.721779
1220,359983,D-Nikolaus-Knopp-Platz,51.233246,6.720189
1221,401745,D-Nikolaus-Knopp-Platz,51.232243,6.721671
1222,43859,D-Nikolaus-Knopp-Platz,51.23233,6.721132
1223,100738,D-Norbert-Schmidt-Straße,51.225845,6.858404
1224,119454,D-Norbert-Schmidt-Straße,51.22575,6.858404
1225,1322,D-Nordfriedhof,51.252922,6.771348
1226,153462,D-Nordfriedhof,51.253235,6.77098
1227,169073,D-Nordfriedhof,51.253895,6.772731
1228,169647,D-Nordfriedhof,51.252712,6.771069
1229,199040,D-Nordfriedhof,51.25334,6.771941
1230,276274,D-Nordfriedhof,51.253635,6.771932
1231,324081,D-Nordfriedhof,51.2535,6.771914
1232,110509,D-Nordpark/Aquazoo,51.258453,6.755187
1233,223045,D-Nordpark/Aquazoo,51.256386,6.75569
1234,338610,D-Nordpark/Aquazoo,51.25627,6.7556
1235,118119,D-Nordstraße U,51.234425,6.778382
1236,150803,D-Nordstraße U,51.235466,6.778373
1237,153981,D-Nordstraße U,51.234474,6.778525
1238,324847,D-Nordstraße U,51.235588,6.778472
1239,139853,D-Nosenberger Straße,51.286716,6.794605
1240,363043,D-Nosenberger Straße,51.28697,6.794057
1241,12665,D-Nürnberger Straße,51.16957,6.860892
1242,128564,D-Nürnberger Straße,51.170597,6.86109
1243,46322,D-Nürnberger Straße,51.16957,6.860892
1244,258241,D-Oberbilk S U,51.209213,6.808053
1245,353374,D-Oberbilk S U,51.20886,6.808053
1246,430220,D-Oberbilk S U,51.208916,6.80755
1247,440113,D-Oberbilk S U,51.208763,6.808475
1248,4732,D-Oberbilk S U,51.208515,6.808314
1249,85795,D-Oberbilk S U,51.208546,6.808161
1250,226850,D-Oberbilker Markt U,51.216587,6.803094
1251,246115,D-Oberbilker Markt U,51.216724,6.802951
1252,278518,D-Oberbilker Markt U,51.216606,6.804136
1253,382361,D-Oberbilker Markt U,51.21635,6.803858
1254,398286,D-Oberbilker Markt U,51.215702,6.802771
1255,400713,D-Oberbilker Markt U,51.216507,6.80419
1256,440221,D-Oberbilker Markt U,51.216675,6.803076
1257,77895,D-Oberbilker Markt U,51.21647,6.803337
1258,192893,D-Oberrath,51.26624,6.827475
1259,23323,D-Oberrath,51.26624,6.826316
1260,256894,D-Oberrath,51.26607,6.827223
1261,172151,D-Offenbacher Weg,51.20451,6.821222
1262,25599,D-Offenbacher Weg,51.20439,6.821474
1263,164095,D-Ohligser Straße,51.195377,6.821465
1264,229990,D-Ohligser Straße,51.195553,6.821124
1265,186359,D-Ohmweg,51.186184,6.80994
1266,58669,D-Ohmweg,51.186214,6.809993
1267,382193,D-Opladener Straße,51.187626,6.818761
1268,449017,D-Opladener Straße,51.18798,6.818411
1269,54099,D-Opladener Straße,51.18818,6.818195
1270,8166,D-Opladener Straße,51.187508,6.818752
1271,162716,D-Orangerie,51.158417,6.872893
1272,22837,D-Orangerie,51.15786,6.872759
1273,418714,D-Orangerie,51.158794,6.873405
1274,438060,D-Orangerie,51.158417,6.872893
1275,236994,D-Ostendorfstraße,51.247826,6.805834
1276,414566,D-Ostendorfstraße,51.248005,6.806418
1277,315683,D-Ostparksiedlung,51.235077,6.834122
1278,363200,D-Ostparksiedlung,51.2349,6.834464
1279,200566,D-Oststraße U,51.22255,6.787176
1280,218940,D-Oststraße U,51.222546,6.787248
1281,268227,D-Oststraße U,51.222534,6.787257
1282,321084,D-Oststraße U,51.22238,6.787365
1283,38438,D-Oststraße U,51.222553,6.78705
1284,41880,D-Oststraße U,51.222477,6.787095
1285,443259,D-Oststraße U,51.222538,6.787149
1286,53463,D-Oststraße U,51.222553,6.78705
1287,313885,D-Otto-Hahn-Straße,51.177338,6.810784
1288,380865,D-Otto-Hahn-Straße,51.17749,6.810964
1289,387065,D-Otto-Pankok-Straße,51.20838,6.845037
1290,396473,D-Otto-Pankok-Straße,51.208492,6.845414
1291,296749,D-Parsevalstraße,51.28062,6.784418
1292,341405,D-Parsevalstraße,51.28055,6.784032
1293,124274,D-Pattscheider Straße,51.185886,6.825552
1294,205677,D-Pattscheider Straße,51.18644,6.826451
1295,122616,D-Paul-Klee-Weg,51.293026,6.735703
1296,328273,D-Paul-Klee-Weg,51.29302,6.735577
1297,261971,D-Paul-Löbe-Straße,51.12948,6.898855
1298,376900,D-Paul-Löbe-Straße,51.12961,6.899942
1299,87309,D-Paul-Löbe-Straße,51.12948,6.898855
1300,25727,D-Paul-Thomas-Straße,51.176033,6.851091
1301,295238,D-Paul-Thomas-Straße,51.1762,6.851747
1302,349803,D-Paul-Thomas-Straße,51.176117,6.851451
1303,191641,D-Paulsmühlenstraße,51.164406,6.883422
1304,20111,D-Paulsmühlenstraße,51.164406,6.883422
1305,138994,D-Pempelforter Straße U,51.228542,6.792144
1306,179236,D-Pempelforter Straße U,51.228188,6.790284
1307,412787,D-Pempelforter Straße U,51.228344,6.791865
1308,430543,D-Pempelforter Straße U,51.22864,6.791497
1309,53211,D-Pempelforter Straße U,51.228146,6.790356
1310,66887,D-Pempelforter Straße U,51.228737,6.792063
1311,246704,D-Pinienstraße,51.217003,6.80932
1312,91844,D-Pinienstraße,51.2166,6.810676
1313,333768,D-Pirmasenser Weg,51.197895,6.824259
1314,406993,D-Pirmasenser Weg,51.19788,6.824474
1315,79009,D-Plange Mühle,51.21683,6.744704
1316,183902,D-Plüschowstraße,51.26775,6.749663
1317,377184,D-Plüschowstraße,51.267834,6.749654
1318,135931,D-Polizeipräsidium,51.215736,6.767889
1319,148901,D-Polizeipräsidium,51.21536,6.766722
1320,237690,D-Polizeipräsidium,51.215443,6.766758
1321,101867,D-Posener Straße,51.214756,6.838802
1322,45017,D-Posener Straße,51.214928,6.838856
1323,107689,D-Poststadion,51.227882,6.842072
1324,131969,D-Poststadion,51.22793,6.842108
1325,14014,D-Poststraße,51.219196,6.770288
1326,273384,D-Poststraße,51.219116,6.770818
1327,403157,D-Poststraße,51.218983,6.770728
1328,216860,D-Prinz-Georg-Straße,51.23651,6.787068
1329,419709,D-Prinz-Georg-Straße,51.236534,6.787634
1330,148453,D-Prinzenallee,51.23835,6.733924
1331,195451,D-Prinzenallee,51.238564,6.735846
1332,210042,D-Prinzenallee,51.238102,6.734176
1333,337862,D-Prinzenallee,51.238255,6.73555
1334,355545,D-Prinzenallee,51.238605,6.73564
1335,401847,D-Prinzenallee,51.23798,6.734373
1336,44591,D-Prinzenallee,51.238243,6.734068
1337,91491,D-Prinzenallee,51.238583,6.735568
1338,267037,D-Prof.-Dessauer-Weg,51.193703,6.785011
1339,267404,D-Prof.-Dessauer-Weg,51.193798,6.784966
1340,349807,D-Provinzialplatz,51.198807,6.811826
1341,45243,D-Provinzialplatz,51.19799,6.812042
1342,71890,D-Provinzialplatz,51.197857,6.81179
1343,86360,D-Provinzialplatz,51.19888,6.81188
1344,292334,D-Pöhlenweg,51.240044,6.83449
1345,9037,D-Pöhlenweg,51.239975,6.834508
1346,14573,D-Quirinstraße,51.234634,6.751657
1347,349554,D-Quirinstraße,51.2344,6.751244
1348,174092,D-Rath Mitte S,51.26229,6.811116
1349,189445,D-Rath Mitte S,51.26231,6.811431
1350,236353,D-Rath Mitte S,51.26249,6.809706
1351,307306,D-Rath Mitte S,51.262394,6.809975
1352,145720,D-Rath S,51.263355,6.81877
1353,4269,D-Rath S,51.263382,6.818734
1354,205547,D-Rather Broich,51.25435,6.822489
1355,238635,D-Rather Broich,51.254868,6.822354
1356,29176,D-Rather Broich,51.255,6.822417
1357,376549,D-Rather Broich,51.254917,6.821923
1358,10877,D-Rather Str./Hochschule HSD,51.24583,6.789647
1359,195766,D-Rather Str./Hochschule HSD,51.245914,6.789727
1360,30995,D-Rather Str./Hochschule HSD,51.24537,6.790168
1361,333740,D-Rather Str./Hochschule HSD,51.24577,6.790222
1362,356496,D-Rather Str./Hochschule HSD,51.24552,6.789638
1363,354900,D-Rather Waldstadion,51.263344,6.825292
1364,458577,D-Rather Waldstadion,51.263226,6.825328
1365,12870,D-Redinghovenstraße,51.206154,6.788685
1366,279409,D-Redinghovenstraße,51.20566,6.788021
1367,232709,D-Reeser Platz,51.253292,6.759023
1368,324110,D-Reeser Platz,51.253235,6.758978
1369,183538,D-Regerstraße,51.16053,6.874169
1370,273319,D-Regerstraße,51.160065,6.874187
1371,340785,D-Regerstraße,51.16028,6.874178
1372,76064,D-Regerstraße,51.16028,6.874178
1373,218608,D-Reichenbacher Weg,51.213158,6.854056
1374,51133,D-Reichenbacher Weg,51.21308,6.853939
1375,298392,D-Reichswaldallee,51.267284,6.827564
1376,309382,D-Reichswaldallee,51.26749,6.826963
1377,101314,D-Reinhold-Schneider-Straße,51.14015,6.899529
1378,168442,D-Reinhold-Schneider-Straße,51.14015,6.899529
1379,280597,D-Reinhold-Schneider-Straße,51.14025,6.899609
1380,454105,D-Reinhold-Schneider-Straße,51.14025,6.899609
1381,151217,D-Reisholz S,51.18067,6.861907
1382,250075,D-Reisholz S,51.180542,6.863048
1383,290105,D-Reisholz S,51.179962,6.862734
1384,42525,D-Reisholz S,51.180054,6.862015
1385,64298,D-Reisholz S,51.18073,6.861754
1386,291907,"D-Reisholz, Pfeiler",51.178978,6.858673
1387,331960,"D-Reisholz, Pfeiler",51.178955,6.858556
1388,338281,"D-Reisholz, Pfeiler",51.178978,6.858673
1389,227534,D-Reisholzer Bahnstr.,51.18119,6.857676
1390,44975,D-Reisholzer Bahnstr.,51.181473,6.857344
1391,103508,D-Reisholzer Werftstraße,51.164806,6.838677
1392,286016,D-Reisholzer Werftstraße,51.16463,6.837994
1393,203912,D-René-Schickele-Straße,51.13935,6.900085
1394,290912,D-René-Schickele-Straße,51.13834,6.900696
1395,148968,D-Rheinterrasse,51.23613,6.772085
1396,114547,D-Rheinturm,51.216496,6.759805
1397,233696,D-Rheinturm,51.21653,6.759939
1398,179978,D-Rheinweg,51.319054,6.742844
1399,291474,D-Rheinweg,51.31903,6.742907
1400,211266,D-Ricarda-Huch-Straße,51.137775,6.897543
1401,95742,D-Ricarda-Huch-Straße,51.138138,6.897319
1402,284236,D-Richardstraße,51.208652,6.838335
1403,376813,D-Richardstraße,51.20888,6.837778
1404,52933,D-Richardstraße,51.208885,6.83759
1405,285466,D-Rochusmarkt,51.233395,6.790078
1406,9355,D-Rochusmarkt,51.23397,6.789952
1407,153765,D-Ronsdorfer Straße,51.216965,6.818024
1408,293340,D-Ronsdorfer Straße,51.216244,6.818734
1409,293599,D-Ronsdorfer Straße,51.21672,6.818536
1410,308992,D-Ronsdorfer Straße,51.216152,6.819084
1411,187041,D-Rosmarinstraße,51.229603,6.822633
1412,37206,D-Rosmarinstraße,51.229504,6.822237
1413,110146,D-Rostocker Straße,51.14679,6.89015
1414,151345,D-Rostocker Straße,51.14751,6.890536
1415,180525,D-Rostocker Straße,51.1473,6.890932
1416,214780,D-Rostocker Straße,51.147655,6.889952
1417,254317,D-Rotdornstraße,51.26286,6.81532
1418,332959,D-Rotdornstraße,51.262997,6.816039
1419,245115,D-Rotkäppchenweg,51.23017,6.830295
1420,42176,D-Rotkäppchenweg,51.230194,6.83034
1421,230503,D-Rotthäuser Weg,51.25818,6.877628
1422,358847,D-Rotthäuser Weg,51.258102,6.877116
1423,454769,D-Rotthäuser Weg,51.25918,6.8784
1424,62784,D-Rotthäuser Weg,51.258884,6.878185
1425,436175,D-Roßpfad,51.33253,6.723108
1426,131840,D-Rudolf-Breitscheid-Straße,51.13048,6.903715
1427,25640,D-Rudolf-Breitscheid-Straße,51.130432,6.903553
1428,450246,D-Rudolf-Breitscheid-Straße,51.130432,6.903553
1429,307994,D-Röhrenlager,51.221222,6.827933
1430,418604,D-Röhrenlager,51.221317,6.827798
1431,371973,D-Rückertstraße,51.260315,6.814251
1432,392044,D-Rückertstraße,51.260536,6.813739
1433,140367,D-Schadowstraße U,51.226597,6.782352
1434,193347,D-Schadowstraße U,51.22665,6.783502
1435,242662,D-Schadowstraße U,51.2266,6.783457
1436,255104,D-Schadowstraße U,51.226173,6.782703
1437,412176,D-Scheideweg,51.181084,6.816129
1438,457025,D-Scheideweg,51.181274,6.816318
1439,192718,D-Schellbergweg,51.25661,6.869857
1440,327946,D-Schellbergweg,51.2566,6.869956
1441,10805,D-Schiessstraße,51.238705,6.720943
1442,214835,D-Schiessstraße,51.238705,6.720943
1443,72578,D-Schiessstraße,51.238796,6.720997
1444,401976,D-Schillerplatz,51.235985,6.800381
1445,70342,D-Schillerplatz,51.23509,6.800265
1446,100283,D-Schimmelpfennigstraße,51.161083,6.888264
1447,102458,D-Schimmelpfennigstraße,51.16106,6.889018
1448,285676,D-Schimmelpfennigstraße,51.161083,6.888264
1449,309434,D-Schimmelpfennigstraße,51.16106,6.889018
1450,199038,D-Schlesische Straße,51.20785,6.829792
1451,205394,D-Schlesische Straße,51.208347,6.831292
1452,331223,D-Schlesische Straße,51.20832,6.830143
1453,346811,D-Schlesische Straße,51.208275,6.831086
1454,366781,D-Schlesische Straße,51.208286,6.830322
1455,439906,D-Schlesische Straße,51.20777,6.830637
1456,79568,D-Schlesische Straße,51.207558,6.831032
1457,114691,D-Schloss Benrath,51.162575,6.868851
1458,275594,D-Schloss Benrath,51.16229,6.86851
1459,371410,D-Schloss Eller,51.19717,6.847498
1460,267920,D-Schloss Kalkum,51.305954,6.759409
1461,60462,D-Schloss Kalkum,51.30594,6.759634
1462,149671,D-Schloß Jägerhof,51.231888,6.786413
1463,270793,D-Schloß Jägerhof,51.232536,6.786817
1464,355429,D-Schloß Jägerhof,51.23241,6.786691
1465,358039,D-Schloß Jägerhof,51.231922,6.78688
1466,385563,D-Schloß Jägerhof,51.232056,6.786026
1467,418967,D-Schloß Jägerhof,51.23182,6.786754
1468,424562,D-Schloß Jägerhof,51.23257,6.787733
1469,84237,D-Schloß Jägerhof,51.23182,6.786754
1470,125885,D-Schlüterstr./Arbeitsagentur,51.23684,6.820971
1471,126107,D-Schlüterstr./Arbeitsagentur,51.238575,6.821932
1472,161937,D-Schlüterstr./Arbeitsagentur,51.236084,6.820225
1473,245561,D-Schlüterstr./Arbeitsagentur,51.236855,6.822103
1474,29247,D-Schlüterstr./Arbeitsagentur,51.237,6.821186
1475,30826,D-Schlüterstr./Arbeitsagentur,51.23637,6.82062
1476,387053,D-Schlüterstr./Arbeitsagentur,51.237473,6.822219
1477,77207,D-Schlüterstr./Arbeitsagentur,51.23866,6.822237
1478,162143,D-Schmidtberg,51.256603,6.922436
1479,298255,D-Schmidtberg,51.256554,6.922759
1480,374174,D-Schumannstraße,51.23549,6.806463
1481,44953,D-Schumannstraße,51.235416,6.806508
1482,178342,D-Schwarzbachstraße,51.242035,6.859158
1483,9481,D-Schwarzbachstraße,51.24226,6.859032
1484,123332,D-Schweidnitzer Straße,51.206974,6.8405
1485,7289,D-Schweidnitzer Straße,51.207043,6.840159
1486,167487,D-Schönaustraße,51.234,6.861287
1487,215391,D-Schönaustraße,51.234486,6.860524
1488,244833,D-Schönaustraße,51.234615,6.862051
1489,374893,D-Schönaustraße,51.234657,6.861
1490,413964,D-Schönaustraße,51.23504,6.86038
1491,299097,D-Schöne Aussicht,51.162384,6.855394
1492,371772,D-Schöne Aussicht,51.16241,6.855304
1493,350720,D-Seeheimer Weg,51.206924,6.814638
1494,418099,D-Seeheimer Weg,51.207024,6.814665
1495,243152,D-Seeweg,51.20238,6.88777
1496,326443,D-Seeweg,51.20243,6.887509
1497,100845,D-Sichelstraße,51.229576,6.854963
1498,55026,D-Sichelstraße,51.22914,6.855718
1499,251852,D-Siedlerweg,51.22713,6.836233
1500,398976,D-Siedlerweg,51.2271,6.834985
1501,12020,D-Siedlung Freiheit,51.210148,6.860955
1502,249048,D-Siedlung Freiheit,51.209618,6.8602
1503,219574,D-Siedlung Höherweg,51.22089,6.833206
1504,240235,D-Siedlung Höherweg,51.220783,6.833035
1505,338748,D-Siedlung Kürtenstraße,51.267418,6.798648
1506,352292,D-Siedlung Kürtenstraße,51.267914,6.798261
1507,212435,D-Sigmaringenstraße,51.234425,6.755286
1508,126951,D-Sodenstraße,51.14978,6.884446
1509,299182,D-Sodenstraße,51.149925,6.884006
1510,316395,D-Sodenstraße,51.149925,6.884006
1511,226423,D-Sohnstraße,51.237946,6.813209
1512,84839,D-Sohnstraße,51.238205,6.813075
1513,112556,D-Sonnenstraße,51.212242,6.791416
1514,279363,D-Sonnenstraße,51.2123,6.791389
1515,149837,D-Speditionstraße,51.213108,6.750588
1516,227201,D-Speditionstraße,51.213573,6.749429
1517,345033,D-Speditionstraße,51.213665,6.749384
1518,420612,D-Speditionstraße,51.213455,6.74969
1519,139884,D-Spichernplatz,51.247044,6.783448
1520,166850,D-Spichernplatz,51.24697,6.783547
1521,348875,D-Spichernplatz,51.248024,6.783358
1522,365376,D-Spichernplatz,51.248062,6.783053
1523,54211,D-Spichernplatz,51.247314,6.783583
1524,334390,D-Sportmeile Grafenberg,51.246044,6.827789
1525,402064,D-Sportmeile Grafenberg,51.246197,6.827645
1526,155639,D-Sportpark Niederheid,51.170692,6.852079
1527,269505,D-Sportpark Niederheid,51.170128,6.852942
1528,47183,D-Sportpark Niederheid,51.170044,6.852843
1529,5676,D-Sportpark Nord / Europaplatz,51.264343,6.737086
1530,133171,D-Sportstraße,51.24085,6.73202
1531,298678,D-Sportstraße,51.240757,6.73087
1532,4540,D-Sportstraße,51.240757,6.73087
1533,367766,D-St.-Franziskus-Kirche,51.250732,6.804074
1534,396454,D-St.-Franziskus-Kirche,51.25065,6.803669
1535,18310,D-St.-Martinus-Krankenhaus,51.21191,6.760514
1536,5212,D-St.-Martinus-Krankenhaus,51.21202,6.75984
1537,182225,D-St.-Vinzenz-Krankenhaus,51.243225,6.790778
1538,349411,D-St.-Vinzenz-Krankenhaus,51.24222,6.790159
1539,392391,D-St.-Vinzenz-Krankenhaus,51.243305,6.79023
1540,83561,D-St.-Vinzenz-Krankenhaus,51.243153,6.791353
1541,358119,D-Stadthalle,51.2562,6.739574
1542,53394,D-Stadthalle,51.25617,6.739727
1543,119179,D-Stadttor,51.215984,6.764341
1544,271900,D-Stadttor,51.215572,6.763047
1545,366873,D-Stadttor,51.21542,6.763209
1546,416318,D-Stadttor,51.214886,6.763685
1547,67885,D-Stadttor,51.215763,6.764242
1548,20788,D-Stadtwerke/Düsselstrand,51.223995,6.811089
1549,421646,D-Stadtwerke/Düsselstrand,51.223427,6.810739
1550,433211,D-Stadtwerke/Düsselstrand,51.224495,6.81117
1551,451724,D-Stadtwerke/Düsselstrand,51.222633,6.811449
1552,52265,D-Stadtwerke/Düsselstrand,51.222717,6.811377
1553,210438,D-Stahlstraße,51.215836,6.796923
1554,334457,D-Stahlstraße,51.215935,6.796653
1555,117387,D-Stammesberg,51.20456,6.88662
1556,6899,D-Stammesberg,51.20449,6.886647
1557,138996,D-Staufenplatz,51.241383,6.826603
1558,183433,D-Staufenplatz,51.24144,6.82831
1559,253078,D-Staufenplatz,51.2415,6.826963
1560,405218,D-Staufenplatz,51.24111,6.82858
1561,51044,D-Staufenplatz,51.241383,6.829451
1562,16393,D-Steinstraße U,51.223003,6.780277
1563,16459,D-Steinstraße U,51.22295,6.780978
1564,254458,D-Steinstraße U,51.22305,6.780951
1565,340562,D-Steinstraße U,51.223026,6.779711
1566,355895,D-Steinstraße U,51.22261,6.782415
1567,361210,D-Steinstraße U,51.22295,6.780627
1568,370961,D-Steinstraße U,51.22353,6.782837
1569,444673,D-Steinstraße U,51.223316,6.782748
1570,69330,D-Steinstraße U,51.223045,6.780726
1571,78187,D-Steinstraße/Berliner Allee U,51.22301,6.783403
1572,88181,D-Steinstraße/Berliner Allee U,51.223,6.783152
1573,10050,D-Sternstraße,51.233337,6.779109
1574,185051,D-Sternstraße,51.233192,6.779702
1575,226804,D-Sternstraße,51.232548,6.779585
1576,15795,D-Stockkampstraße,51.23704,6.789593
1577,171276,D-Stockkampstraße,51.236946,6.789862
1578,260478,D-Stockkampstraße,51.2369,6.789305
1579,293765,D-Stockkampstraße,51.23671,6.789665
1580,181138,D-Stralsunder Straße,51.1552,6.892306
1581,316288,D-Stralsunder Straße,51.15506,6.892342
1582,258213,D-Strandbad Lörick,51.24843,6.730439
1583,380238,D-Strandbad Lörick,51.247986,6.731705
1584,373102,D-Strandbad Nord,51.199944,6.894444
1585,411051,D-Strandbad Nord,51.199825,6.8951
1586,301474,D-Straßburger Straße,51.251526,6.787104
1587,337856,D-Straßburger Straße,51.250923,6.787886
1588,258680,D-Stresemannplatz,51.21945,6.788775
1589,409429,D-Stresemannplatz,51.21946,6.789215
1590,317234,D-Sturmstraße,51.200928,6.829819
1591,409814,D-Sturmstraße,51.20089,6.82981
1592,280646,D-Suitbertusstraße,51.204563,6.773288
1593,78166,D-Suitbertusstraße,51.204098,6.772731
1594,210565,D-Sulzbachstraße,51.235943,6.838524
1595,278205,D-Sulzbachstraße,51.2362,6.838982
1596,107851,D-Südfriedhof,51.200253,6.755439
1597,125107,D-Südfriedhof,51.20057,6.755214
1598,20834,D-Südfriedhof,51.201065,6.754828
1599,294400,D-Südfriedhof,51.20094,6.754801
1600,451490,D-Südfriedhof,51.20072,6.754406
1601,49906,D-Südfriedhof,51.20098,6.754496
1602,10636,D-Südpark,51.19515,6.802376
1603,12969,D-Südpark,51.195023,6.801495
1604,157352,D-Südpark,51.19471,6.800579
1605,171187,D-Südpark,51.19511,6.801603
1606,186032,D-Südpark,51.19521,6.800256
1607,215692,D-Südpark,51.195564,6.8011
1608,243275,D-Südpark,51.19521,6.802178
1609,259056,D-Südpark,51.195076,6.802349
1610,260099,D-Südpark,51.195564,6.8011
1611,400849,D-Südpark,51.195023,6.801495
1612,418930,D-Südpark,51.19503,6.802492
1613,8965,D-Südpark,51.19497,6.800813
1614,364847,D-Südring,51.2004,6.770629
1615,420719,D-Südring,51.19955,6.770539
1616,253897,D-Tannenstraße,51.2511,6.781696
1617,7585,D-Tannenstraße,51.251125,6.781643
1618,164350,D-Theodor-Heuss-Brücke,51.250347,6.764386
1619,248965,D-Theodor-Heuss-Brücke,51.249626,6.765302
1620,29459,D-Theodor-Heuss-Brücke,51.25048,6.765653
1621,317570,D-Theodor-Heuss-Brücke,51.250423,6.765769
1622,97189,D-Theodor-Heuss-Brücke,51.24961,6.764269
1623,163439,D-Tichauer Weg,51.220062,6.84024
1624,180425,D-Tichauer Weg,51.219963,6.840213
1625,150871,D-Tilsiter Straße,51.33845,6.790374
1626,87592,D-Tilsiter Straße,51.33836,6.791533
1627,178653,D-Tonhalle/Ehrenhof,51.23249,6.773405
1628,191534,D-Tonhalle/Ehrenhof,51.231613,6.773944
1629,342941,D-Tonhalle/Ehrenhof,51.23173,6.772713
1630,393694,D-Tonhalle/Ehrenhof,51.230988,6.774546
1631,415139,D-Tonhalle/Ehrenhof,51.231556,6.772992
1632,44020,D-Tonhalle/Ehrenhof,51.23169,6.773603
1633,321016,D-Torfbruchstraße,51.23145,6.851352
1634,38678,D-Torfbruchstraße,51.232277,6.850337
1635,447814,D-Torfbruchstraße,51.23218,6.851361
1636,46976,D-Torfbruchstraße,51.23168,6.850328
1637,11103,D-Tußmannstraße,51.236416,6.793249
1638,410006,D-Tußmannstraße,51.236465,6.793204
1639,285452,D-Tübinger Straße,51.149246,6.86736
1640,287618,D-Tübinger Straße,51.149246,6.86736
1641,388775,D-Tübinger Straße,51.14916,6.867342
1642,54955,D-Tübinger Straße,51.14916,6.867342
1643,453693,D-Ubierstraße,51.19671,6.772866
1644,56876,D-Ubierstraße,51.19674,6.773297
1645,445055,D-Uedesheimer Straße,51.197895,6.763344
1646,454712,D-Uedesheimer Straße,51.19816,6.763263
1647,131302,D-Uhlandstraße,51.230656,6.801693
1648,198202,D-Uhlandstraße,51.23102,6.801109
1649,21003,D-Uhlandstraße,51.230297,6.801567
1650,264538,D-Uhlandstraße,51.230392,6.800956
1651,34075,D-Uhlandstraße,51.230816,6.801163
1652,433391,D-Uhlandstraße,51.230675,6.80198
1653,56617,D-Uhlandstraße,51.230717,6.802627
1654,66863,D-Uhlandstraße,51.231,6.801217
1655,198070,D-Uni Nord/Christophstraße,51.196842,6.796609
1656,337076,D-Uni Nord/Christophstraße,51.19713,6.795998
1657,85502,D-Uni Nord/Christophstraße,51.196514,6.796707
1658,265775,D-Uni Ost/Botanischer Garten,51.190823,6.800058
1659,383466,D-Uni Ost/Botanischer Garten,51.190086,6.800229
1660,12631,D-Uni-Kliniken,51.20004,6.78944
1661,241624,D-Uni-Kliniken,51.200012,6.790033
1662,301754,D-Uni-Kliniken,51.199875,6.789808
1663,314773,D-Uni-Kliniken,51.199596,6.789691
1664,356543,D-Uni-Kliniken,51.199875,6.789808
1665,379568,D-Uni-Kliniken,51.199306,6.790177
1666,75401,D-Uni-Kliniken,51.19967,6.790213
1667,9350,D-Uni-Kliniken,51.200195,6.789153
1668,178856,D-Universität Mensa,51.191776,6.793222
1669,180485,D-Universität Mensa,51.191814,6.793608
1670,326712,D-Universität Mensa,51.191933,6.794264
1671,374147,D-Universität Mensa,51.191814,6.793608
1672,378852,D-Universität Mensa,51.191776,6.793222
1673,4763,D-Universität Mensa,51.191933,6.794264
1674,226221,D-Universität Mitte,51.187637,6.793015
1675,228564,D-Universität Mitte,51.187805,6.792845
1676,261101,D-Universität Mitte,51.188,6.792674
1677,304041,D-Universität Mitte,51.187637,6.793015
1678,80570,D-Universität Mitte,51.187805,6.792845
1679,99734,D-Universität Mitte,51.188,6.792674
1680,144425,D-Universität Süd,51.18614,6.794911
1681,159563,D-Universität Süd,51.18614,6.794911
1682,27846,D-Universität Süd,51.185837,6.795396
1683,300863,D-Universität Süd,51.18559,6.795764
1684,38528,D-Universität Süd,51.18559,6.795764
1685,394886,D-Universität Süd,51.185837,6.795396
1686,205674,D-Universität Südost,51.182945,6.802277
1687,267944,D-Universität Südost,51.183224,6.802187
1688,322592,D-Universität Südost,51.182945,6.802277
1689,346085,D-Universität Südost,51.183224,6.802187
1690,393643,D-Universität Südost,51.1835,6.801971
1691,429053,D-Universität Südost,51.1835,6.801971
1692,306360,D-Universität West,51.191246,6.788092
1693,34220,D-Universität West,51.191254,6.788434
1694,188230,"D-Unterbach, Friedhof",51.20404,6.896411
1695,235859,"D-Unterbach, Friedhof",51.204052,6.896582
1696,191041,"D-Unterbach, Kirche",51.202785,6.901487
1697,436803,"D-Unterbach, Kirche",51.202934,6.90119
1698,118922,D-Unterrath S,51.277214,6.786853
1699,13980,D-Unterrath S,51.276794,6.787652
1700,197430,D-Unterrath S,51.277107,6.78697
1701,225146,D-Unterrath S,51.27545,6.786988
1702,371066,D-Unterrath S,51.275646,6.786637
1703,396462,D-Unterrath S,51.27682,6.787724
1704,412737,D-Unterrath S,51.275482,6.786943
1705,210100,"D-Unterrath, Friedhof",51.275265,6.784382
1706,242744,"D-Unterrath, Friedhof",51.2749,6.7852
1707,266191,"D-Unterrath, Friedhof",51.2753,6.784373
1708,116785,"D-Unterrath, Kirche",51.27499,6.791632
1709,210451,"D-Unterrath, Kirche",51.2749,6.791542
1710,204216,D-Urdenbacher Allee,51.161983,6.874735
1711,212280,D-Urdenbacher Allee,51.162052,6.87531
1712,21947,D-Urdenbacher Allee,51.162098,6.874861
1713,416427,D-Urdenbacher Allee,51.162052,6.87531
1714,72989,D-Urdenbacher Allee,51.162098,6.874861
1715,78211,D-Urdenbacher Allee,51.162086,6.874888
1716,108263,D-Vautierstraße,51.24303,6.821698
1717,180181,D-Vautierstraße,51.242653,6.822013
1718,245080,D-Vautierstraße,51.24266,6.821824
1719,8984,D-Vautierstraße,51.242786,6.821896
1720,117271,D-Venloer Straße,51.237717,6.77946
1721,142324,D-Venloer Straße,51.23721,6.778921
1722,361196,D-Venloer Straße,51.23689,6.7791
1723,40988,D-Venloer Straße,51.237175,6.778876
1724,83020,D-Venloer Straße,51.237083,6.779576
1725,114483,D-Vennhauser Allee,51.198914,6.846285
1726,140576,D-Vennhauser Allee,51.19922,6.845989
1727,204457,D-Vennhauser Allee,51.19922,6.84589
1728,234348,D-Vennhauser Allee,51.198864,6.846411
1729,258238,D-Vennhauser Allee,51.198963,6.845764
1730,373358,D-Vennhauser Allee,51.198997,6.846052
1731,6944,D-Vennhauser Allee,51.198677,6.846393
1732,9708,D-Vennhauser Allee,51.198715,6.846321
1733,12591,D-Victoriaplatz/Klever Str. U,51.23791,6.776046
1734,285523,D-Victoriaplatz/Klever Str. U,51.23895,6.775103
1735,340720,D-Victoriaplatz/Klever Str. U,51.237877,6.775678
1736,365714,D-Victoriaplatz/Klever Str. U,51.238895,6.775256
1737,331990,D-Viersener Straße,51.237553,6.727348
1738,93953,D-Viersener Straße,51.2376,6.727286
1739,196184,D-Vinckestraße,51.25061,6.814467
1740,203052,D-Vinckestraße,51.250683,6.813578
1741,240893,D-Vogelsanger Weg,51.257923,6.799097
1742,47814,D-Vogelsanger Weg,51.257576,6.799645
1743,15734,D-Vogesenstraße,51.2253,6.698495
1744,161135,D-Vogesenstraße,51.22549,6.69862
1745,215047,D-Vogesenstraße,51.22549,6.69862
1746,227360,D-Vogesenstraße,51.2253,6.698495
1747,390076,D-Vogesenstraße,51.2253,6.698495
1748,406022,D-Vogesenstraße,51.22535,6.69845
1749,409155,D-Vogesenstraße,51.22535,6.698521
1750,416795,D-Vogesenstraße,51.2253,6.698495
1751,435092,D-Vogesenstraße,51.2253,6.698297
1752,59917,D-Vogesenstraße,51.2253,6.698297
1753,243631,D-Volksgarten S,51.208736,6.793087
1754,27028,D-Volksgarten S,51.208652,6.792791
1755,130507,D-Volmarweg,51.185333,6.765455
1756,28339,D-Volmarweg,51.18474,6.764808
1757,219461,D-Volmerswerther Deich,51.184433,6.759167
1758,136474,D-Volmerswerther Str.,51.192738,6.766326
1759,279954,D-Volmerswerther Str.,51.192738,6.766192
1760,17510,D-Von-Gahlen-Straße,51.23771,6.852744
1761,404353,D-Von-Gahlen-Straße,51.23778,6.852645
1762,103451,D-Vor der Hardt,51.239132,6.837715
1763,30321,D-Völklinger Straße S,51.209843,6.762176
1764,367032,D-Völklinger Straße S,51.2096,6.762023
1765,273872,D-Wahlerstr./JVA,51.269897,6.820198
1766,275937,D-Wahlerstr./JVA,51.27029,6.819731
1767,333190,D-Waldfriedhof,51.23216,6.866255
1768,240032,D-Walsroder Weg,51.27002,6.785901
1769,299467,D-Walsroder Weg,51.270596,6.785335
1770,370832,D-Walzwerkstraße,51.17762,6.855412
1771,46670,D-Walzwerkstraße,51.177856,6.855915
1772,7999,D-Walzwerkstraße,51.17762,6.855412
1773,172843,D-Wanheimer Straße,51.28609,6.799169
1774,92876,D-Wanheimer Straße,51.28617,6.798477
1775,158658,D-Wasserwerksweg,51.33105,6.725812
1776,406051,D-Wasserwerksweg,51.331146,6.725507
1777,3436,D-Wehrhahn S,51.22986,6.797687
1778,6318,D-Wehrhahn S,51.229897,6.797965
1779,187611,D-Wehrhahn-Center,51.22693,6.789054
1780,382311,D-Wehrhahn-Center,51.22755,6.789611
1781,96657,D-Weinheimer Straße,51.203194,6.832622
1782,99642,D-Weinheimer Straße,51.203,6.832137
1783,2164,D-Weizenmühlenstraße,51.21218,6.74209
1784,345722,D-Weizenmühlenstraße,51.212128,6.742225
1785,160233,D-Werftstraße,51.229103,6.713119
1786,97440,D-Werftstraße,51.228844,6.712912
1787,102492,D-Werstener Dorfstraße,51.1923,6.814081
1788,13796,D-Werstener Dorfstraße,51.192455,6.814368
1789,18000,D-Werstener Dorfstraße,51.193573,6.814431
1790,181263,D-Werstener Dorfstraße,51.193718,6.814512
1791,20861,D-Werstener Dorfstraße,51.193775,6.813955
1792,259932,D-Werstener Dorfstraße,51.19321,6.813703
1793,437397,D-Werstener Dorfstraße,51.193344,6.814422
1794,50453,D-Werstener Dorfstraße,51.192356,6.813919
1795,404185,D-Werstener Friedhofstraße,51.18423,6.83317
1796,48849,D-Werstener Friedhofstraße,51.184254,6.833215
1797,111251,D-Wesermünder Straße,51.215168,6.738622
1798,132313,D-Wesermünder Straße,51.215088,6.738559
1799,69769,D-Wetterstraße,51.22693,6.804918
1800,80115,D-Wetterstraße,51.226955,6.804406
1801,161815,D-Wiesenstraße,51.231388,6.711116
1802,336248,D-Wiesenstraße,51.231388,6.711116
1803,263386,D-Wilhelm-Raabe-Straße,51.257847,6.813245
1804,407730,D-Wilhelm-Raabe-Straße,51.257732,6.813057
1805,43933,D-Willstätterstraße,51.240498,6.716075
1806,450814,D-Willstätterstraße,51.240532,6.716155
1807,194086,D-Wimpfener Straße,51.16605,6.86047
1808,233519,D-Wimpfener Straße,51.16605,6.86047
1809,51275,D-Wimpfener Straße,51.166424,6.860452
1810,223248,D-Windmühlenstraße,51.233555,6.718248
1811,243814,D-Windmühlenstraße,51.233555,6.718248
1812,125134,D-Wipperfürther Straße,51.1966,6.817593
1813,258300,D-Wipperfürther Straße,51.196594,6.817728
1814,145079,D-Wittenberger Weg,51.15737,6.888425
1815,189730,D-Wittenberger Weg,51.156864,6.887356
1816,350556,D-Wittenberger Weg,51.15737,6.888425
1817,76628,D-Wittenberger Weg,51.156864,6.887356
1818,284911,D-Wittener Straße,51.26635,6.818833
1819,410589,D-Wittener Straße,51.267426,6.819408
1820,356119,D-Wittlaer,51.318134,6.74527
1821,374796,D-Wittlaer,51.31869,6.744848
1822,56621,D-Wittlaer,51.318123,6.745387
1823,236266,D-Wormser Weg,51.20236,6.825849
1824,87187,D-Wormser Weg,51.20256,6.825534
1825,152293,D-Worringer Platz,51.223866,6.795504
1826,164907,D-Worringer Platz,51.223694,6.795252
1827,193817,D-Worringer Platz,51.223915,6.794587
1828,312007,D-Worringer Platz,51.223843,6.795584
1829,357862,D-Worringer Platz,51.22404,6.795728
1830,387163,D-Worringer Platz,51.224026,6.795647
1831,443195,D-Worringer Platz,51.224068,6.795144
1832,393523,D-Wrangelstraße,51.255512,6.809724
1833,45319,D-Wrangelstraße,51.25577,6.810146
1834,210715,D-Wupperstraße,51.212193,6.75817
1835,299973,D-Wupperstraße,51.212147,6.758304
1836,175430,D-Zeisigweg,51.271046,6.75967
1837,201722,D-Zeisigweg,51.271034,6.760856
1838,248099,D-Zeisigweg,51.271072,6.759625
1839,290746,D-Zeisigweg,51.271023,6.760918
1840,98293,D-Ziegelstraße,51.2628,6.777924
1841,99302,D-Ziegelstraße,51.262764,6.7776
1842,428468,D-Zonser Straße,51.198616,6.767449
1843,436094,D-Zonser Straße,51.198627,6.767485
1844,115994,D-Zoo S,51.23624,6.796995
1845,446783,D-Zoo S,51.23592,6.79739
1846,72011,D-Zoo S,51.236347,6.796375
1847,13641,D-Zum Hohen Bröhl,51.301556,6.758637
1848,366000,D-Zum Hohen Bröhl,51.301445,6.758637
1849,29890,D-Zur Hütte,51.273033,6.913147
1850,443815,D-Zur Hütte,51.27323,6.912877
1851,171608,D-Zur Linde,51.329597,6.728408
1852,70862,D-Zur Linde,51.329697,6.728247
1853,183082,D-Zülpicher Straße,51.232773,6.698944
1854,10253,Düsseldorf Hbf,51.221943,6.794057
1855,108270,Düsseldorf Hbf,51.220997,6.791111
1856,213924,Düsseldorf Hbf,51.221107,6.792548
1857,23270,Düsseldorf Hbf,51.222065,6.794102
1858,299823,Düsseldorf Hbf,51.21954,6.794273
1859,306337,Düsseldorf Hbf,51.220722,6.792252
1860,308077,Düsseldorf Hbf,51.219963,6.794319
1861,326293,Düsseldorf Hbf,51.221,6.792961
1862,3658,Düsseldorf Hbf,51.221058,6.792898
1863,406056,Düsseldorf Hbf,51.22088,6.791434
1864,411178,Düsseldorf Hbf,51.219727,6.793958
1865,415012,Düsseldorf Hbf,51.220688,6.792368
1866,417322,Düsseldorf Hbf,51.22113,6.792638
1867,420916,Düsseldorf Hbf,51.220936,6.791237
1868,452161,Düsseldorf Hbf,51.219505,6.793941
1869,8085,Düsseldorf Hbf,51.220253,6.792997
1870,91499,Düsseldorf Hbf,51.21972,6.794336
1871,991,Düsseldorf Hbf,51.22077,6.791668
1872,277231,Düsseldorf central bus station,51.222866,6.79542
1873,153845,Düsseldorf-Flingern,51.226242,6.810284
1874,60591,Düsseldorf-Gerresheim,51.22036,6.863933
1875,339526,"Monheim, Haus Bürgel",51.130444,6.874762
1876,422011,"Monheim, Haus Bürgel",51.130444,6.874762
1877,322449,Ratingen Am Eichförstchen,51.337128,6.808457
