node_id,stop_id,stop_name,stop_lat,stop_lon
0,115361,Abzweig B4,50.93565,11.041542
1,407151,Abzweig Töttelstädt,50.9926,10.891495
2,54866,Abzweig Töttelstädt,50.992603,10.890597
3,208949,Abzweig Wiesenhügel,50.954426,11.070076
4,355118,Abzweig Wiesenhügel,50.954357,11.070333
5,88029,Abzweig Wiesenhügel,50.954464,11.069235
6,235546,Akazienallee,51.017975,10.989169
7,426234,Alach,50.987198,10.931801
8,367431,"Alach, Schule",50.986305,10.932505
9,308550,Alacher Chaussee,50.972397,10.944299
10,350294,Alacher Chaussee,50.9724,10.944697
11,116681,Alperstedter See,51.071598,11.042148
12,431900,Alperstedter See,51.0715,11.042051
13,75229,Alte Försterei,50.934887,11.025468
14,92199,Alte Försterei,50.935024,11.025807
15,183637,Alte Oper,50.971203,11.023
16,272269,Alte Oper,50.971302,11.023055
17,135193,Alter Stadtweg,51.03434,10.970165
18,181303,Am Elsterberg,50.951702,11.000454
19,34251,Am Elsterberg,50.951904,11.000749
20,178997,Am Kirchberg,50.9313,10.984148
21,235622,Am Kirchberg,50.9314,10.984104
22,375137,Am Knotenberg,50.9569,10.966597
23,451606,Am Knotenberg,50.956997,10.966395
24,239400,Am Kreuzchen,50.971565,10.983427
25,263423,Am Kreuzchen,50.971394,10.982292
26,302784,Am Kreuzchen,50.97147,10.981821
27,330685,Am Kreuzchen,50.971382,10.983161
28,213488,Am Rosenberg,50.9738,10.957295
29,364865,Am Rosenberg,50.9737,10.957297
30,200731,Am Roten Hof,50.94299,10.985601
31,215673,Am Roten Hof,50.9433,10.985865
32,404121,Am Schwemmbach,50.959057,11.05128
33,45149,Am Schwemmbach,50.95922,11.050551
34,375703,Am Turnplatz,51.048798,11.042804
35,61822,Am Turnplatz,51.049,11.042999
36,441411,Am Waldkasino,50.9564,11.026598
37,329112,An der Büßleber Grenze,50.981453,11.127736
38,147675,An der Lache,51.00979,11.033091
39,201480,An der Lache,51.009354,11.032957
40,236548,An der Lache,51.009426,11.03317
41,452591,An der Lache,51.010754,11.033712
42,39189,"Anger, Gleis 1",50.976597,11.034933
43,57818,"Anger, Gleis 2",50.97626,11.034485
44,221021,"Anger, Gleis 3",50.97663,11.033865
45,337344,"Anger, Gleis 4",50.976257,11.034143
46,38834,Angerbrunnen,50.974274,11.030098
47,287583,Anklamer Straße,51.01911,10.987876
48,362331,Apoldaer Straße,51.010914,11.011024
49,70760,Apoldaer Straße,51.01079,11.010428
50,303354,Auf den Lösern,50.959003,11.000596
51,31234,Auf den Lösern,50.959114,11.000865
52,21818,Auf der Großen Mühle,50.9774,11.098536
53,423824,August-Borsig-Straße,50.985317,11.125513
54,168596,August-Frölich-Straße,51.01323,11.026678
55,202302,August-Frölich-Straße,51.012627,11.028686
56,224695,August-Frölich-Straße,51.013332,11.025963
57,345860,August-Frölich-Straße,51.012913,11.02724
58,226899,August-Röbling-Straße,51.0286,11.002594
59,3875,August-Röbling-Straße,51.029198,11.002595
60,275322,Augustinerkloster,50.98232,11.031069
61,86929,Augustinerkloster,50.982574,11.03058
62,308752,Azmannsdorf,50.988094,11.106504
63,456862,Azmannsdorf,50.9887,11.106607
64,37754,Azmannsdorfer Weg,50.97542,11.066097
65,68287,Azmannsdorfer Weg,50.975227,11.063595
66,126120,Bahnhof Erfurt Ost,51.017197,11.045606
67,245023,Bahnhof Erfurt Ost,51.0169,11.045299
68,215301,Baumerstraße,50.986286,11.016574
69,268912,Baumerstraße,50.987686,11.015092
70,295690,Baumerstraße,50.986385,11.016416
71,33955,Baumerstraße,50.98752,11.015352
72,193492,Bautzener Weg,50.991467,11.059423
73,412022,Bautzener Weg,50.99122,11.058716
74,16958,Bei den Froschäckern,50.977203,11.125793
75,418728,Bei den Froschäckern,50.97704,11.125697
76,332413,Benaryplatz,50.970703,11.014896
77,214968,Bergfeldstraße,51.053898,11.043155
78,432665,Bergfeldstraße,51.053898,11.043055
79,146452,Bergrat-Voigt-Straße,51.030613,11.037391
80,218202,Bergrat-Voigt-Straße,51.03076,11.037616
81,153848,Bergstraße,50.985058,11.018095
82,273171,Bergstraße,50.98332,11.019798
83,28589,Bergstraße,50.983215,11.019986
84,427034,Bergstraße,50.985184,11.017865
85,145913,Berliner Straße,51.002975,11.005465
86,166781,Berliner Straße,51.00313,11.005961
87,272608,Bernauer Straße,51.025402,11.007494
88,437360,Bernauer Straße,51.025505,11.007806
89,15261,Berufsschulen,50.97312,10.994727
90,440286,Bindersleben,50.971867,10.95543
91,130839,Bischleben,50.937298,10.987404
92,316522,Bischleben,50.937298,10.987404
93,390534,Bischleben,50.937565,10.987
94,7214,Blumenstraße,50.98394,11.009204
95,106731,Blücherstraße,50.956078,11.062827
96,218957,Blücherstraße,50.95628,11.062623
97,410257,Blücherstraße,50.956055,11.063297
98,85119,Blücherstraße,50.956875,11.062555
99,145982,Bodenfeldallee,51.00094,10.990265
100,253000,Bodenfeldallee,51.000717,10.989358
101,354774,Bonhoefferstraße,51.013153,11.022804
102,440913,Bonhoefferstraße,51.013325,11.021774
103,108621,Boyneburgufer,50.985863,11.02819
104,180586,Boyneburgufer,50.98518,11.02819
105,441086,Brühler Garten,50.972847,11.021741
106,76011,Brühler Garten,50.97311,11.021067
107,33161,Brühler Garten/Lutherstraße,50.972942,11.022565
108,29751,Buchheim,51.0,11.0
109,327752,Bukarester Straße,51.01311,10.996642
110,378924,Bukarester Straße,51.011425,10.998131
111,110739,Bundesarbeitsgericht,50.976494,11.010658
112,425143,Bundesarbeitsgericht,50.97636,11.010092
113,298054,Bunsenstraße,51.012764,11.032046
114,438636,Bunsenstraße,51.01264,11.032675
115,370972,Busbahnhof,50.97345,11.038145
116,376983,"Busbahnhof, Steig 1",50.97348,11.038529
117,407553,"Busbahnhof, Steig 2",50.973675,11.038382
118,111533,"Busbahnhof, Steig 4",50.973896,11.037965
119,433205,Butterberg,50.927876,11.002003
120,128020,Büropark AIRFURT,50.972702,10.961249
121,148020,Büropark AIRFURT,50.972214,10.961046
122,264339,Büropark Waltersleben,50.912,11.019505
123,254085,Büßleben,50.96384,11.109702
124,215689,"Büßleben, Denkmal",50.964077,11.109897
125,64965,"Büßleben, Eiche",50.9636,11.105394
126,77241,"Büßleben, Eiche",50.963703,11.105947
127,151023,"Büßleben, Siedlung",50.96748,11.110914
128,237700,"Büßleben, Siedlung",50.967632,11.110797
129,117212,Daberstedt,50.965214,11.051169
130,1596,Deponie,51.042004,11.065202
131,255765,Deponie,51.04215,11.064999
132,217025,Dieselstraße,50.995926,11.040914
133,405739,Dittelstedt,50.96448,11.076494
134,442618,Dittelstedt,50.96463,11.075794
135,245083,Domplatz Nord,50.977608,11.024504
136,30910,Domplatz Nord,50.977688,11.024587
137,63555,Domplatz Nord,50.9781,11.024265
138,376084,Domplatz Süd,50.977142,11.02494
139,77321,Domplatz Süd,50.97679,11.024976
140,226152,Dornheimstraße,50.95507,11.067287
141,390668,Dorstbornstraße,50.93726,10.986153
142,114814,Drosselberg,50.946712,11.078924
143,325904,Drosselberg,50.947086,11.078404
144,109545,Döbrichau,51.0,11.0
145,90616,"EF, Bei den Froschäckern",50.977238,11.125953
146,249359,"EF, Linderbach Einkaufsmarkt",50.97529,11.106671
147,325514,"EF, Windischholzhausen, X-FAB",50.94824,11.089598
148,123462,Egstedt,50.91788,11.051876
149,179302,Egstedt,50.91787,11.05164
150,241698,Egstedt,50.91787,11.05164
151,304037,"Egstedt, Am Wiesengrund",50.91831,11.051128
152,154327,Einkaufszentrum,50.97078,11.056979
153,399562,Einkaufszentrum,50.971497,11.056622
154,160210,Eisenberger Straße,50.97382,11.065075
155,214637,Eislebener Straße,50.9929,11.033513
156,417656,Eislebener Straße,50.992188,11.033357
157,146525,Erfurt Abzweig B4,50.93609,11.04138
158,75638,Erfurt Abzweig B4,50.93609,11.04138
159,40175,Erfurt Alacher Chaussee,50.972633,10.945282
160,190450,Erfurt Am Waldkasino,50.95642,11.02659
161,21445,Erfurt Busbahnhof,50.97357,11.03808
162,450919,Erfurt Busbahnhof,50.97365,11.03851
163,382253,Erfurt Busbahnhof Steig 3,50.97384,11.03825
164,261891,Erfurt B³ropark AIRFURT,50.972195,10.961008
165,134885,Erfurt Ermstedt,50.96761,10.882475
166,457310,Erfurt Europaplatz,51.013508,10.992087
167,340872,Erfurt Flughafen/Airport,50.974957,10.960684
168,196365,Erfurt Hbf (Intercity-Hotel),50.973503,11.039111
169,135327,Erfurt Hubertus,50.94216,11.03655
170,356570,Erfurt Hubertus,50.94216,11.03655
171,92170,Erfurt IKEA,50.958603,10.948533
172,236344,Erfurt K³hnhausen,51.032494,10.969466
173,119294,Erfurt Landtag / Stadion Nord,50.96547,11.03303
174,126716,Erfurt Landtag / Stadion Nord,50.96547,11.03303
175,345509,Erfurt M.-A.-Nexö-Str.,50.95923,11.03251
176,225414,Erfurt Nord,51.003357,11.029277
177,160649,Erfurt Rosengasse,50.970936,11.030989
178,172376,Erfurt Rosengasse,50.970936,11.030989
179,431206,Erfurt Sondershõuser Stra▀e,51.016052,10.987436
180,21052,Erfurt Thomaseck,50.973373,11.034093
181,251954,Erfurt Thomaseck,50.973373,11.034093
182,99308,Erfurt central train station,50.974125,11.040614
183,237223,"Erfurt, August-Röbling-Str.",51.02892,11.002496
184,296092,"Erfurt, August-Röbling-Str.",51.029446,11.002529
185,176961,"Erfurt, Bergrat-Voigt-Str.",51.03104,11.037625
186,356982,"Erfurt, Bergrat-Voigt-Str.",51.031006,11.037515
187,397818,"Erfurt, Bernauer Str.",51.0252,11.008623
188,454397,"Erfurt, Bernauer Str.",51.02502,11.008826
189,263270,"Erfurt, Busbahnhof",50.973503,11.037967
190,60061,"Erfurt, Busbahnhof (H.5)",50.973637,11.03806
191,236767,"Erfurt, Busbahnhof (H.6)",50.97341,11.038148
192,113249,"Erfurt, Finanzamt",51.018177,11.011745
193,387578,"Erfurt, Finanzamt",51.01817,11.011863
194,433517,"Erfurt, Gewerbegebiet Nord",51.02131,11.010189
195,458772,"Erfurt, Gewerbegebiet Nord",51.021233,11.010382
196,351432,"Erfurt, Gewerbegebiet Ost",50.97441,11.05768
197,248872,"Erfurt, Grubenstraße",51.005177,11.032207
198,305261,"Erfurt, Grubenstraße (H.5)",51.005222,11.032833
199,446542,"Erfurt, Henne (Gasthaus)",50.97676,11.075974
200,242912,"Erfurt, Linderbach, B7",50.976826,11.097203
201,108083,"Erfurt, Lutherkirche/SWE",50.98988,11.026604
202,66179,"Erfurt, Lutherkirche/SWE",50.99055,11.026066
203,354898,"Erfurt, Mittelhäuser Tonweg",51.0149,11.014212
204,7532,"Erfurt, Mittelhäuser Tonweg",51.014626,11.014309
205,204723,"Erfurt, Märchenweg",50.939518,11.09998
206,227363,"Erfurt, Rieth",51.00515,11.015945
207,49202,"Erfurt, Rieth",51.005016,11.016149
208,294565,"Erfurt, Teichgasse",50.945564,11.09146
209,149147,"Erfurt, Urbicher Kreuz Steig 3",50.945923,11.091509
210,161860,"Erfurt, Zum Zoopark",51.02146,11.035391
211,2912,"Erfurt, Zum Zoopark",51.020535,11.035337
212,322915,Erfurt-Gispersleben,51.02213,11.000277
213,264453,Erfurter Tor,51.004665,10.885781
214,118494,Erlhofstraße,51.0589,11.046704
215,150906,Erlhofstraße,51.058846,11.047004
216,192275,Ermstedt,50.9673,10.882402
217,447428,Ersatzhst. Lutherkirche/SWE,50.991283,11.025955
218,86342,Ersatzhst. Lutherkirche/SWE,50.988987,11.026815
219,101233,Eugen-Richter-Straße,50.99039,11.041156
220,93750,Eugen-Richter-Straße,50.99024,11.041302
221,110183,Europaplatz,51.01265,10.991835
222,286969,Europaplatz,51.013054,10.991969
223,367595,Europaplatz,51.0132,10.991895
224,7780,Europaplatz,51.013412,10.992118
225,91853,Europaplatz,51.012848,10.991902
226,376059,Ferdinand-Jühlke-Straße,51.034023,10.994879
227,242600,Fichtenweg,51.001213,11.092875
228,56228,Fichtenweg,51.001175,11.092548
229,150674,Finanzamt,51.018105,11.011797
230,170883,Finanzamt,51.0183,11.011793
231,418189,Fischmarkt/Rathaus,50.977715,11.029044
232,433929,Fischmarkt/Rathaus,50.977486,11.029205
233,325093,Flughafen/Airport,50.974953,10.9608
234,420589,Flughafen/Airport,50.974815,10.961287
235,70523,Flughafen/Airport,50.974697,10.962144
236,262729,Forelle,50.9238,10.992205
237,367473,Forelle,50.9239,10.992217
238,410763,Freibad Möbisburg,50.924496,10.987497
239,168512,Frienstedt,50.9555,10.907706
240,213113,Fritz-Büchner-Straße,50.987865,11.035554
241,416323,Fritz-Büchner-Straße,50.98814,11.035306
242,395858,Färberwaidweg,50.951054,11.06667
243,421687,Färberwaidweg,50.950993,11.066743
244,60408,Färberwaidweg,50.9509,11.066673
245,65907,Färberwaidweg,50.950916,11.067541
246,95760,"GVZ Zalando, Nord",50.980415,11.131918
247,415873,"GVZ Zalando, Süd",50.975975,11.130994
248,112285,"GVZ, Post",50.97801,11.119228
249,364544,"GVZ, Post",50.977993,11.119237
250,196949,"GVZ, Zalando Nord",50.98048,11.132439
251,257094,"GVZ, Zalando Nord",50.98032,11.131445
252,191042,"GVZ, Zalando Süd",50.9761,11.130897
253,598,"GVZ, redcoon",50.977753,11.113837
254,155416,Gamstädter Weg,50.97485,11.004799
255,221578,Gamstädter Weg,50.974773,11.00406
256,240434,Gamstädter Weg,50.97493,11.004697
257,398475,Gefahrenschutzzentrum,50.991108,11.001189
258,54431,Gefahrenschutzzentrum,50.99143,10.996425
259,256781,Geraer Straße,50.970356,11.051093
260,441359,Geraer Straße,50.9703,11.050995
261,170445,Geschwister-Scholl-Straße,50.980694,11.042182
262,81334,Geschwister-Scholl-Straße,50.980854,11.04225
263,200197,Gewerbegeb. Stotternheim,51.0394,11.041044
264,212789,Gewerbegebiet Nord,51.021297,11.010204
265,229730,Gewerbegebiet Nord,51.020798,11.0106
266,267635,Gewerbegebiet Ost,50.97445,11.058399
267,412977,Gewerbegebiet Ost,50.9744,11.057802
268,127112,Gewerbegebiet Stotternheim,51.039524,11.041313
269,134495,Gewerbegebiet Stotternheim,51.039616,11.041104
270,420338,Gewerbegebiet Stotternheim,51.0395,11.041299
271,131363,Gispersleben,51.02237,10.993492
272,42911,Gispersleben,51.02292,10.993437
273,402849,"Gispersleben, Schule",51.021053,10.989914
274,19317,Gorkistraße,50.97208,11.018312
275,384793,Gorkistraße,50.97201,11.01773
276,322976,Gothaer Platz,50.97125,11.012293
277,33734,Gothaer Platz,50.970963,11.012669
278,337810,Gottstedt,50.969704,10.910405
279,344573,Gottstedt,50.969597,10.910707
280,23602,Greifswalder Straße,50.985886,11.048441
281,50639,Greifswalder Straße,50.986343,11.0495
282,152981,Große Schenkgasse,50.9739,10.951597
283,168336,Große Schenkgasse,50.973804,10.951699
284,189074,Grubenstraße,51.005238,11.032786
285,217814,Grubenstraße,51.004677,11.031573
286,310799,Grubenstraße,51.005234,11.032544
287,316783,Grubenstraße,51.00494,11.031724
288,357819,Grubenstraße,51.005234,11.032459
289,389163,Grubenstraße,51.005234,11.032644
290,52932,Grubenstraße,51.00523,11.033
291,9140,Grubenstraße,51.005184,11.032189
292,143742,Gutenbergplatz,50.98049,11.014603
293,18385,Haarberg,50.932747,11.129898
294,302569,Haarberg,50.933033,11.129736
295,339570,Hanoier Straße,51.00881,11.005426
296,364644,Hanoier Straße,51.00883,11.005882
297,249105,Hanseplatz/FH,50.98423,11.045143
298,34654,Hanseplatz/FH,50.984524,11.04582
299,172375,Hauptbahnhof,50.97193,11.037436
300,310598,Hauptbahnhof,50.972523,11.037025
301,349112,Hauptbahnhof,50.971764,11.037511
302,352852,Hauptbahnhof,50.97211,11.037261
303,193478,Hauptfriedhof,50.972862,10.993195
304,282741,Hauptfriedhof,50.972897,10.992923
305,297251,Hauptfriedhof,50.972527,10.992504
306,318749,Hauptfriedhof,50.972633,10.992602
307,85846,Hauptfriedhof,50.972687,10.993312
308,155253,"Henne, Gasthaus",50.976513,11.0759
309,317106,"Henne, Gasthaus",50.976704,11.075896
310,179629,"Henne, Siedlung",50.976055,11.071595
311,184697,"Henne, Siedlung",50.976097,11.070127
312,118642,Heyderstraße,50.957996,11.068296
313,251184,Hirschgarten,50.973614,11.029827
314,263050,Hochheim,50.95569,11.000724
315,404588,Hochheim,50.955597,11.000755
316,121075,Hochheimer Straße,50.965973,11.019167
317,215300,Hochstedt,50.985508,11.137629
318,298700,Hochstedt,50.985703,11.137155
319,260591,Hubertus,50.942196,11.036328
320,3098,Hubertus,50.941998,11.036105
321,332313,Hugo-John-Straße,51.00287,11.03795
322,340665,Hugo-John-Straße,51.0037,11.038346
323,341591,Hugo-John-Straße,51.003654,11.038248
324,354763,Hugo-John-Straße,51.0026,11.038027
325,121411,Humboldtstraße,50.96104,11.034444
326,97013,Humboldtstraße,50.96061,11.034538
327,223761,Häßlerstraße,50.965973,11.056108
328,377063,Häßlerstraße,50.965946,11.056165
329,194690,Höffner Möbelhaus,50.90945,11.01537
330,140172,IKEA,50.9587,10.948495
331,365680,Ilmenauer Straße,50.994865,10.979101
332,435926,Ilversgehofener Platz,50.998947,11.026877
333,447243,Ilversgehofener Platz,50.998524,11.026686
334,357032,Im Gebreite,50.963657,10.990732
335,145127,Im Großen Garten,50.98073,11.102331
336,321312,In der Langen Else,50.98194,11.125904
337,122494,Jenaer Straße,50.968952,11.055734
338,239081,Jenaer Straße,50.96863,11.055584
339,337165,Julius-Leber-Ring,51.017506,11.020603
340,55133,Julius-Leber-Ring,51.01815,11.017525
341,106814,Justizzentrum,50.974022,11.012021
342,321421,Justizzentrum,50.97424,11.012016
343,183523,Kaffeetrichter,50.968212,11.032046
344,254762,Kaffeetrichter,50.968452,11.032724
345,216309,Kalkreiße,50.980038,11.060095
346,388448,Kamenzer Straße,51.016075,10.988868
347,36395,Kammweg,50.96158,11.059385
348,437166,Karl-Marx-Platz,50.97238,11.026293
349,245686,Karl-Reimann-Ring,51.0154,11.018453
350,445045,Karl-Reimann-Ring,51.015495,11.018251
351,139905,Katholisches Krankenhaus,50.945145,11.085201
352,299238,Katholisches Krankenhaus,50.94542,11.085936
353,191460,Kerspleben,51.006863,11.100117
354,318200,Kerspleben,51.0069,11.100287
355,211568,"Kerspleben, Schule",51.00317,11.095943
356,445915,"Kerspleben, Schule",51.004158,11.095895
357,214011,Kleine Herrengasse,51.0374,11.076301
358,331675,Klettenweg,50.94925,11.055863
359,276755,Klinikum,50.99488,11.009085
360,437141,Klinikum,50.995075,11.009038
361,153432,Krämpfer Gärten,50.989136,11.054585
362,392836,Krämpfer Gärten,50.989403,11.055249
363,167809,Krämpferflurweg,50.982002,11.056467
364,190847,Krämpferflurweg,50.981953,11.055827
365,167185,Krämpfertor,50.979046,11.038016
366,318833,Krämpfertor,50.978886,11.037776
367,306355,Körnerstraße,50.960728,11.061324
368,131357,Kühnhausen,51.03279,10.968945
369,273284,Kühnhausen,51.03279,10.968945
370,337416,Kühnhausen,51.03303,10.968783
371,81926,Kühnhausen,51.03637,10.978069
372,353154,"Kühnhausen, Friedhof",51.034786,10.974247
373,136045,Landtag/Stadion Nord,50.965496,11.032999
374,179390,Landtag/Stadion Nord,50.963226,11.033687
375,328330,Landtag/Stadion Nord,50.963745,11.033377
376,35636,Landtag/Stadion Nord,50.963722,11.033591
377,404131,Lange Brücke,50.97367,11.027035
378,54543,Langer Graben,50.978104,11.006623
379,306918,Leipziger Platz,50.98083,11.040655
380,373093,Leipziger Platz,50.981438,11.041241
381,360753,Ligusterweg,50.949898,11.058056
382,182506,Linde,50.967197,11.067344
383,4898,Linde,50.96715,11.067601
384,28908,Linderbach,50.979465,11.099564
385,343184,Linderbach,50.97926,11.099597
386,254401,"Linderbach, B7",50.9768,11.097323
387,330711,"Linderbach, B7",50.97634,11.098899
388,208570,"Linderbach, Einkaufsmarkt",50.97498,11.107325
389,392282,"Linderbach, Einkaufsmarkt",50.97528,11.106779
390,108974,Linderbacher Weg,50.97765,11.085204
391,77200,Linderbacher Weg,50.978027,11.086805
392,103312,Logistikzentrum Stotternheim,51.04367,11.042445
393,189771,Logistikzentrum Stotternheim,51.042862,11.042191
394,269734,Logistikzentrum Stotternheim,51.043697,11.042495
395,315632,Logistikzentrum Stotternheim,51.042698,11.042202
396,81183,Luisenstraße,50.99686,10.979186
397,295486,Lutherkirche/SWE,50.990456,11.0262
398,40551,Lutherkirche/SWE,50.989452,11.026648
399,34104,Löberstraße,50.97187,11.028795
400,377480,Löberstraße,50.97145,11.02795
401,57092,Löberwallgraben,50.970543,11.035628
402,153375,Mainzer Straße,51.00275,11.017352
403,445167,Mainzer Straße,51.00225,11.017776
404,110932,Marbach,50.993195,10.985676
405,320894,Marbach,50.993507,10.984188
406,206572,"Marbach, Schlösschen",50.993164,10.984993
407,146561,Marbacher Obstgarten,50.999584,10.972174
408,162272,Marcel-Breuer-Ring,50.994743,11.068174
409,371789,Marcel-Breuer-Ring,50.99469,11.068061
410,373462,Marcel-Breuer-Ring,50.994823,11.067759
411,418654,Marcel-Breuer-Ring,50.99499,11.067727
412,139885,Melchendorf,50.95244,11.074555
413,34782,Melchendorf,50.951485,11.075684
414,224682,Melchendorfer Markt,50.950054,11.076695
415,453573,Melchendorfer Markt,50.94959,11.076675
416,202931,Messe,50.961113,10.989819
417,232564,Messe,50.960926,10.989054
418,124386,Meuselwitzer Straße,50.995625,10.984996
419,163341,Milchinselstraße,50.963764,11.019242
420,308803,Mittelhausen,51.0422,11.002601
421,337944,Mittelhausen,51.04216,11.002652
422,176197,"Mittelhausen, Einkaufsmarkt",51.035984,11.004635
423,389207,"Mittelhausen, Einkaufsmarkt",51.036003,11.004602
424,424372,"Mittelhausen, Einkaufsmarkt",51.03572,11.004587
425,88156,"Mittelhausen, Einkaufsmarkt",51.0356,11.004653
426,114823,"Mittelhausen, Kirche",51.042297,11.006905
427,177408,"Mittelhausen, Kirche",51.042404,11.006704
428,454541,Mittelhäuser Kreuz,51.009796,11.016904
429,91492,Mittelhäuser Kreuz,51.010002,11.0168
430,26881,Mittelhäuser Straße,51.00295,11.022733
431,279278,Mittelhäuser Straße,51.003117,11.023499
432,336233,Mittelhäuser Tonweg,51.01431,11.014678
433,407804,Mittelhäuser Tonweg,51.014698,11.014207
434,112296,Molsdorf,50.90542,10.959334
435,267300,Molsdorf,50.905598,10.95933
436,108145,Molsdorf Schloß,50.90217,10.96172
437,274224,Moskauer Platz,51.00875,11.000697
438,87741,Moskauer Platz,51.008865,11.000466
439,331602,Muldenweg,50.95044,11.060677
440,248971,Märchensiedlung,50.936646,11.102297
441,271145,Märchenweg,50.938896,11.100504
442,72743,Märchenweg,50.9396,11.099893
443,163828,Möbisburg,50.919918,10.989047
444,377086,"Möbisburg, Denkmal",50.920628,10.989998
445,161725,"Möbisburg, Schule",50.924793,10.991814
446,211622,"Möbisburg, Schule",50.924797,10.991885
447,316027,Mühlhäuser Straße,50.9874,11.012107
448,452985,Mühlhäuser Straße,50.987164,11.011742
449,283709,Neusißstraße,50.99992,11.033324
450,402393,Neusißstraße,51.000664,11.032212
451,119979,Nibelungenweg,50.973835,11.000705
452,426740,Nibelungenweg,50.97391,11.001174
453,95849,Nibelungenweg,50.973717,11.000295
454,270654,Niedernissa,50.950497,11.10445
455,438080,Niedernissa,50.95065,11.104347
456,7897,Nordbahnhof,51.00268,11.029378
457,303963,Oberer Stadtweg,50.99159,10.986964
458,161681,Obertor,50.989895,10.925201
459,760,Obertor,50.98995,10.925
460,358894,Orionstraße,50.972675,10.966631
461,421224,Orionstraße,50.9721,10.966402
462,432889,Orionstraße,50.97283,10.965603
463,48276,Orionstraße,50.9719,10.966207
464,74892,Otto-Lilienthal-Schule,51.0045,11.021162
465,193903,P+R-Platz Messe,50.958855,10.984302
466,328392,P+R-Platz Messe,50.958855,10.984302
467,331421,Paul-Schäfer-Straße,50.99821,11.039984
468,430307,Paul-Schäfer-Straße,50.998486,11.040277
469,169873,Puschkinstraße,50.96635,11.024198
470,204547,Puschkinstraße,50.966545,11.025162
471,222703,Rhoda,50.931816,11.014935
472,300341,Rhoda,50.931313,11.012897
473,244191,Rhodaer Chaussee,50.9501,11.019202
474,420787,Rhodaer Chaussee,50.950096,11.019003
475,406188,Rieth,51.00464,11.016343
476,161589,"Rieth, Gleis 1",51.00517,11.016019
477,31156,"Rieth, Gleis 2",51.004665,11.0162
478,216941,"Rieth, Gleis 3",51.00515,11.015848
479,131534,Riethstraße,50.998676,11.006326
480,68286,Riethstraße,50.999115,11.006075
481,232510,Ringelberg,50.986942,11.063886
482,322348,Ringelberg,50.98676,11.063349
483,12936,Robert-Koch-Straße,50.969055,11.040727
484,33439,Robert-Koch-Straße,50.96965,11.040786
485,363855,Rochlitzer Straße,50.992928,10.989043
486,83827,Rochlitzer Straße,50.992596,10.989905
487,57522,Rohda/Haarberg,50.945396,11.125394
488,193435,Rosengasse,50.9703,11.031006
489,73693,Rosengasse,50.97098,11.030935
490,402384,Rosenküche,50.92787,10.997295
491,436296,Rosenküche,50.92783,10.997395
492,302599,Rostocker Straße,50.987846,11.046236
493,81460,Rostocker Straße,50.9873,11.046746
494,212689,Roter Berg,51.01624,11.023038
495,65260,Roter Berg,51.016678,11.023072
496,104219,Roter Stein,50.951534,11.048331
497,168555,Roter Stein,50.95126,11.048465
498,123629,Rudolstädter Straße,50.97348,11.052852
499,323641,Rudolstädter Straße,50.97357,11.051853
500,329500,Ruhrstraße,50.97764,11.043398
501,78904,Ruhrstraße,50.977028,11.043468
502,228035,S-Finanzzentrum,50.9715,11.015762
503,344869,S-Finanzzentrum,50.971184,11.015199
504,336603,Saline,51.005947,11.044954
505,369449,Saline,51.005848,11.044956
506,293000,"Salinenstraße, Gleis 1",51.001064,11.028414
507,289317,"Salinenstraße, Gleis 2",51.00064,11.027996
508,301871,"Salinenstraße, Gleis 3",51.00128,11.027455
509,408969,"Salinenstraße, Gleis 4",51.00086,11.027606
510,453448,Salomonsborn,50.997555,10.948914
511,882,"Salomonsborn, In der Muld",50.997604,10.948457
512,51730,Schaderode,51.008305,10.923095
513,72138,Schloss Molsdorf,50.902252,10.961494
514,456405,Schmira,50.9548,10.973105
515,80944,Schmira,50.9547,10.972794
516,75231,Schwerborn,51.037296,11.078199
517,364256,Schwimmhalle Johannesplatz,50.997322,11.033521
518,38994,Schwimmhalle Johannesplatz,50.99743,11.033447
519,53202,"Sieglitz, Schule",51.0,11.0
520,54678,Singerstraße,50.95655,11.075015
521,427129,Sommerweg,51.00875,11.049199
522,51746,Sommerweg,51.008785,11.048956
523,203320,Sondershäuser Straße,51.015965,10.987474
524,204313,Sondershäuser Straße,51.016106,10.987457
525,268730,Sozialversicherungszentrum,50.957325,11.057336
526,79018,Sozialversicherungszentrum,50.957493,11.056678
527,286901,Spielbergtor,50.972218,11.044848
528,98539,Spielbergtor,50.971493,11.045005
529,177868,Stadion Ost,50.959972,11.04359
530,207511,Stadion Ost,50.960052,11.044243
531,139047,Stadtmuseum/Kaisersaal,50.980103,11.034134
532,76324,Stadtmuseum/Kaisersaal,50.97948,11.034603
533,90657,Stadtrain,50.96321,11.084106
534,92085,Stadtrain,50.96299,11.084395
535,145493,Stedten,50.927105,10.983301
536,42521,Stedten,50.927,10.983403
537,119202,Steigerstraße,50.96437,11.017677
538,291103,Steinplatz,50.98454,11.037617
539,55611,Steinplatz,50.9843,11.037935
540,24156,Stollbergsiedlung,51.008896,11.056107
541,236052,"Stotternheim, Am Teiche",51.060898,11.048203
542,148911,"Stotternheim, Bahnhof",51.05248,11.047267
543,238702,"Stotternheim, Bahnhof",51.052803,11.047699
544,385612,"Stotternheim, Bergfeldstr.",51.05415,11.043038
545,63278,"Stotternheim, Bergfeldstr.",51.053955,11.043164
546,190447,"Stotternheim, Erlhofstr.",51.0589,11.046817
547,251865,"Stotternheim, Erlhofstr.",51.0589,11.047075
548,70502,"Stotternheim, Schule",51.05365,11.037897
549,108748,Strandbad Stotternheim,51.051903,11.048701
550,141762,Strandbad Stotternheim,51.052002,11.048799
551,288951,Straße der Nationen,51.005676,10.999552
552,427868,Straße der Nationen,51.00608,10.998631
553,151282,Straße des Friedens,50.968803,11.014552
554,74886,Straße des Friedens,50.969063,11.016297
555,337101,Stöberhaus,50.9939,11.040486
556,162735,Sulzer See,51.024803,11.055499
557,51820,Sulzer See,51.024647,11.055203
558,91908,Sulzer Siedlung,51.025806,11.036364
559,92351,Sulzer Siedlung,51.026066,11.036245
560,132183,Tannenwäldchen,50.95098,11.043105
561,13410,Tannenwäldchen,50.95104,11.043531
562,446801,Teichgasse,50.945904,11.091547
563,80262,Teichgasse,50.9461,11.0915
564,451216,Theater,50.97456,11.019128
565,87276,Theater,50.97425,11.018651
566,306818,Thielenstraße,50.96468,11.054098
567,129818,Thomaseck,50.973362,11.034103
568,65971,Thomaseck,50.97367,11.034396
569,189561,Thüringen-Park,51.008385,10.994934
570,262652,Thüringen-Park,51.008694,10.99497
571,39638,Thüringen-Park,51.009056,10.994549
572,425071,Thüringen-Park,51.009212,10.995728
573,151838,Thüringenhalle,50.958916,11.034958
574,270736,Thüringenhalle,50.958458,11.035195
575,426808,Thüringenhalle,50.95868,11.034877
576,280269,Thüringer Energie AG,51.0141,11.041694
577,408619,Thüringer Energie AG,51.013496,11.041407
578,11972,Thüringer Zoopark,51.0207,11.026394
579,233540,Thüringer Zoopark,51.020798,11.025294
580,111426,Tiefthal,51.02354,10.950906
581,162089,Tschaikowskistraße,50.964706,11.040902
582,269678,Tschaikowskistraße,50.965275,11.040791
583,37196,Tungerstraße,50.956966,11.071804
584,223819,Töttelstädt,51.007603,10.882802
585,266311,Töttleben,51.01702,11.115953
586,267863,Töttleben,51.017193,11.115936
587,147490,Universität,50.990948,11.011918
588,294742,Universität,50.992138,11.011351
589,448960,Universität,50.992226,11.011093
590,238143,Universitätsbibliothek,50.988773,11.006908
591,96597,Universitätsbibliothek,50.9886,11.007453
592,123683,Urbich,50.95954,11.093203
593,52524,Urbich,50.958214,11.095648
594,259620,"Urbich, Schule",50.96119,11.095505
595,404896,"Urbich, Schule",50.9603,11.094796
596,148897,"Urbicher Kreuz, Steig 1",50.949886,11.093063
597,451274,"Urbicher Kreuz, Steig 1",50.949886,11.093063
598,151644,"Urbicher Kreuz, Steig 2",50.950443,11.092796
599,189427,"Urbicher Kreuz, Steig 2",50.950443,11.092796
600,276625,"Urbicher Kreuz, Steig 4",50.950386,11.093653
601,119329,Vieselbach,50.99937,11.146276
602,394291,Vieselbach,50.99943,11.146217
603,131026,"Vieselbach, Bahnhof",50.992744,11.137979
604,353341,"Vieselbach, Bahnhof",50.99272,11.138464
605,260046,"Vieselbach, Brückenstraße",50.996395,11.144094
606,415202,"Vieselbach, Brückenstraße",50.996296,11.144067
607,289818,"Vieselbach, Gewerbestraße",51.002502,11.144452
608,455405,"Vieselbach, Gewerbestraße",51.00352,11.144832
609,45815,"Vieselbach, Gewerbestraße",51.002502,11.144452
610,18216,"Vieselbach, Rathausstraße",50.999584,11.143964
611,292097,"Vieselbach, Rathausstraße",50.99965,11.144034
612,378478,"Vieselbach, Rathausstraße",50.999584,11.143964
613,216048,Vilniuser Straße,51.005276,11.011614
614,75795,Vilniuser Straße,51.00537,11.012324
615,241047,Volkenroder Weg,50.97214,10.972139
616,313188,Volkenroder Weg,50.97225,10.971396
617,385811,Volkenroder Weg,50.9723,10.971993
618,470,Volkenroder Weg,50.972195,10.972195
619,263253,Vor den Salzwiesen,51.056297,11.033207
620,355970,Vor den Salzwiesen,51.055153,11.034001
621,128115,Wagenfeldstraße,50.988922,11.070555
622,307798,Wagenfeldstraße,50.98878,11.069959
623,122627,Waldhaus,50.936596,11.0126
624,236087,Waldhaus,50.936707,11.012655
625,5992,Wallichen,51.011272,11.147539
626,458258,Waltersleben,50.91292,11.023652
627,358599,"Waltersleben, Wassergraben",50.91505,11.025498
628,150832,Warschauer Straße,51.003044,11.003028
629,317087,Warschauer Straße,51.00258,11.003379
630,217753,Wartburgstraße,50.96255,11.00778
631,230878,Wartburgstraße,50.96259,11.007893
632,176321,"Wartburgstraße, Schule",50.956345,10.994434
633,35063,"Wartburgstraße, Schule",50.956184,10.993598
634,318451,Wasserweg,50.947193,10.990618
635,378021,Wasserweg,50.947216,10.991073
636,213984,Webergasse/Andreaskirche,50.980354,11.022281
637,21632,Webergasse/Andreaskirche,50.980186,11.022427
638,275480,Webergasse/Andreaskirche,50.98116,11.021681
639,8342,Webergasse/Andreaskirche,50.981045,11.021754
640,167785,Wendenstraße,50.994247,11.025622
641,97098,Wendenstraße,50.994778,11.025739
642,42345,Werner-Kühne-Straße,50.93565,10.987127
643,89937,Werner-Kühne-Straße,50.93565,10.987127
644,202980,Wiesenhügel,50.950157,11.062561
645,20541,Wiesenhügel,50.95045,11.062883
646,39342,Wiesenhügel,50.950386,11.06186
647,71387,Wiesenhügel,50.95045,11.062883
648,26715,Wilhelm-Busch-Straße,50.969765,11.047062
649,60582,Wilhelm-Busch-Straße,50.969784,11.046891
650,202782,Windischholzhausen/X-FAB,50.948227,11.089822
651,243544,Windischholzhausen/X-FAB,50.94832,11.08918
652,348785,Windischholzhausen/X-FAB,50.9484,11.089947
653,448071,Windischholzhausen/X-FAB,50.94825,11.089409
654,390612,Wohngebiet Zeckensee,50.949223,11.108345
655,77825,Wohngebiet Zeckensee,50.949287,11.108443
656,231864,Wohnpark Frienstedt,50.951702,10.906998
657,246694,Wohnpark Frienstedt,50.951946,10.907106
658,235431,Zoopark,51.019863,11.023447
659,311245,Zoopark,51.02015,11.023327
660,347819,Zoopark,51.019936,11.023246
661,61029,Zoopark,51.020187,11.024266
662,178578,Zum Kleinen Dorfplan,51.009617,11.104424
663,54270,Zum Kleinen Dorfplan,51.009598,11.104282
664,132132,Zum Pferderieth,50.967854,10.886802
665,335217,Zum Pferderieth,50.96785,10.886304
666,285013,Zum Weiher,50.998966,10.984795
667,357432,Zum Weiher,50.998795,10.984286
668,130691,Zum Zoopark,51.021004,11.034996
669,36274,Zum Zoopark,51.0213,11.035346
670,395941,egapark,50.964775,10.997668
671,91029,egapark,50.96515,10.998116
672,172398,mdr/Kinderkanal,50.962963,10.994875
673,219318,mdr/Kinderkanal,50.962715,10.994268
674,330261,Über den Krautländern,50.9605,11.091433
