node_id,stop_id,stop_name,stop_lat,stop_lon
0,155008,E-Marienbergstr. Schl,51.396526,7.095343
1,360096,E-Marienbergstr. Schl,51.396526,7.095343
2,37944,E-Stadion Mathias Stinnes,51.518196,6.997472
3,450769,E-Stadion Mathias Stinnes,51.518192,6.99749
4,225927,Essen Aalto-Theater,51.447033,7.013462
5,320783,Essen Aalto-Theater,51.447704,7.013094
6,84457,Essen Aalto-Theater,51.447056,7.013498
7,96821,Essen Aalto-Theater,51.447525,7.013309
8,241883,Essen Abzw Katernberg Schleife,51.491024,7.050868
9,390735,Essen Abzw Katernberg Schleife,51.490963,7.050922
10,120824,Essen Abzweig Aktienstr.,51.462635,6.934015
11,123530,Essen Abzweig Aktienstr.,51.462723,6.932928
12,130696,Essen Abzweig Aktienstr.,51.46249,6.93335
13,297529,Essen Abzweig Aktienstr.,51.462635,6.934015
14,301071,Essen Abzweig Aktienstr.,51.46249,6.93335
15,320112,Essen Abzweig Aktienstr.,51.462624,6.933108
16,345253,Essen Abzweig Aktienstr.,51.462723,6.932928
17,359812,Essen Abzweig Aktienstr.,51.462624,6.933108
18,338107,Essen Abzweig Dahlhausen,51.437435,7.110462
19,420026,Essen Abzweig Flughafen,51.399414,6.953975
20,45767,Essen Abzweig Flughafen,51.399696,6.95455
21,114142,Essen Abzweig Katernberg,51.48995,7.050293
22,261912,Essen Abzweig Katernberg,51.490856,7.050481
23,295897,Essen Abzweig Katernberg,51.489704,7.050185
24,310825,Essen Abzweig Katernberg,51.489487,7.049942
25,338365,Essen Abzweig Katernberg,51.490776,7.050697
26,367750,Essen Abzweig Katernberg,51.489323,7.050041
27,128209,Essen Achthausen,51.46096,7.048011
28,334099,Essen Achthausen,51.46128,7.047858
29,21356,Essen Ackerstr.,51.47926,6.938111
30,217151,Essen Ackerstr.,51.479378,6.93812
31,23194,Essen Ackerstr.,51.479378,6.93812
32,298292,Essen Ackerstr.,51.479378,6.93812
33,32242,Essen Ackerstr.,51.47926,6.938111
34,379109,Essen Ackerstr.,51.479378,6.93812
35,319117,Essen Ahestr.,51.44768,7.077027
36,177530,Essen Ahrfeldstr.,51.438126,7.041507
37,53439,Essen Ahrfeldstr.,51.43778,7.04192
38,412579,Essen Akademiestr.,51.367245,6.938785
39,451012,Essen Akademiestr.,51.367245,6.938785
40,197100,Essen Albert-Schweitzer-Str.,51.44645,7.10942
41,86489,Essen Albert-Schweitzer-Str.,51.446423,7.109429
42,171134,Essen Aldenhofweg,51.49321,7.058827
43,188672,Essen Aldenhofweg,51.49321,7.058836
44,144948,Essen Alfred-Krupp-Schule,51.449844,6.984383
45,205244,Essen Alfred-Krupp-Schule,51.44964,6.983781
46,226262,Essen Alfred-Krupp-Schule,51.449657,6.984258
47,258701,Essen Alfred-Krupp-Schule,51.44992,6.984267
48,377467,Essen Alfred-Krupp-Schule,51.44963,6.983853
49,57042,Essen Alfred-Krupp-Schule,51.44963,6.984231
50,398539,Essen Alfredbrücke,51.43119,7.001245
51,7094,Essen Alfredbrücke,51.43066,7.001299
52,217120,Essen Alfredusbad,51.42125,7.000832
53,26700,Essen Alfredusbad,51.421234,7.000787
54,338956,Essen Alfredusbad,51.421238,7.000805
55,346276,Essen Alfredusbad,51.421238,7.000805
56,416289,Essen Alfredusbad,51.42125,7.000841
57,47322,Essen Alfredusbad,51.42125,7.000841
58,103040,Essen Alte Landstr.,51.528175,7.010165
59,199492,Essen Alte Landstr.,51.52826,7.009967
60,325207,Essen Alte Landstr.,51.528416,7.010237
61,418914,Essen Alte Landstr.,51.528355,7.01012
62,106519,Essen Altenberg,51.477592,6.969094
63,204879,Essen Altenberg,51.477722,6.969319
64,289006,Essen Altenberg,51.477592,6.969103
65,389494,Essen Altenberg,51.477722,6.969319
66,113414,Essen Altenessen Bf,51.48412,7.008997
67,144226,Essen Altenessen Bf,51.484245,7.007362
68,196597,Essen Altenessen Bf,51.485077,7.007605
69,211323,Essen Altenessen Bf,51.48505,7.007596
70,248429,Essen Altenessen Bf,51.48334,7.009177
71,317285,Essen Altenessen Bf,51.483585,7.008818
72,333895,Essen Altenessen Bf,51.484116,7.009177
73,360433,Essen Altenessen Bf,51.483135,7.008934
74,378519,Essen Altenessen Bf,51.48307,7.008979
75,438891,Essen Altenessen Bf,51.48334,7.008952
76,80031,Essen Altenessen Bf,51.483532,7.008844
77,220907,Essen Altenessen Mitte,51.495934,7.008584
78,334349,Essen Altenessen Mitte,51.494938,7.007928
79,438456,Essen Altenessen Mitte,51.49592,7.008252
80,453106,Essen Altenessen Mitte,51.494915,7.00791
81,194893,Essen Altersheim,51.378983,7.091813
82,85155,Essen Altersheim,51.378986,7.091822
83,163401,Essen Am Freistein,51.46609,7.01834
84,240689,Essen Am Freistein,51.46569,7.018034
85,367860,Essen Am Freistein,51.46598,7.018483
86,394362,Essen Am Freistein,51.465916,7.018259
87,134904,Essen Am Hang,51.413834,7.118888
88,96333,Essen Am Hang,51.413788,7.118834
89,168009,Essen Am Kreyenkrop,51.470795,6.920639
90,172094,Essen Am Kreyenkrop,51.470737,6.920684
91,286094,Essen Am Kreyenkrop,51.470654,6.920881
92,295569,Essen Am Kreyenkrop,51.470715,6.920747
93,330208,Essen Am Kreyenkrop,51.470737,6.920684
94,385859,Essen Am Kreyenkrop,51.470657,6.92089
95,70450,Essen Am Kreyenkrop,51.47075,6.920702
96,332009,Essen Am Riehlpark,51.449738,6.97823
97,383072,Essen Am Riehlpark,51.44971,6.978401
98,44154,Essen Am Riehlpark,51.44971,6.978374
99,79120,Essen Am Riehlpark,51.449764,6.978203
100,180704,Essen Am Ruhrwehr,51.43857,7.059914
101,55476,Essen Am Ruhrwehr,51.43851,7.059905
102,145365,Essen Am Schwarzen,51.38557,7.025859
103,19262,Essen Am Schwarzen,51.38557,7.025859
104,259184,Essen Am Schwarzen,51.38568,7.025886
105,279758,Essen Am Schwarzen,51.38568,7.025886
106,300155,Essen Am Schwarzen,51.385563,7.026182
107,320605,Essen Am Schwarzen,51.38568,7.025886
108,76504,Essen Am Schwarzen,51.386154,7.026155
109,80096,Essen Am Schwarzen,51.38557,7.025859
110,84904,Essen Am Schwarzen,51.385563,7.026155
111,125707,Essen Am Strang,51.353886,6.931535
112,228780,Essen Am Strang,51.354298,6.931544
113,435588,Essen Am Treppchen,51.403496,6.961737
114,77282,Essen Am Treppchen,51.403645,6.961917
115,28541,Essen Am Turm,51.379757,7.005494
116,414698,Essen Am Turm,51.379757,7.005485
117,183738,Essen Am U-Bogen,51.497936,7.037618
118,28315,Essen Am U-Bogen,51.49793,7.037627
119,18235,Essen Am Waldthausenpark,51.45356,7.006994
120,288834,Essen Am Waldthausenpark,51.45381,7.007102
121,272782,Essen An Don Bosco,51.47576,6.963938
122,395490,Essen An Don Bosco,51.47577,6.962923
123,57461,Essen An Don Bosco,51.475773,6.96401
124,75408,Essen An Don Bosco,51.47578,6.962914
125,277962,Essen An der Braut,51.378086,7.009869
126,405363,Essen An der Braut,51.378277,7.009042
127,331831,Essen An der Stadtmauer,51.3863,7.005539
128,452174,Essen An der Stadtmauer,51.386326,7.005485
129,227559,Essen Annenfähre,51.418625,7.062222
130,407585,Essen Annenfähre,51.418953,7.06171
131,158318,Essen Annental,51.4286,7.054811
132,335579,Essen Annental,51.42879,7.055611
133,342399,Essen Annental,51.429535,7.056006
134,53926,Essen Annental,51.428528,7.05491
135,239492,Essen Antoniusstr.,51.45505,6.934177
136,56544,Essen Antoniusstr.,51.4548,6.934491
137,102966,Essen Arenbergstr.,51.517918,7.007093
138,26712,Essen Arenbergstr.,51.518013,7.007165
139,337894,Essen Arenbergstr.,51.517902,7.007308
140,423539,Essen Arenbergstr.,51.517952,7.007263
141,457171,Essen Arenbergstr.,51.517902,7.007308
142,5363,Essen Arenbergstr.,51.517918,7.007093
143,262422,Essen Arendahls Wiese,51.47815,7.027323
144,70678,Essen Arendahls Wiese,51.47815,7.027323
145,195290,Essen Armstr.,51.47964,6.949187
146,210261,Essen Armstr.,51.479683,6.94916
147,338206,Essen Armstr.,51.47969,6.949151
148,443975,Essen Armstr.,51.479633,6.949169
149,186083,Essen Asbachtal,51.38415,7.084779
150,58921,Essen Asbachtal,51.38403,7.084833
151,157419,Essen Asey,51.41023,6.972238
152,9127,Essen Asey,51.410263,6.972615
153,115135,Essen Auf'm Kahr,51.39072,7.017549
154,187910,Essen Auf'm Kahr,51.390675,7.018016
155,313174,Essen Augenerstr.,51.449238,7.087932
156,455944,Essen Augenerstr.,51.449177,7.087941
157,270725,Essen Augustinum,51.421616,7.049457
158,410840,Essen Augustinum,51.421616,7.049412
159,290704,Essen Backwinkelstr.,51.483974,7.029308
160,4145,Essen Backwinkelstr.,51.48402,7.029137
161,222941,Essen Bahrenberg,51.40591,7.062815
162,351653,Essen Bahrenberg,51.406162,7.062663
163,171644,Essen Bamlerstr.,51.474365,7.001011
164,19711,Essen Bamlerstr.,51.47421,7.000409
165,300816,Essen Bamlerstr.,51.47427,7.000212
166,341037,Essen Bamlerstr.,51.474213,7.000616
167,118105,Essen Behaimring,51.45529,7.085722
168,70135,Essen Behaimring,51.45528,7.085704
169,181642,Essen Beisemannhang,51.393658,7.095038
170,205152,Essen Beisemannhang,51.393658,7.094849
171,423372,Essen Beisenstr.,51.495197,7.065286
172,430974,Essen Beisenstr.,51.495296,7.065133
173,245027,Essen Bergeborbeck Bf,51.478844,6.976793
174,368826,Essen Bergeborbeck Bf,51.47877,6.976873
175,403793,Essen Bergeborbeck Bf,51.478577,6.977017
176,451383,Essen Bergeborbeck Bf,51.478493,6.97708
177,143362,Essen Bergheimer Steig,51.48162,6.930961
178,148965,Essen Bergheimer Steig,51.481655,6.931059
179,306687,Essen Bergheimer Steig,51.481552,6.930943
180,350034,Essen Bergheimer Steig,51.481552,6.930943
181,355165,Essen Bergheimer Steig,51.481552,6.930943
182,356631,Essen Bergheimer Steig,51.481552,6.930943
183,149706,Essen Bergmühle,51.472763,6.97735
184,184170,Essen Bergmühle,51.472775,6.977394
185,423390,Essen Bergmühle,51.472775,6.977394
186,91278,Essen Bergmühle,51.47273,6.977368
187,108401,Essen Berliner Platz,51.458817,7.004533
188,128606,Essen Berliner Platz,51.45974,7.004595
189,236579,Essen Berliner Platz,51.460213,7.004595
190,328832,Essen Berliner Platz,51.46019,7.004452
191,359162,Essen Berliner Platz,51.45919,7.003922
192,421187,Essen Berliner Platz,51.45878,7.004281
193,442158,Essen Berliner Platz,51.460213,7.004595
194,447021,Essen Berliner Platz,51.459286,7.003571
195,49081,Essen Berliner Platz,51.46019,7.004452
196,53478,Essen Berliner Platz,51.46019,7.004452
197,62848,Essen Berliner Platz,51.459293,7.004092
198,93531,Essen Berliner Platz,51.460213,7.004595
199,238028,Essen Berliner Str.,51.445705,6.973774
200,308053,Essen Berliner Str.,51.445724,6.973801
201,31584,Essen Berliner Str.,51.445568,6.974223
202,57005,Essen Berliner Str.,51.44531,6.973604
203,207978,Essen Betr. Ruhrallee,51.4312,7.054686
204,27783,Essen Betr. Ruhrallee,51.4312,7.054686
205,281266,Essen Betriebshof Stadtmitte,51.459976,7.021187
206,453233,Essen Betriebshof Stadtmitte,51.459427,7.02161
207,393484,Essen Bischoffstr.,51.506207,7.016013
208,427134,Essen Bischoffstr.,51.50638,7.016184
209,85504,Essen Bischoffstr.,51.50618,7.016157
210,146865,Essen Bismarckplatz,51.448456,7.005197
211,191625,Essen Bismarckplatz,51.448433,7.005305
212,236474,Essen Bismarckplatz,51.44835,7.005413
213,237195,Essen Bismarckplatz,51.447933,7.004128
214,426915,Essen Bismarckplatz,51.448986,7.006868
215,100976,Essen Bocholder Str.,51.476814,6.978508
216,120412,Essen Bocholder Str.,51.47691,6.978463
217,268879,Essen Bocholder Str.,51.476456,6.978724
218,273858,Essen Bocholder Str.,51.47644,6.978913
219,46922,Essen Bocholder Str.,51.47608,6.978544
220,84626,Essen Bocholder Str.,51.4762,6.978553
221,284322,Essen Bockmühle,51.46138,6.964315
222,343898,Essen Bockmühle,51.461525,6.964531
223,381806,Essen Bockmühle,51.461514,6.964549
224,408148,Essen Bockmühle,51.461487,6.965141
225,415238,Essen Bockmühle,51.46145,6.964108
226,428750,Essen Bockmühle,51.461487,6.965132
227,157012,Essen Bolsterbaum,51.502823,7.04343
228,97940,Essen Bolsterbaum,51.50284,7.043466
229,29551,Essen Bonifaciusstr.,51.474525,7.058198
230,347574,Essen Bonifaciusstr.,51.474564,7.058108
231,351111,Essen Bonifaciusstr.,51.47493,7.058018
232,373698,Essen Bonifaciusstr.,51.47499,7.058108
233,121436,Essen Bonnemannstr.,51.455425,6.9224
234,133046,Essen Bonnemannstr.,51.45524,6.922382
235,170171,Essen Bonnemannstr.,51.4552,6.922004
236,19195,Essen Bonnemannstr.,51.455315,6.922328
237,274391,Essen Bonscheidter Str.,51.39707,7.062582
238,217007,Essen Borbeck Bf,51.47245,6.948702
239,314215,Essen Borbeck Bf,51.47207,6.949071
240,317100,Essen Borbeck Bf,51.472,6.949726
241,388358,Essen Borbeck Bf,51.472248,6.948891
242,417029,Essen Borbeck Bf,51.47245,6.948702
243,432986,Essen Borbeck Bf,51.471672,6.949466
244,84277,Essen Borbeck Bf,51.47183,6.949277
245,1041,Essen Borbeck Süd Bf,51.46296,6.954739
246,27515,Essen Borbeck Süd Bf,51.46297,6.954721
247,295344,Essen Borbeck Süd Bf,51.463005,6.954245
248,435571,Essen Borbeck Süd Bf,51.46301,6.954209
249,173627,Essen Borkumstr.,51.424355,6.975885
250,261125,Essen Borkumstr.,51.424377,6.975849
251,446363,Essen Borkumstr.,51.424377,6.975849
252,71900,Essen Borkumstr.,51.424355,6.975885
253,135306,Essen Boyer Str.,51.523838,7.007829
254,259098,Essen Boyer Str.,51.524338,7.008449
255,317425,Essen Boyer Str.,51.52434,7.008377
256,39980,Essen Boyer Str.,51.524254,7.008494
257,44307,Essen Boyer Str.,51.524242,7.00827
258,64528,Essen Boyer Str.,51.5238,7.00747
259,188470,Essen Brauksiepe,51.41486,7.107668
260,84043,Essen Brauksiepe,51.414864,7.107677
261,103561,Essen Bredeney,51.40963,6.994049
262,157744,Essen Bredeney,51.40996,6.993088
263,173912,Essen Bredeney,51.410454,6.992666
264,18324,Essen Bredeney,51.410015,6.992738
265,2239,Essen Bredeney,51.40996,6.993016
266,306951,Essen Bredeney,51.40963,6.994049
267,336139,Essen Bredeney,51.409855,6.994103
268,347216,Essen Bredeney,51.409855,6.994103
269,41996,Essen Bredeney,51.410442,6.993879
270,449669,Essen Bredeney,51.410347,6.993537
271,8947,Essen Bredeney,51.410313,6.993546
272,233530,Essen Bredeney Friedhof,51.412476,6.980251
273,372984,Essen Bredeney Friedhof,51.412476,6.980251
274,374470,Essen Bredeney Friedhof,51.412556,6.979775
275,44467,Essen Bredeney Friedhof,51.412556,6.979775
276,250592,Essen Bredeneyer Kreuz,51.413025,6.992324
277,384116,Essen Bredeneyer Kreuz,51.413025,6.992324
278,54191,Essen Bredeneyer Kreuz,51.41313,6.992405
279,84632,Essen Bredeneyer Kreuz,51.41313,6.992405
280,261459,Essen Brederbachstr.,51.368214,6.940537
281,27414,Essen Brederbachstr.,51.368996,6.940096
282,285783,Essen Brederbachstr.,51.368843,6.940007
283,431375,Essen Brederbachstr.,51.368214,6.940537
284,93557,Essen Brederbachstr.,51.368996,6.940096
285,154538,Essen Breloher Steig,51.437016,7.104587
286,253227,Essen Breloher Steig,51.437023,7.104596
287,124726,Essen Breslauer Str.,51.443634,6.978167
288,318043,Essen Breslauer Str.,51.443775,6.97885
289,32074,Essen Breslauer Str.,51.44358,6.978284
290,455135,Essen Breslauer Str.,51.443825,6.978823
291,268128,Essen Breukelmannhof,51.474197,6.900463
292,284182,Essen Breukelmannhof,51.474197,6.900463
293,59036,Essen Breukelmannhof,51.474197,6.900463
294,62292,Essen Breukelmannhof,51.474197,6.900463
295,136913,Essen Bruchstr.,51.495083,7.027997
296,406171,Essen Bruchstr.,51.495174,7.028006
297,226435,Essen Brüninghofer Weg,51.465885,7.096278
298,396181,Essen Brüninghofer Weg,51.465935,7.096448
299,367464,Essen Bulkersteig,51.41348,7.077925
300,391896,Essen Bulkersteig,51.413296,7.07815
301,261717,Essen Burgaltendorf Burgr.,51.416588,7.123128
302,414488,Essen Burgaltendorf Burgr.,51.41668,7.122975
303,49264,Essen Burgaltendorf Burgr.,51.41661,7.123829
304,295848,Essen Burgaltendorf Kirche,51.415237,7.113606
305,393754,Essen Burgaltendorf Kirche,51.415314,7.114127
306,101956,Essen Burggrafenstr.,51.45921,7.033279
307,437015,Essen Burggrafenstr.,51.45917,7.032362
308,96498,Essen Burggrafenstr.,51.45897,7.032731
309,173223,Essen Byfang,51.40573,7.098784
310,385161,Essen Byfang,51.40573,7.098784
311,39408,Essen Byfang,51.405754,7.098739
312,70393,Essen Byfang,51.405754,7.098739
313,326924,Essen Bäuminghausstr.,51.4794,7.004191
314,83352,Essen Bäuminghausstr.,51.479298,7.004254
315,53528,Essen Bürgerhaus Oststadt,51.44359,7.10103
316,68006,Essen Bürgerhaus Oststadt,51.44361,7.100886
317,144967,Essen Bürgerm. Fiedler Pl.,51.362816,6.939252
318,258770,Essen Bürgerm. Fiedler Pl.,51.362816,6.939252
319,284690,Essen Carl-Funke-Str.,51.399666,7.058054
320,226347,Essen Carl-Wolf-Str.,51.434265,7.114765
321,242403,Essen Carl-Wolf-Str.,51.433846,7.113867
322,303522,Essen Carnaperhof,51.522514,6.998137
323,312796,Essen Carnaperhof,51.522472,6.99802
324,234989,Essen Cathostr.,51.485306,6.971537
325,373033,Essen Cathostr.,51.485184,6.971493
326,166704,Essen Corneliusstr.,51.365643,6.937482
327,394232,Essen Corneliusstr.,51.365643,6.937482
328,240907,Essen Cäcilienstr.,51.439514,7.01304
329,284515,Essen Cäcilienstr.,51.439507,7.012842
330,357289,Essen Cäcilienstr.,51.43979,7.013264
331,375295,Essen Cäcilienstr.,51.439514,7.013049
332,213170,Essen Dachsfeld,51.48352,6.932335
333,268540,Essen Dachsfeld,51.483696,6.932281
334,346411,Essen Dammannstr.,51.446095,7.027278
335,385088,Essen Dammannstr.,51.44611,7.02797
336,424693,Essen Daniel-Eckhardt-Str.,51.50001,6.984752
337,168101,Essen Deilbachbrücke,51.38609,7.085677
338,46209,Essen Deilbachbrücke,51.385883,7.085677
339,187967,Essen Deimelsberg,51.443024,7.06843
340,319993,Essen Deimelsberg,51.442997,7.068295
341,280918,Essen Deipenbecktal,51.405827,7.083162
342,371924,Essen Deipenbecktal,51.405815,7.083261
343,46945,Essen Deipenbecktal,51.406666,7.082893
344,88763,Essen Deipenbecktal,51.405983,7.083054
345,105943,Essen Dellmannsfeld,51.42069,7.091031
346,401497,Essen Dellmannsfeld,51.420696,7.09104
347,120345,Essen Dellwig Bf,51.487667,6.924538
348,349419,Essen Dellwig Bf,51.4878,6.925643
349,420329,Essen Dellwig Bf,51.487663,6.924529
350,51584,Essen Dellwig Bf,51.4877,6.924825
351,210288,Essen Dilldorfer Höhe,51.382854,7.075329
352,206766,Essen Dinnendahlstr.,51.445747,7.052601
353,349696,Essen Dinnendahlstr.,51.44573,7.053284
354,383585,Essen Dinnendahlstr.,51.445763,7.052548
355,387159,Essen Dinnendahlstr.,51.445724,7.053221
356,392325,Essen Dischstr.,51.452656,7.073694
357,99863,Essen Dischstr.,51.452766,7.073326
358,276198,Essen Dixbäume,51.387806,7.084159
359,63738,Essen Dixbäume,51.387917,7.084069
360,118100,Essen Donnerstr.,51.481297,6.947921
361,133305,Essen Donnerstr.,51.482376,6.94784
362,167327,Essen Donnerstr.,51.482307,6.947606
363,211339,Essen Donnerstr.,51.48192,6.948666
364,230895,Essen Donnerstr.,51.481224,6.947876
365,361102,Essen Donnerstr.,51.48233,6.948541
366,193625,Essen Dreiringplatz,51.446136,7.079901
367,368150,Essen Drosselanger,51.414806,7.02682
368,54673,Essen Drosselanger,51.41503,7.026685
369,338743,Essen Drostenhof,51.48342,7.053868
370,402350,Essen Drostenhof,51.48336,7.053967
371,245708,Essen Döllken,51.38257,6.987878
372,281958,Essen Döllken,51.382484,6.987492
373,327802,Essen Dümptener Str.,51.473648,6.907524
374,336204,Essen Dümptener Str.,51.473648,6.907524
375,375893,Essen Dümptener Str.,51.47366,6.907497
376,420954,Essen Dümptener Str.,51.47366,6.907497
377,128731,Essen Düppenberg,51.476444,6.942279
378,342400,Essen Düppenberg,51.476116,6.942118
379,41924,Essen Düppenberg,51.476444,6.942279
380,420121,Essen Düppenberg,51.476116,6.942118
381,26117,Essen Düschenhofer Wald,51.39392,7.107003
382,433069,Essen Düschenhofer Wald,51.393867,7.106806
383,62445,Essen Eiberg Kirche,51.444263,7.116723
384,287963,Essen Eiberg S,51.44217,7.111971
385,65522,Essen Eiberg S,51.44217,7.112169
386,314020,Essen Eickenscheidt,51.457474,7.066013
387,48316,Essen Eickenscheidt,51.457428,7.066049
388,117663,Essen Eisenhammer,51.3841,7.101443
389,421001,Essen Eisenwerk,51.439926,7.093097
390,453188,Essen Eisenwerk,51.439922,7.093106
391,333059,Essen Eiserne Hand,51.459915,7.029838
392,63635,Essen Eiserne Hand,51.45995,7.02991
393,290436,Essen Elisabeth-Krankenhaus,51.444187,7.031509
394,330461,Essen Elisabeth-Krankenhaus,51.444275,7.031787
395,69752,Essen Elisabeth-Krankenhaus,51.44339,7.032353
396,154600,Essen Elisenstr.,51.461582,7.034213
397,205832,Essen Elisenstr.,51.46162,7.034348
398,281029,Essen Ellernplatz,51.475796,7.006527
399,297564,Essen Ellernplatz,51.47605,7.006823
400,107027,Essen Elsaßstr.,51.41101,7.054712
401,344799,Essen Elsaßstr.,51.41152,7.053985
402,129986,Essen Endemannhöhe,51.40604,7.093556
403,209611,Essen Endemannhöhe,51.40604,7.093556
404,215121,Essen Endemannhöhe,51.406033,7.093511
405,427147,Essen Endemannhöhe,51.406033,7.093511
406,11912,Essen Erbach,51.419777,6.959518
407,186525,Essen Erbach,51.41949,6.958647
408,207086,Essen Erbach,51.42032,6.959249
409,266825,Essen Erbach,51.42033,6.959455
410,343775,Essen Erbach,51.42033,6.959455
411,410586,Essen Erbach,51.41991,6.959554
412,91504,Essen Erbach,51.419777,6.959518
413,98245,Essen Erbach,51.42032,6.959249
414,164198,Essen Erftstr.,51.372208,6.937231
415,368341,Essen Erftstr.,51.372257,6.937222
416,62542,Essen Erftstr.,51.372208,6.937231
417,89833,Essen Erftstr.,51.372257,6.937222
418,187981,Essen Ernestinenstr.,51.47645,7.038956
419,227295,Essen Ernestinenstr.,51.476383,7.039136
420,363603,Essen Ernestinenstr.,51.476368,7.038049
421,397889,Essen Ernestinenstr.,51.47662,7.038022
422,446310,Essen Ernestinenstr.,51.476295,7.038713
423,55616,Essen Ernestinenstr.,51.476734,7.039127
424,63898,Essen Ernestinenstr.,51.476368,7.038058
425,88675,Essen Ernestinenstr.,51.476635,7.038031
426,259731,Essen Etterbach,51.485508,7.035327
427,303958,Essen Etterbach,51.48552,7.035363
428,171767,Essen Fachklinik Rh.-Ruhr,51.354347,6.942657
429,51772,Essen Fachklinik Rh.-Ruhr,51.354347,6.942666
430,157371,Essen Fahrenberg,51.400486,7.086118
431,289513,Essen Fahrenberg,51.400475,7.086207
432,93476,Essen Fahrenberg,51.400475,7.086109
433,124326,Essen Feldhaushof,51.455177,7.0436
434,270094,Essen Feldhaushof,51.455116,7.043475
435,101271,Essen Feldmannhof,51.48889,6.999143
436,261685,Essen Feldmannhof,51.488903,6.999161
437,204605,Essen Fernblick,51.40885,7.059249
438,348268,Essen Fernblick,51.408783,7.059222
439,145877,Essen Finefraustr.,51.427338,7.048334
440,211513,Essen Finefraustr.,51.42758,7.048784
441,273186,Essen Finefraustr.,51.426834,7.048694
442,50600,Essen Finefraustr.,51.427498,7.048451
443,151288,Essen Fischlaker Str.,51.38886,7.026766
444,282381,Essen Fischlaker Str.,51.38884,7.026775
445,153804,Essen Fliegenbusch,51.46362,6.948927
446,177262,Essen Fliegenbusch,51.46369,6.94846
447,195274,Essen Fliegenbusch,51.463737,6.948235
448,262141,Essen Fliegenbusch,51.463657,6.948675
449,277879,Essen Florastr.,51.426476,7.002404
450,31054,Essen Florastr.,51.426617,7.002448
451,325220,Essen Florastr.,51.426937,7.002466
452,335286,Essen Florastr.,51.426476,7.00244
453,39275,Essen Florastr.,51.426617,7.002448
454,71714,Essen Florastr.,51.426937,7.002466
455,127501,Essen Forsthausstr.,51.424324,7.034446
456,80409,Essen Forsthausstr.,51.42427,7.034662
457,110007,Essen Forstmannstr.,51.392117,7.003616
458,403238,Essen Forstmannstr.,51.392212,7.003679
459,1346,Essen Frankenstr.,51.413696,6.994552
460,13994,Essen Frankenstr.,51.413536,6.995001
461,169356,Essen Frankenstr.,51.413536,6.995019
462,256802,Essen Frankenstr.,51.41369,6.994543
463,26753,Essen Frankenstr.,51.413395,6.994346
464,333918,Essen Frankenstr.,51.413395,6.994346
465,411610,Essen Frankenstr.,51.413406,6.994364
466,455445,Essen Frankenstr.,51.41369,6.994543
467,242317,Essen Franziskus Haus,51.466927,6.926316
468,281567,Essen Franziskus Haus,51.466743,6.926658
469,453179,Essen Franziskus Haus,51.466938,6.926334
470,74443,Essen Franziskus Haus,51.466732,6.926631
471,143657,Essen Freisenbruchstr.,51.44889,7.094526
472,161445,Essen Freisenbruchstr.,51.449413,7.094068
473,344179,Essen Freisenbruchstr.,51.44877,7.093349
474,356481,Essen Freisenbruchstr.,51.448734,7.093475
475,155395,Essen Frillendorfer Platz,51.459007,7.050652
476,157186,Essen Frillendorfer Platz,51.45896,7.051155
477,26945,Essen Frillendorfer Platz,51.459118,7.051488
478,439955,Essen Frillendorfer Platz,51.4591,7.05041
479,19588,Essen Frintroper Höhe,51.47533,6.912949
480,265422,Essen Frintroper Höhe,51.47553,6.912536
481,288915,Essen Frintroper Höhe,51.47534,6.912958
482,378029,Essen Frintroper Höhe,51.47552,6.912563
483,279210,Essen Frintroper Höhe Schleife,51.47576,6.912716
484,217304,Essen Frohnhausen S,51.455357,6.963435
485,285470,Essen Frohnhausen S,51.455425,6.963578
486,236916,Essen Frohnhauser Platz,51.446934,6.977538
487,355556,Essen Frohnhauser Platz,51.44719,6.977898
488,114398,Essen Frohnhauser Str.,51.45464,6.99069
489,149796,Essen Frohnhauser Str.,51.45489,6.990591
490,189476,Essen Fuler.Gemeindez.,51.42921,6.960542
491,391759,Essen Fuler.Gemeindez.,51.42926,6.960515
492,54204,Essen Fuler.Gemeindez.,51.42921,6.960542
493,81745,Essen Fuler.Gemeindez.,51.42926,6.960515
494,12408,Essen Fundlandstr.,51.497887,7.02399
495,169461,Essen Fundlandstr.,51.49809,7.024915
496,114717,Essen Fängershof,51.41149,6.952628
497,181438,Essen Fängershof,51.41149,6.952628
498,214644,Essen Fängershof,51.41149,6.95261
499,243155,Essen Fängershof,51.41149,6.95261
500,198886,Essen Förderstr.,51.493286,6.985506
501,202556,Essen Förderstr.,51.49351,6.985524
502,184306,Essen Fürstäbtissinstr.,51.470833,6.943726
503,240492,Essen Fürstäbtissinstr.,51.470833,6.943726
504,278327,Essen Fürstäbtissinstr.,51.470856,6.94386
505,386166,Essen Fürstäbtissinstr.,51.470856,6.94386
506,127212,Essen Gemarkenplatz,51.442795,6.998235
507,243242,Essen Gemarkenplatz,51.442745,6.998101
508,249428,Essen Gemarkenplatz,51.442474,6.997822
509,397660,Essen Gemarkenplatz,51.442455,6.998011
510,160647,Essen Gemeindehaus,51.416122,7.119032
511,344018,Essen Gemeindehaus,51.416473,7.118825
512,418915,Essen Gemeindehaus,51.41613,7.119041
513,424452,Essen Gemeindehaus,51.416466,7.118825
514,112087,Essen Genossenschaftsplatz,51.45336,6.97222
515,441813,Essen Genossenschaftsplatz,51.45337,6.972076
516,281412,Essen Germaniaplatz,51.475243,6.952251
517,343866,Essen Germaniaplatz,51.475197,6.952358
518,401225,Essen Germaniaplatz,51.474445,6.950975
519,98657,Essen Germaniaplatz,51.475254,6.95226
520,114283,Essen Gerschede,51.48365,6.943609
521,146520,Essen Gerschede,51.48365,6.943618
522,311567,Essen Gerschede,51.48371,6.943564
523,344590,Essen Gerschede,51.48371,6.943573
524,158215,Essen Gerscheder Weiden,51.48827,6.94651
525,426239,Essen Gerscheder Weiden,51.488083,6.946735
526,252505,Essen Gervinusstr.,51.449688,6.973262
527,253576,Essen Gervinusstr.,51.449703,6.97346
528,25973,Essen Gervinusstr.,51.449703,6.97346
529,260874,Essen Gervinusstr.,51.449677,6.973262
530,43331,Essen Gervinusstr.,51.449615,6.973361
531,452631,Essen Gervinusstr.,51.449753,6.973397
532,352174,Essen Geschwister-Scholl-Str.,51.434,7.110148
533,45216,Essen Geschwister-Scholl-Str.,51.434006,7.110148
534,18924,Essen Gewerbegeb. Kettwig,51.378258,6.938309
535,316536,Essen Gewerbegeb. Kettwig,51.378265,6.938282
536,102885,Essen Gewerbepark M1,51.47414,6.986701
537,121156,Essen Gewerbepark M1,51.47414,6.986701
538,17488,Essen Gewerbepark M1,51.473377,6.988552
539,235423,Essen Gewerbepark M1,51.47376,6.987707
540,47893,Essen Gewerbepark M1,51.47376,6.987707
541,57010,Essen Gewerbepark M1,51.47414,6.986701
542,13695,Essen Girardet Haus,51.431065,7.00367
543,175605,Essen Girardet Haus,51.431057,7.003661
544,59528,Essen Girardet Haus,51.431065,7.00367
545,63407,Essen Girardet Haus,51.431057,7.003661
546,200660,Essen Goldschmidtstr.,51.457973,7.02346
547,224443,Essen Goldschmidtstr.,51.45733,7.022211
548,294368,Essen Goldschmidtstr.,51.457294,7.022768
549,382323,Essen Goldschmidtstr.,51.458,7.023631
550,10222,Essen Grabenstr.,51.476814,7.036189
551,381123,Essen Grabenstr.,51.47699,7.037537
552,353478,Essen Grendplatz,51.446274,7.074736
553,263080,Essen Grendtor,51.444286,7.076973
554,436070,Essen Grendtor,51.44406,7.076389
555,155554,Essen Grenze Heidhausen,51.366863,7.016893
556,190689,Essen Grenze Heidhausen,51.366863,7.016893
557,226528,Essen Grenze Heidhausen,51.367027,7.016884
558,83869,Essen Grenze Heidhausen,51.367027,7.016884
559,181669,Essen Grotestr.,51.394108,7.08857
560,243284,Essen Grotestr.,51.394005,7.088759
561,245381,Essen Grotestr.,51.394447,7.089522
562,38590,Essen Grotestr.,51.394566,7.089747
563,438009,Essen Grotestr.,51.3941,7.088561
564,112776,Essen Grundstr.,51.49464,7.062007
565,401212,Essen Grundstr.,51.494698,7.062124
566,230229,Essen Grunewald,51.38107,7.059042
567,288166,Essen Grunewald,51.38106,7.059051
568,225619,Essen Grüne Harfe,51.380413,7.014172
569,349742,Essen Grüne Harfe,51.380463,7.013606
570,269778,Essen Gustav-Heinemann-Gesch.,51.4852,7.055099
571,48140,Essen Gustav-Heinemann-Gesch.,51.485184,7.055171
572,407301,Essen H.-Kämpchen-Str.,51.416847,7.101991
573,61731,Essen H.-Kämpchen-Str.,51.416847,7.101991
574,104346,Essen Hafenstr.,51.482212,6.980197
575,222102,Essen Hafenstr.,51.482643,6.979434
576,274682,Essen Hafenstr.,51.48311,6.978185
577,294814,Essen Hafenstr.,51.482357,6.979308
578,308658,Essen Hafenstr.,51.482075,6.979236
579,360830,Essen Hafenstr.,51.482212,6.980197
580,274061,Essen Hafenverwaltung,51.499294,6.98017
581,151570,Essen Hagedornstein,51.47896,6.927987
582,157381,Essen Hagedornstein,51.47896,6.927987
583,213935,Essen Hagedornstein,51.479004,6.928059
584,258482,Essen Hagedornstein,51.479004,6.928059
585,213571,Essen Halbachstr.,51.480206,6.994525
586,398302,Essen Halbachstr.,51.48018,6.994498
587,110549,Essen Halbe Höhe,51.436344,6.981033
588,242404,Essen Halbe Höhe,51.436306,6.981661
589,307196,Essen Halbe Höhe,51.43638,6.981823
590,39539,Essen Halbe Höhe,51.43625,6.98167
591,261347,Essen Hallo Friedhof,51.48177,7.052287
592,93649,Essen Hallo Friedhof,51.48178,7.052341
593,117143,Essen Hamborner Str.,51.46542,6.982793
594,17436,Essen Hamborner Str.,51.465336,6.982721
595,295825,Essen Hamborner Str.,51.46544,6.982811
596,430270,Essen Hamborner Str.,51.465324,6.982704
597,115579,Essen Hammer Mark,51.380096,7.063354
598,347057,Essen Hammer Mark,51.380043,7.063291
599,124493,Essen Hanielstr.,51.501125,7.048918
600,146167,Essen Hanielstr.,51.501022,7.04899
601,305752,Essen Hanielstr.,51.501125,7.048918
602,41499,Essen Hanielstr.,51.501022,7.048954
603,13564,Essen Hanielstr. Schleife,51.50102,7.049125
604,41515,Essen Hanielstr. Schleife,51.500736,7.04952
605,195439,Essen Hans-Sachs-Str.,51.458836,7.0853
606,327684,Essen Hans-Sachs-Str.,51.45885,7.085282
607,133612,Essen Hattramstr.,51.517475,7.002466
608,167718,Essen Hattramstr.,51.517475,7.00244
609,212911,Essen Hatzper Str.,51.41515,6.974807
610,391902,Essen Hatzper Str.,51.41521,6.975086
611,354884,Essen Hauerstr.,51.502464,7.012168
612,371415,Essen Hauerstr.,51.50285,7.012564
613,181636,Essen Haus-Horl-Str.,51.491207,6.944381
614,198204,Essen Haus-Horl-Str.,51.491756,6.944004
615,101234,Essen Hbf,51.451355,7.014793
616,113360,Essen Hbf,51.451363,7.012797
617,142038,Essen Hbf,51.450867,7.012824
618,169899,Essen Hbf,51.45135,7.013156
619,174427,Essen Hbf,51.45018,7.012456
620,202742,Essen Hbf,51.45049,7.014046
621,250101,Essen Hbf,51.45049,7.014046
622,253400,Essen Hbf,51.450527,7.012734
623,27767,Essen Hbf,51.450153,7.012626
624,311662,Essen Hbf,51.450237,7.012743
625,311782,Essen Hbf,51.450706,7.012806
626,323334,Essen Hbf,51.450867,7.013165
627,43803,Essen Hbf,51.450867,7.013165
628,448864,Essen Hbf,51.45048,7.013686
629,451582,Essen Hbf,51.451363,7.012797
630,452286,Essen Hbf,51.450203,7.012905
631,56131,Essen Hbf,51.451363,7.012797
632,65917,Essen Hbf,51.451733,7.013076
633,68977,Essen Hbf,51.450867,7.012824
634,123864,Essen Heegstr.,51.485775,6.962375
635,238321,Essen Heegstr.,51.485664,6.96233
636,286973,Essen Heegstr.,51.486183,6.961836
637,361535,Essen Heegstr.,51.48609,6.96197
638,149833,Essen Hegerkamp,51.50911,7.020397
639,99307,Essen Hegerkamp,51.509098,7.020253
640,115347,Essen Heidhauser Platz,51.378117,7.017262
641,122993,Essen Heidhauser Platz,51.37799,7.017172
642,173328,Essen Heidhauser Platz,51.37799,7.017172
643,332791,Essen Heidhauser Platz,51.378117,7.017262
644,158096,Essen Heimstättenweg,51.459496,7.046376
645,37010,Essen Heimstättenweg,51.459774,7.045837
646,393538,Essen Heis. Baldeneysee,51.397564,7.059492
647,349251,Essen Heisingen Kirche,51.403652,7.066094
648,353955,Essen Heisingen Kirche,51.403694,7.065932
649,164413,Essen Heisingen Ortsmitte,51.40087,7.0656
650,62165,Essen Heisingen Ortsmitte,51.40112,7.064971
651,103527,Essen Heißener Str.,51.462925,6.944022
652,115124,Essen Heißener Str.,51.462708,6.943815
653,17295,Essen Heißener Str.,51.462852,6.943654
654,447708,Essen Heißener Str.,51.46273,6.943815
655,93828,Essen Heißener Str.,51.462837,6.943654
656,99565,Essen Heißener Str.,51.462914,6.944022
657,119732,Essen Helbingstr.,51.44647,7.019993
658,288336,Essen Helbingstr.,51.4469,7.021241
659,59147,Essen Helbingstr.,51.446926,7.021187
660,328083,Essen Helenenpark,51.481625,7.020873
661,387784,Essen Helenenpark,51.4816,7.020918
662,10094,Essen Helenenstr.,51.461018,6.980404
663,109549,Essen Helenenstr.,51.460484,6.98008
664,153230,Essen Helenenstr.,51.460716,6.980009
665,195728,Essen Helenenstr.,51.46102,6.980404
666,218571,Essen Helenenstr.,51.46061,6.980494
667,255752,Essen Helenenstr.,51.460613,6.980521
668,417356,Essen Helenenstr.,51.46072,6.980009
669,82140,Essen Helenenstr.,51.46162,6.981302
670,99495,Essen Helenenstr.,51.46146,6.98194
671,263445,Essen Helfenbergweg,51.46959,7.044597
672,44447,Essen Helfenbergweg,51.469563,7.044579
673,141866,Essen Helgolandring,51.42353,6.98
674,214839,Essen Helgolandring,51.42353,6.98
675,306377,Essen Helgolandring,51.423473,6.980071
676,69512,Essen Helgolandring,51.423473,6.980071
677,167625,Essen Herbertshof,51.472103,7.028491
678,179678,Essen Herbertshof,51.472095,7.028491
679,253991,Essen Herbertshof,51.4722,7.028949
680,56474,Essen Herbertshof,51.47218,7.028949
681,164253,Essen Hermannstr.,51.502594,7.045837
682,64042,Essen Hermannstr.,51.502594,7.045864
683,12234,Essen Herzogstr.,51.469,7.021951
684,168147,Essen Herzogstr.,51.469334,7.024062
685,168628,Essen Herzogstr.,51.46907,7.022661
686,195259,Essen Herzogstr.,51.469273,7.02337
687,291695,Essen Heskämpchen,51.395603,7.007111
688,39039,Essen Heskämpchen,51.395683,7.00721
689,109430,Essen Hespertal,51.383408,7.0391
690,179958,Essen Hespertal,51.38344,7.039055
691,348858,Essen Heuweg,51.426067,7.082623
692,39931,Essen Heuweg,51.425903,7.083333
693,145459,Essen Heßlerstr.,51.5095,7.007245
694,148490,Essen Heßlerstr.,51.509583,7.007371
695,24209,Essen Heßlerstr.,51.509533,7.007201
696,248641,Essen Heßlerstr.,51.509506,7.007335
697,11173,Essen Hildegrimstr.,51.391098,7.011009
698,394062,Essen Hildegrimstr.,51.391785,7.011854
699,271543,Essen Himmelpforten,51.47419,6.913731
700,304611,Essen Himmelpforten,51.474335,6.913946
701,406995,Essen Himmelpforten,51.474335,6.913946
702,99460,Essen Himmelpforten,51.47419,6.913731
703,1254,Essen Hinsbecker Löh,51.39522,7.084276
704,386780,Essen Hinsbecker Löh,51.395172,7.084231
705,402123,Essen Hinsbecker Löh,51.39522,7.084276
706,230948,Essen Hinseler Hof,51.425133,7.078608
707,431082,Essen Hinseler Hof,51.42517,7.078069
708,265996,Essen Hirschlandplatz,51.45431,7.010569
709,433243,Essen Hirschlandplatz,51.45448,7.009887
710,117078,Essen Hobeisenbrücke,51.444897,6.986072
711,125465,Essen Hobeisenbrücke,51.44514,6.986288
712,396710,Essen Hobeisenbrücke,51.44515,6.986288
713,61472,Essen Hobeisenbrücke,51.4444,6.986638
714,87029,Essen Hobeisenbrücke,51.444946,6.987438
715,439422,Essen Hochfeldstr.,51.457966,7.088911
716,78809,Essen Hochfeldstr.,51.457924,7.088857
717,382260,Essen Hohefuhrstr.,51.435974,7.046439
718,42781,Essen Hohefuhrstr.,51.43542,7.047247
719,131127,Essen Hollestr.,51.45407,7.020657
720,144040,Essen Hollestr.,51.45417,7.021214
721,173711,Essen Hollestr.,51.453857,7.022445
722,174655,Essen Hollestr.,51.45407,7.020657
723,20504,Essen Hollestr.,51.454155,7.021807
724,286121,Essen Hollestr.,51.45407,7.020657
725,37799,Essen Hollestr.,51.45453,7.020909
726,428377,Essen Hollestr.,51.454624,7.021798
727,322029,Essen Hollestr. (Herkulesstr.),51.454792,7.022077
728,137612,Essen Holsterhauser Pl.,51.437984,6.989872
729,223189,Essen Holsterhauser Pl.,51.437695,6.989953
730,225981,Essen Holsterhauser Pl.,51.43749,6.989046
731,256827,Essen Holsterhauser Pl.,51.437897,6.990079
732,276958,Essen Holsterhauser Pl.,51.437637,6.99016
733,282836,Essen Holsterhauser Pl.,51.437622,6.989576
734,384564,Essen Holsterhauser Pl.,51.43798,6.989854
735,43245,Essen Holsterhauser Pl.,51.437634,6.99016
736,239701,Essen Holthausen Bf,51.417755,7.074772
737,91208,Essen Holthausen Bf,51.41753,7.074844
738,222567,Essen Holthuser Tal,51.41074,7.080997
739,330528,Essen Holthuser Tal,51.410862,7.080835
740,103084,Essen Hornbach,51.495453,6.951478
741,175505,Essen Hornbach,51.495453,6.951478
742,334240,Essen Hornbach,51.495358,6.951361
743,65150,Essen Hornbach,51.495358,6.951361
744,140056,Essen Horster Str.,51.43801,7.096242
745,220555,Essen Horster Str.,51.437996,7.096242
746,2858,Essen Hossemsgarten,51.51228,7.037555
747,82903,Essen Hossemsgarten,51.51225,7.037222
748,189950,Essen Hubertstr.,51.465145,7.046223
749,350405,Essen Hubertstr.,51.465107,7.046071
750,427373,Essen Hubertstr.,51.46506,7.046403
751,75979,Essen Hubertstr.,51.465504,7.046232
752,252727,Essen Huestr.,51.48845,7.064235
753,418549,Essen Huestr.,51.488407,7.064181
754,322816,Essen Huffmannstr.,51.39372,7.005817
755,383663,Essen Huffmannstr.,51.393703,7.005808
756,121539,Essen Huttropstr.,51.442474,7.033494
757,411720,Essen Huttropstr.,51.44302,7.034222
758,438369,Essen Huttropstr.,51.44303,7.033351
759,94675,Essen Huttropstr.,51.44216,7.034473
760,32039,Essen Höhenweg,51.484283,6.905871
761,73959,Essen Höhenweg,51.484154,6.905655
762,34350,Essen Höltestr.,51.478554,7.012195
763,367314,Essen Höltestr.,51.47883,7.012132
764,379132,Essen Höltestr.,51.47856,7.012249
765,70025,Essen Höltestr.,51.478817,7.012132
766,134779,Essen Hörsterfeld,51.436783,7.116795
767,63940,Essen Hörsterfeld,51.43699,7.117002
768,388566,Essen Hövelstr.,51.481766,7.001945
769,444366,Essen Hövelstr.,51.481636,7.001119
770,389941,Essen Hülsenbruchstr.,51.478924,6.986324
771,404453,Essen Hülsenbruchstr.,51.478928,6.986117
772,235986,Essen II.Schichtstr.,51.50551,7.007865
773,313490,Essen II.Schichtstr.,51.505764,7.007767
774,416696,Essen II.Schichtstr.,51.50555,7.00765
775,45993,Essen II.Schichtstr.,51.505486,7.007551
776,345927,Essen Icktener Str.,51.373737,6.926864
777,93386,Essen Icktener Str.,51.3737,6.927098
778,115443,Essen Im Hesselbruch,51.48894,6.957263
779,450508,Essen Im Hesselbruch,51.488438,6.958108
780,344645,Essen Im Körfken,51.377735,6.914863
781,389499,Essen Im Körfken,51.377754,6.914818
782,132720,Essen Im Looscheid,51.480053,7.022499
783,376372,Essen Im Looscheid,51.48007,7.022481
784,106231,Essen Im Natt,51.47907,7.045253
785,451284,Essen Im Natt,51.47906,7.045208
786,152327,Essen Im Neerfeld,51.47877,6.906149
787,299082,Essen Im Neerfeld,51.47885,6.906059
788,351975,Essen Im Neerfeld,51.478783,6.906167
789,71583,Essen Im Neerfeld,51.478855,6.906005
790,165306,Essen Im Steeler Rott,51.455387,7.077314
791,80883,Essen Im Steeler Rott,51.455235,7.077278
792,409595,Essen Im Teelbruch,51.380898,6.93618
793,436065,Essen Im Teelbruch,51.38089,6.936189
794,246014,Essen Imhoffweg,51.478626,7.079892
795,366348,Essen Imhoffweg,51.478626,7.079892
796,118654,Essen Jahnplatz,51.4678,6.980404
797,441126,Essen Jahnplatz,51.467793,6.980422
798,44655,Essen Jahnplatz,51.467793,6.980377
799,70526,Essen Jahnplatz,51.46781,6.980422
800,208025,Essen Jahnstr.,51.473072,6.965537
801,214059,Essen Jahnstr.,51.473553,6.966866
802,136401,Essen Josef-Hoeren-Str.,51.499355,7.031617
803,2113,Essen Josef-Hoeren-Str.,51.499645,7.03203
804,439250,Essen Josef-Hoeren-Str.,51.499615,7.031886
805,444290,Essen Josef-Hoeren-Str.,51.499775,7.031805
806,366524,Essen Joseph-Boismard-Weg,51.446365,7.072652
807,274376,Essen Jugendhaus,51.392475,6.94563
808,377452,Essen Jugendhaus,51.39252,6.945675
809,248455,Essen Jugendherberge,51.381203,7.005646
810,355141,Essen Jugendherberge,51.3813,7.005602
811,289639,Essen K.-Schumacher-Br.,51.44235,7.078365
812,347196,Essen K.-Schumacher-Br.,51.442307,7.078078
813,152894,Essen K.-Wilhelm-Park,51.49076,7.009294
814,201869,Essen K.-Wilhelm-Park,51.490772,7.00933
815,285934,Essen K.-Wilhelm-Park,51.490906,7.009563
816,309327,Essen K.-Wilhelm-Park,51.490906,7.009249
817,10156,Essen Kamillushaus,51.373367,7.016543
818,178751,Essen Kamillushaus,51.37378,7.016318
819,273281,Essen Kamillushaus,51.37378,7.016318
820,435763,Essen Kamillushaus,51.373367,7.016543
821,17755,Essen Kampmannbrücke,51.40037,7.075706
822,407858,Essen Kampmannbrücke,51.400276,7.075688
823,7418,Essen Kampmannbrücke,51.400276,7.075688
824,27001,Essen Kampstr.,51.465298,6.956859
825,343734,Essen Kampstr.,51.46527,6.956859
826,163156,Essen Kanalbrücke,51.496353,6.935039
827,362523,Essen Kanalbrücke,51.49684,6.935111
828,106059,Essen Kanarienberg,51.443047,7.094903
829,161587,Essen Kanarienberg,51.44303,7.094921
830,359859,Essen Kantorie,51.41631,7.042711
831,41613,Essen Kantorie,51.41629,7.04272
832,213930,Essen Kapitelwiese,51.48313,7.043367
833,373676,Essen Kapitelwiese,51.483227,7.043403
834,390065,Essen Kapitelwiese,51.48341,7.043528
835,442860,Essen Kapitelwiese,51.483265,7.043493
836,292738,Essen Karl-Legien-Str.,51.497852,6.982515
837,227967,Essen Karl-Meyer-Platz,51.485954,7.063615
838,244502,Essen Karl-Meyer-Platz,51.48575,7.064055
839,273888,Essen Karl-Meyer-Platz,51.485928,7.06357
840,344797,Essen Karl-Meyer-Platz,51.48576,7.064055
841,185692,Essen Karlsplatz,51.50022,7.008009
842,302375,Essen Karlsplatz,51.49938,7.007129
843,371817,Essen Karlsplatz,51.499153,7.006635
844,38033,Essen Karlsplatz,51.500206,7.007713
845,57352,Essen Karlsplatz,51.499138,7.006653
846,259549,Essen Karlstr.,51.499866,7.009833
847,66668,Essen Karlstr.,51.500477,7.009869
848,239316,Essen Karolinenstr.,51.436737,7.021457
849,409422,Essen Karolinenstr.,51.436657,7.021663
850,169582,Essen Karstadt HV,51.41508,6.978895
851,359275,Essen Karstadt HV,51.41508,6.978895
852,370375,Essen Karstadt HV,51.41514,6.97902
853,79051,Essen Karstadt HV,51.41514,6.97902
854,114424,Essen Katernberger Markt,51.497036,7.047589
855,252236,Essen Katernberger Markt,51.497215,7.048406
856,295840,Essen Katernberger Markt,51.49704,7.047499
857,302194,Essen Katernberger Markt,51.497154,7.046511
858,367950,Essen Katernberger Markt,51.49707,7.04661
859,38008,Essen Katernberger Markt,51.49703,7.048307
860,412956,Essen Katernberger Markt,51.497208,7.048379
861,87974,Essen Katernberger Markt,51.497025,7.048334
862,32530,Essen Kattenturm,51.36925,6.960102
863,390350,Essen Kattenturm,51.369152,6.960039
864,169282,Essen Katzenbruchstr.,51.470413,7.018151
865,211991,Essen Katzenbruchstr.,51.470222,7.017891
866,263301,Essen Katzenbruchstr.,51.46973,7.018286
867,82500,Essen Katzenbruchstr.,51.470062,7.018115
868,115917,Essen Kellerstr.,51.388676,7.015609
869,232596,Essen Kellerstr.,51.388676,7.015609
870,416517,Essen Kellerstr.,51.38868,7.015528
871,423371,Essen Kellerstr.,51.38868,7.015528
872,117079,Essen Kellinghausstr.,51.471718,7.083252
873,410815,Essen Kellinghausstr.,51.47183,7.083162
874,16301,Essen Kesselstr.,51.468098,6.963749
875,173581,Essen Kesselstr.,51.46823,6.963542
876,253977,Essen Kettelerstr.,51.465824,6.951891
877,284103,Essen Kettelerstr.,51.46579,6.951855
878,254534,Essen Kettwig Brücke,51.36128,6.938515
879,458415,Essen Kettwig Brücke,51.36127,6.938524
880,117649,Essen Kettwig S,51.36382,6.953302
881,261818,Essen Kettwig S,51.3638,6.953248
882,435930,Essen Kettwig S,51.363525,6.952978
883,7675,Essen Kettwig S,51.363937,6.953841
884,266320,Essen Kettwig Stausee S,51.35726,6.940222
885,310786,Essen Kettwig Stausee S,51.357216,6.940393
886,199307,Essen Kettwig vor der Brücke,51.358562,6.933682
887,225176,Essen Kettwig vor der Brücke,51.358566,6.932964
888,333230,Essen Kettwig vor der Brücke,51.358562,6.933691
889,34980,Essen Kettwig vor der Brücke,51.358322,6.932676
890,182660,Essen Kettwiger Markt,51.362545,6.94157
891,208085,Essen Kettwiger Markt,51.362507,6.941174
892,359874,Essen Kettwiger Markt,51.36252,6.941246
893,406406,Essen Kettwiger Markt,51.36252,6.941318
894,57734,Essen Kettwiger Markt,51.362507,6.941174
895,76087,Essen Kettwiger Markt,51.36252,6.941246
896,87789,Essen Kettwiger Markt,51.36252,6.941246
897,159790,Essen Kevelohstr.,51.433662,7.077709
898,396074,Essen Kevelohstr.,51.43335,7.077646
899,119925,Essen Kieler Str.,51.44819,6.960147
900,286753,Essen Kieler Str.,51.44824,6.960794
901,299394,Essen Kirche Heßlerstr.,51.51097,7.030332
902,41124,Essen Kirche Heßlerstr.,51.510963,7.030251
903,324328,Essen Kirchfeldstr.,51.364456,6.938812
904,363909,Essen Kirchfeldstr.,51.364456,6.938812
905,317441,Essen Kiwittstr.,51.461758,7.078356
906,381510,Essen Kiwittstr.,51.46181,7.07841
907,325088,Essen Kl. Lenbachstr.,51.43794,6.983386
908,32909,Essen Kl. Lenbachstr.,51.43791,6.983719
909,114885,Essen Klapperstr.,51.423367,7.085776
910,427235,Essen Klapperstr.,51.423367,7.085794
911,111262,Essen Kleinheide,51.402744,7.105611
912,156775,Essen Kleinheide,51.40276,7.105449
913,387388,Essen Kleinheide,51.402744,7.105611
914,85486,Essen Kleinheide,51.40276,7.105449
915,276116,Essen Kleinstr.,51.489967,6.986378
916,374150,Essen Kleinstr.,51.489906,6.986117
917,267869,Essen Klemensborn,51.385044,7.006168
918,314735,Essen Klemensborn,51.384617,7.006751
919,108330,Essen Klinkestr.,51.439835,7.037052
920,77114,Essen Klinkestr.,51.43994,7.037141
921,127649,Essen Knappschafts-Krkhs,51.44558,7.058512
922,338702,Essen Knappschafts-Krkhs,51.44545,7.05871
923,448966,Essen Knappschafts-Krkhs,51.445522,7.058476
924,452869,Essen Knappschafts-Krkhs,51.445503,7.058782
925,372407,Essen Kohlenwäsche,51.48633,7.041804
926,376296,Essen Kohlenwäsche,51.4863,7.041786
927,177806,Essen Kokerei Zollverein,51.48907,7.038372
928,385203,Essen Kokerei Zollverein,51.488976,7.038201
929,338323,Essen Korte Klippe,51.41006,7.043906
930,439011,Essen Korte Klippe,51.410057,7.044202
931,320417,Essen Krablerstr.,51.48584,6.999116
932,97668,Essen Krablerstr.,51.485703,6.9997
933,145616,Essen Kraftwerkschule,51.381084,7.099314
934,94890,Essen Kraftwerkschule,51.38111,7.099359
935,233349,Essen Kraienbruch,51.491875,6.941219
936,46867,Essen Kraienbruch,51.49188,6.941731
937,227513,Essen Kray Mitte,51.465443,7.079668
938,342697,Essen Kray Mitte,51.465347,7.079802
939,367522,Essen Kray Mitte,51.4656,7.080386
940,119833,Essen Kray Nord Bf,51.46883,7.080341
941,153339,Essen Kray Nord Bf,51.468964,7.080988
942,204017,Essen Kray Nord Bf,51.469284,7.082093
943,388447,Essen Kray Nord Bf,51.46912,7.08115
944,68517,Essen Kray Nord Bf,51.468746,7.080144
945,405511,Essen Kray Süd Bf,51.45959,7.079299
946,429935,Essen Kray Süd Bf,51.459927,7.078248
947,435245,Essen Kray Süd Bf,51.45903,7.078338
948,279770,Essen Krayer Markt,51.46695,7.078105
949,134102,Essen Kreuzeskirchstr.,51.460243,7.008629
950,42953,Essen Kreuzeskirchstr.,51.460155,7.008656
951,129404,Essen Krkhs Stoppenberg,51.474037,7.034195
952,174867,Essen Krkhs Stoppenberg,51.473785,7.033656
953,199457,Essen Krkhs Stoppenberg,51.473804,7.033692
954,320998,Essen Krkhs Stoppenberg,51.47402,7.034114
955,199813,Essen Kronenberg,51.459606,6.983611
956,231367,Essen Kronenberg,51.45937,6.984635
957,301099,Essen Kronenberg,51.459545,6.984374
958,433792,Essen Kronenberg,51.459328,6.984383
959,223599,Essen Kronprinzenstr.,51.445454,7.017091
960,326870,Essen Kronprinzenstr.,51.445473,7.017226
961,47803,Essen Kronprinzenstr.,51.445633,7.017064
962,98178,Essen Kronprinzenstr.,51.445797,7.016884
963,268141,Essen Krupp Krankenhaus,51.42841,7.011018
964,392479,Essen Krupp Krankenhaus,51.42842,7.011045
965,210602,Essen Kruppallee,51.41834,6.997948
966,312553,Essen Kruppallee,51.418316,6.997939
967,322902,Essen Kruppallee,51.418316,6.997939
968,404174,Essen Kruppallee,51.418346,6.997975
969,428488,Essen Kruppallee,51.418346,6.997957
970,90401,Essen Kruppallee,51.41834,6.997948
971,256904,Essen Kuhlhoffstr.,51.510036,7.02532
972,330224,Essen Kuhlhoffstr.,51.510048,7.02532
973,228763,Essen Kuhlmannsfeld,51.480534,6.953409
974,253279,Essen Kuhlmannsfeld,51.480053,6.953993
975,214820,Essen Kumpelweg,51.46307,7.039747
976,336406,Essen Kumpelweg,51.46311,7.039845
977,129383,Essen Kunstwerkerhütte,51.433315,7.056599
978,420064,Essen Kunstwerkerhütte,51.43378,7.056698
979,126586,Essen Kupferdreh Bf,51.391685,7.079991
980,256017,Essen Kupferdreh Bf,51.391216,7.080279
981,277545,Essen Kupferdreh Bf,51.39094,7.080611
982,289016,Essen Kupferdreh Bf,51.391685,7.079991
983,324310,Essen Kupferdreh Bf,51.391365,7.08018
984,414738,Essen Kupferdreh Bf,51.39152,7.08009
985,196397,Essen Kupferdreh Friedhof,51.393036,7.0914
986,310523,Essen Kupferdreh Friedhof,51.392986,7.09122
987,288977,Essen Kupferdreh Krankenhaus,51.391254,7.086324
988,34425,Essen Kupferdreh Krankenhaus,51.39132,7.086567
989,144667,Essen Kurt-Jooss-Str.,51.45527,6.999062
990,414847,Essen Kurt-Jooss-Str.,51.455154,6.999062
991,363338,Essen Köln-Mindener-Str.,51.48943,7.027646
992,417468,Essen Köln-Mindener-Str.,51.489265,7.027619
993,327272,Essen Laarmannstr.,51.465736,6.930377
994,390419,Essen Laarmannstr.,51.465706,6.930314
995,207541,Essen Lahnbeckestr.,51.463093,7.09732
996,310105,Essen Lahnbeckestr.,51.46309,7.097329
997,18429,Essen Landgericht,51.43644,6.998433
998,187591,Essen Landgericht,51.436287,6.997355
999,459130,Essen Landgericht,51.436592,6.996708
1000,90718,Essen Landgericht,51.436443,6.998173
1001,390101,Essen Landschede,51.48342,7.073442
1002,884,Essen Landschede,51.48327,7.07311
1003,25968,Essen Landwehr,51.381905,7.022122
1004,322457,Essen Landwehr,51.381905,7.022122
1005,355054,Essen Landwehr,51.38303,7.023298
1006,454174,Essen Landwehr,51.38303,7.023298
1007,391315,Essen Langenberger Str.,51.438164,7.078572
1008,86450,Essen Langenberger Str.,51.438297,7.078545
1009,30403,Essen Langhölterweg,51.491802,6.938875
1010,344005,Essen Langhölterweg,51.491795,6.938758
1011,215396,Essen Lattenkamp,51.508472,7.032767
1012,252263,Essen Lattenkamp,51.50846,7.032767
1013,162486,Essen Laubenweg,51.432877,6.974852
1014,343762,Essen Laubenweg,51.43278,6.974385
1015,419502,Essen Laubenweg,51.43297,6.975355
1016,456680,Essen Laubenweg,51.432957,6.975256
1017,301333,Essen Lauenbüschken,51.48538,7.02231
1018,306190,Essen Lauenbüschken,51.485386,7.022319
1019,373348,Essen Lauenbüschken,51.485508,7.022822
1020,93268,Essen Lauenbüschken,51.485508,7.022849
1021,316328,Essen Laupendahler Höhe,51.351986,6.945819
1022,52447,Essen Laupendahler Höhe,51.351974,6.945837
1023,422245,Essen Laupendahler Siedl.,51.353756,6.93892
1024,67057,Essen Laupendahler Siedl.,51.353756,6.93892
1025,161340,Essen Lautstr.,51.459023,6.927349
1026,178373,Essen Lautstr.,51.458996,6.92734
1027,268911,Essen Lautstr.,51.459003,6.927233
1028,292776,Essen Lautstr.,51.459003,6.926864
1029,358208,Essen Lautstr.,51.459045,6.927125
1030,393800,Essen Lautstr.,51.459274,6.927349
1031,208772,Essen Lehmanns Brink,51.4231,7.072571
1032,312227,Essen Lehmanns Brink,51.4232,7.073299
1033,323276,Essen Lehmanns Brink,51.42352,7.073029
1034,391686,Essen Lehmanns Brink,51.42274,7.073119
1035,147706,Essen Leimgardtsfeld,51.477795,6.957003
1036,188900,Essen Leimgardtsfeld,51.477715,6.956904
1037,396565,Essen Leimgardtsfeld,51.477657,6.956509
1038,428212,Essen Leimgardtsfeld,51.477848,6.957748
1039,106126,Essen Lelei,51.397247,7.067792
1040,343597,Essen Lierfeldstr.,51.483612,7.013803
1041,372205,Essen Lierfeldstr.,51.48357,7.013803
1042,323858,Essen Lindemanns Kreuz,51.481117,7.069472
1043,456992,Essen Lindemanns Kreuz,51.481167,7.069589
1044,341450,Essen Lindnerplatz,51.47208,6.941695
1045,381911,Essen Lindnerplatz,51.471962,6.941875
1046,452522,Essen Lindnerplatz,51.47208,6.941695
1047,63297,Essen Lindnerplatz,51.471962,6.941875
1048,19660,Essen Lionweg,51.433353,7.051883
1049,319641,Essen Lionweg,51.433804,7.0512
1050,412675,Essen Ludscheidtstr.,51.38303,7.043079
1051,72926,Essen Ludscheidtstr.,51.38303,7.043079
1052,343279,Essen Luttropp,51.458256,7.104668
1053,414117,Essen Luttropp,51.458477,7.104326
1054,12163,Essen Löwental,51.395412,6.995244
1055,146916,Essen Löwental,51.395412,6.995244
1056,180627,Essen Löwental,51.395374,6.995037
1057,339757,Essen Löwental,51.395374,6.995037
1058,129468,Essen Lürsweg,51.390526,7.024233
1059,174179,Essen Lürsweg,51.390633,7.02408
1060,221355,Essen Lüschershofstr.,51.488926,6.980161
1061,303821,Essen Lüschershofstr.,51.488827,6.980745
1062,116164,Essen M.-Erzberger-Str.,51.473003,7.068807
1063,155972,Essen M.-Erzberger-Str.,51.473015,7.068484
1064,408411,Essen Mainstr.,51.373707,6.944301
1065,49639,Essen Mainstr.,51.37372,6.944327
1066,308548,Essen Margarethenhöhe,51.42705,6.975113
1067,328130,Essen Margarethenhöhe,51.42705,6.975113
1068,401321,Essen Margarethenhöhe,51.42638,6.97514
1069,438135,Essen Margarethenhöhe,51.42585,6.975194
1070,457724,Essen Margarethenhöhe,51.42585,6.975194
1071,96172,Essen Margarethenhöhe,51.426437,6.975023
1072,336687,Essen Marienbergstr.,51.395844,7.092819
1073,425337,Essen Marienbergstr.,51.395844,7.092837
1074,204093,Essen Martinstr.,51.434475,7.00456
1075,238311,Essen Martinstr.,51.434475,7.00456
1076,28020,Essen Martinstr.,51.43377,7.004353
1077,374487,Essen Martinstr.,51.43418,7.004173
1078,40108,Essen Martinstr.,51.434536,7.004658
1079,40647,Essen Martinstr.,51.434513,7.004595
1080,42288,Essen Martinstr.,51.43409,7.004218
1081,438356,Essen Martinstr.,51.43377,7.004353
1082,291256,Essen Meerkamp,51.50197,7.040591
1083,331203,Essen Meerkamp,51.501835,7.040052
1084,217765,Essen Mehring,51.49135,6.992235
1085,384280,Essen Mehring,51.491264,6.991938
1086,253428,Essen Meisenburg,51.38859,6.943303
1087,439430,Essen Meisenburg,51.388584,6.943303
1088,316958,Essen Memelstr.,51.40656,7.069777
1089,347641,Essen Memelstr.,51.40656,7.069759
1090,225624,Essen Messe Ost/Gruga,51.430252,7.000005
1091,363370,Essen Messe Ost/Gruga,51.430126,7.000068
1092,243052,Essen Messe W.-Süd/Gruga,51.424366,6.991184
1093,250980,Essen Messe W.-Süd/Gruga,51.425076,6.992459
1094,301636,Essen Messe W.-Süd/Gruga,51.424442,6.991282
1095,81914,Essen Messe W.-Süd/Gruga,51.42511,6.992351
1096,375956,Essen Messe/Gruga,51.42833,6.996771
1097,429412,Essen Messe/Gruga,51.428543,6.996789
1098,286794,Essen Mitzwinkel,51.374256,6.960255
1099,44424,Essen Mitzwinkel,51.37425,6.960264
1100,212576,Essen Moltkestr.,51.442734,7.018735
1101,41333,Essen Moltkestr.,51.442726,7.018367
1102,418545,Essen Moltkestr.,51.442757,7.018699
1103,65655,Essen Moltkestr.,51.44259,7.018214
1104,247369,Essen Morgensteig,51.47317,7.06242
1105,285444,Essen Morgensteig,51.473183,7.06242
1106,268750,Essen Märkische Str.,51.45133,7.099727
1107,354708,Essen Märkische Str.,51.451126,7.099035
1108,119377,Essen Möbiusstr.,51.45707,6.964477
1109,297821,Essen Möbiusstr.,51.456947,6.964665
1110,290356,Essen Möllhoven,51.47463,6.924636
1111,365452,Essen Möllhoven,51.47463,6.924636
1112,385889,Essen Möllhoven,51.47315,6.923738
1113,56281,Essen Möllhoven,51.47315,6.923738
1114,222658,Essen Mühlmann,51.382458,7.081123
1115,49217,Essen Mühlmann,51.38245,7.081114
1116,126484,Essen Münstermannstr.,51.485558,6.939764
1117,195693,Essen Münstermannstr.,51.485554,6.939755
1118,324092,Essen Münstermannstr.,51.485584,6.939782
1119,355857,Essen Münstermannstr.,51.485577,6.9398
1120,161964,Essen Neckarstr.,51.374756,6.950158
1121,421339,Essen Neckarstr.,51.374783,6.950355
1122,118114,Essen Neuköln,51.486465,6.949466
1123,123938,Essen Neuköln,51.486423,6.949331
1124,23761,Essen Niebuhrstr.,51.452923,6.963875
1125,295985,Essen Niebuhrstr.,51.452946,6.963956
1126,297196,Essen Nikolausstr.,51.480076,7.039576
1127,32848,Essen Nikolausstr.,51.480083,7.039576
1128,381489,Essen Nikolausstr.,51.480145,7.039684
1129,43670,Essen Nikolausstr.,51.48015,7.039711
1130,400577,Essen Nordfriedhof,51.501263,7.019588
1131,411295,Essen Nordfriedhof,51.501186,7.019615
1132,331762,Essen Nöckersberg,51.405216,7.088363
1133,382072,Essen Nöckersberg,51.405014,7.087986
1134,425730,Essen Nöckersberg,51.405014,7.087986
1135,445788,Essen Nöckersberg,51.405216,7.088363
1136,175130,Essen Nöggerathstr.,51.45425,6.969453
1137,183469,Essen Nöggerathstr.,51.454292,6.969346
1138,274990,Essen Oberschlesienstr.,51.453667,7.036072
1139,283268,Essen Oberschlesienstr.,51.453594,7.036513
1140,299826,Essen Oberschlesienstr.,51.453773,7.036683
1141,387226,Essen Oberschlesienstr.,51.453857,7.036243
1142,291762,Essen Olsberg,51.502796,7.033045
1143,446498,Essen Olsberg,51.502796,7.033045
1144,126244,Essen Onckenstr.,51.448578,6.966318
1145,28334,Essen Onckenstr.,51.448696,6.966031
1146,35082,Essen Onckenstr.,51.44882,6.966696
1147,353543,Essen Onckenstr.,51.4486,6.966489
1148,81554,Essen Onckenstr.,51.448944,6.96613
1149,388342,Essen Ophoffstr.,51.48268,7.06295
1150,5421,Essen Ophoffstr.,51.482944,7.062932
1151,269578,Essen Oslenderstr.,51.383926,7.084007
1152,424210,Essen Oslenderstr.,51.384132,7.083477
1153,450613,Essen Ostschule,51.460587,7.083324
1154,77456,Essen Ostschule,51.460587,7.083315
1155,318680,Essen Oststr.,51.43058,7.039944
1156,50115,Essen Oststr.,51.430717,7.039486
1157,60403,Essen Oststr.,51.430725,7.039477
1158,89343,Essen Oststr.,51.43058,7.039962
1159,379429,Essen Otto-Brenner-Str.,51.474907,6.95588
1160,81378,Essen Otto-Brenner-Str.,51.474873,6.955718
1161,279244,Essen Ottostr.,51.467438,7.085839
1162,244924,Essen Overhammshof,51.382626,7.049655
1163,90540,Essen Overhammshof,51.382652,7.049466
1164,220779,Essen Palmbuschweg,51.487976,7.019148
1165,365234,Essen Palmbuschweg,51.48806,7.01966
1166,288141,Essen Parkfriedhof,51.447376,7.04298
1167,320226,Essen Parkfriedhof,51.447365,7.0436
1168,337151,Essen Parkfriedhof,51.447414,7.043043
1169,61263,Essen Parkfriedhof,51.44738,7.043591
1170,306147,Essen Pastorsacker,51.395794,7.009833
1171,89038,Essen Pastorsacker,51.395664,7.009976
1172,356262,Essen Paulinenstr.,51.433064,7.012995
1173,57472,Essen Paulinenstr.,51.433254,7.013336
1174,333939,Essen Paßstr.,51.44855,7.073847
1175,126655,Essen Philharmonie,51.445595,7.008988
1176,204810,Essen Philharmonie,51.44482,7.008279
1177,223648,Essen Philharmonie,51.445152,7.008818
1178,258562,Essen Philharmonie,51.44482,7.008279
1179,26813,Essen Philharmonie,51.445538,7.009015
1180,73363,Essen Philharmonie,51.445152,7.008818
1181,114239,Essen Philippusstift,51.47674,6.950553
1182,135815,Essen Philippusstift,51.475975,6.950481
1183,223677,Essen Philippusstift,51.475967,6.95049
1184,28585,Essen Philippusstift,51.476692,6.951101
1185,328024,Essen Pierburg,51.384937,6.942216
1186,4156,Essen Pierburg,51.384903,6.942198
1187,147459,Essen Planckstr.,51.445316,7.00005
1188,25448,Essen Planckstr.,51.445053,7.000095
1189,319305,Essen Planckstr.,51.444923,7.000212
1190,338366,Essen Planckstr.,51.444817,7.000625
1191,179882,Essen Pläßweidenweg,51.442986,7.084339
1192,41558,Essen Pläßweidenweg,51.44294,7.084384
1193,171330,Essen Polizeischule,51.42236,6.985857
1194,63574,Essen Polizeischule,51.421318,6.984482
1195,133664,Essen Portendieckstr.,51.479233,7.063929
1196,310653,Essen Portendieckstr.,51.479294,7.065097
1197,347306,Essen Portendieckstr.,51.479214,7.064666
1198,403124,Essen Portendieckstr.,51.479317,7.064064
1199,266480,Essen Porthofplatz,51.38838,7.009985
1200,399630,Essen Porthofplatz,51.388355,7.009312
1201,415723,Essen Porthofplatz,51.388355,7.009312
1202,76274,Essen Porthofplatz,51.38838,7.009985
1203,287805,Essen Poststr.,51.393616,7.082632
1204,363003,Essen Poststr.,51.393177,7.082408
1205,375914,Essen Poststr.,51.392567,7.08239
1206,51500,Essen Poststr.,51.393177,7.082408
1207,119547,Essen Preisstr.,51.469982,6.953194
1208,453320,Essen Preisstr.,51.470043,6.953149
1209,129748,Essen Preßwerk,51.488586,6.973056
1210,407677,Essen Preßwerk,51.4886,6.973541
1211,288241,Essen Priestershof,51.4739,6.89678
1212,317621,Essen Priestershof,51.47387,6.896807
1213,62777,Essen Priestershof,51.47387,6.896807
1214,80176,Essen Priestershof,51.4739,6.89678
1215,258937,Essen Prinz-Friedrich-Str.,51.393635,7.078437
1216,347648,Essen Prinz-Friedrich-Str.,51.393658,7.078464
1217,40557,Essen Prinz-Friedrich-Str.,51.393635,7.078437
1218,173553,Essen Rabenhorst,51.469624,6.938075
1219,344334,Essen Rabenhorst,51.46967,6.9383
1220,230277,Essen Rahmfeld,51.49141,7.020208
1221,31534,Essen Rahmfeld,51.491413,7.020208
1222,153416,Essen Rahmstr.,51.49657,7.019049
1223,50584,Essen Rahmstr.,51.496567,7.018977
1224,135894,Essen Ramers Kamp,51.49164,7.027538
1225,170213,Essen Ramers Kamp,51.491615,7.027565
1226,177795,Essen Rathaus Altenessen,51.486637,7.010848
1227,214022,Essen Rathaus Altenessen,51.4867,7.011234
1228,113139,Essen Rathaus Essen,51.45723,7.015124
1229,129160,Essen Rathaus Essen,51.45762,7.015456
1230,141933,Essen Rathaus Essen,51.45768,7.01542
1231,156295,Essen Rathaus Essen,51.457237,7.015618
1232,232861,Essen Rathaus Essen,51.45768,7.01542
1233,283598,Essen Rathaus Essen,51.45734,7.015573
1234,287323,Essen Rathaus Essen,51.457367,7.015016
1235,368946,Essen Rathaus Essen,51.45753,7.014971
1236,370687,Essen Rathaus Essen,51.45731,7.015106
1237,381811,Essen Rathaus Essen,51.45729,7.015088
1238,391477,Essen Rathaus Essen,51.45729,7.015088
1239,415491,Essen Rathaus Essen,51.45733,7.014827
1240,69417,Essen Rathaus Essen,51.45729,7.015088
1241,87683,Essen Rathaus Essen,51.457344,7.015294
1242,157842,Essen Rathaus Rellinghausen,51.426342,7.044166
1243,195295,Essen Rathaus Rellinghausen,51.426167,7.044014
1244,224605,Essen Rathaus Rellinghausen,51.426308,7.044229
1245,299819,Essen Rathaus Rellinghausen,51.426365,7.04422
1246,357916,Essen Rathaus Rellinghausen,51.42598,7.043367
1247,369148,Essen Rathaus Rellinghausen,51.426357,7.044211
1248,232480,Essen Realschule Überruhr,51.41991,7.079524
1249,264814,Essen Realschule Überruhr,51.41991,7.079524
1250,152937,Essen Rechtstr.,51.472347,6.953356
1251,275389,Essen Rechtstr.,51.472427,6.953463
1252,16108,Essen Regenbogenweg,51.43415,6.957901
1253,192301,Essen Regenbogenweg,51.43415,6.957901
1254,359876,Essen Regenbogenweg,51.43415,6.957901
1255,53992,Essen Regenbogenweg,51.43415,6.957901
1256,11081,Essen Rehmanns Hof,51.381645,7.066364
1257,333787,Essen Rehmanns Hof,51.381657,7.066157
1258,172675,Essen Reineke-Fuchs-Str.,51.4217,6.953356
1259,34995,Essen Reineke-Fuchs-Str.,51.4217,6.953383
1260,360176,Essen Reineke-Fuchs-Str.,51.4217,6.953356
1261,436102,Essen Reineke-Fuchs-Str.,51.4217,6.953383
1262,114192,Essen Reuenberg,51.487724,6.931526
1263,191063,Essen Reuenberg,51.487392,6.932802
1264,264568,Essen Reuenberg,51.487713,6.931518
1265,320219,Essen Reuenberg,51.487392,6.932802
1266,271542,Essen Rheinelbeweg,51.47384,7.076461
1267,307669,Essen Rheinelbeweg,51.473965,7.076973
1268,226394,Essen Rheinischer Platz,51.461926,7.011512
1269,298434,Essen Rheinischer Platz,51.461903,7.013156
1270,409858,Essen Rheinischer Platz,51.461975,7.010497
1271,82163,Essen Rheinischer Platz,51.462208,7.014279
1272,253789,Essen Riegelweg,51.484802,7.048685
1273,276298,Essen Riegelweg,51.48479,7.048703
1274,176437,Essen Ringstr.,51.36194,6.946268
1275,243698,Essen Ringstr.,51.362366,6.948127
1276,353126,Essen Ringstr.,51.362213,6.945576
1277,370633,Essen Ringstr.,51.362244,6.947148
1278,440027,Essen Ringstr.,51.361984,6.946232
1279,85806,Essen Ringstr.,51.362213,6.945576
1280,407958,Essen Rodenseelbrücke,51.46569,7.089378
1281,132352,Essen Roggenstr.,51.47516,6.9724
1282,384344,Essen Roggenstr.,51.47516,6.9724
1283,233296,Essen Rosastr.,51.436596,7.012429
1284,449544,Essen Rosastr.,51.43695,7.01251
1285,17578,Essen Rote Mühle,51.40735,7.073999
1286,213658,Essen Rote Mühle,51.407475,7.074161
1287,439287,Essen Rote Mühle,51.40735,7.073999
1288,185756,Essen Roßstr.,51.461758,6.926415
1289,392275,Essen Roßstr.,51.46176,6.926406
1290,257060,Essen Rubensstr.,51.440304,6.98839
1291,269502,Essen Rubensstr.,51.440296,6.988354
1292,345342,Essen Rubensstr.,51.440426,6.988372
1293,415230,Essen Rubensstr.,51.440437,6.988381
1294,199081,Essen Ruhrau,51.441273,7.086971
1295,435112,Essen Ruhrau,51.441288,7.086962
1296,102983,Essen Ruhrblick,51.418915,7.09608
1297,45122,Essen Ruhrblick,51.418858,7.096457
1298,336170,Essen Ruhrlandkaserne,51.38211,7.076748
1299,396479,Essen Ruhrlandkaserne,51.382114,7.076739
1300,193685,Essen Ruthertal,51.37777,6.963776
1301,89047,Essen Ruthertal,51.37773,6.963686
1302,318802,Essen Röckenstr.,51.492096,7.066633
1303,321389,Essen Röckenstr.,51.49232,7.066435
1304,32527,Essen Röntgenstr.,51.461582,6.973622
1305,43893,Essen Röntgenstr.,51.461536,6.970972
1306,55537,Essen Röntgenstr.,51.461536,6.970972
1307,94260,Essen Röntgenstr.,51.461555,6.973622
1308,183443,Essen Rüdesheimer Platz,51.4466,6.96825
1309,444735,Essen Rüdesheimer Platz,51.44671,6.968259
1310,413705,Essen Rüpingsweg,51.420025,7.073811
1311,440488,Essen Rüpingsweg,51.420025,7.073811
1312,86701,Essen Rüttenscheider Markt,51.43831,7.007713
1313,105615,Essen Rüttenscheider Stern,51.43845,7.005772
1314,213442,Essen Rüttenscheider Stern,51.437885,7.006185
1315,227057,Essen Rüttenscheider Stern,51.43719,7.005422
1316,233754,Essen Rüttenscheider Stern,51.438183,7.005664
1317,265479,Essen Rüttenscheider Stern,51.438183,7.005664
1318,29349,Essen Rüttenscheider Stern,51.4376,7.005242
1319,4142,Essen Rüttenscheider Stern,51.43719,7.005422
1320,89411,Essen Rüttenscheider Stern,51.438457,7.005727
1321,206752,Essen Saatbruchstr.,51.484055,7.059186
1322,373980,Essen Saatbruchstr.,51.484104,7.059339
1323,210060,Essen Sartoriusstr.,51.42393,7.056141
1324,232662,Essen Sartoriusstr.,51.423653,7.056491
1325,126359,Essen Savignystr/ETEC,51.44597,6.993816
1326,455412,Essen Savignystr/ETEC,51.44602,6.994543
1327,441174,Essen Sch.-Kronprinz-Str.,51.45623,6.92885
1328,59526,Essen Sch.-Kronprinz-Str.,51.45625,6.928867
1329,279189,Essen Schacht Heintzmann,51.451843,7.110767
1330,79891,Essen Schacht Heintzmann,51.45192,7.110678
1331,48060,Essen Schaffelhofer Weg,51.417885,7.080476
1332,79780,Essen Schaffelhofer Weg,51.41789,7.080467
1333,115693,Essen Schalker Str.,51.51026,7.049017
1334,24398,Essen Schalker Str.,51.510178,7.049017
1335,199558,Essen Schederhofstr.,51.45217,6.98777
1336,241911,Essen Schederhofstr.,51.452225,6.987761
1337,332667,Essen Schederhofstr.,51.45228,6.988022
1338,364747,Essen Schederhofstr.,51.45224,6.987941
1339,346990,Essen Schilfstr.,51.491802,6.933961
1340,353965,Essen Schilfstr.,51.491856,6.933997
1341,392590,Essen Schirnbecker Teiche,51.449184,7.11445
1342,66334,Essen Schirnbecker Teiche,51.449345,7.114235
1343,244133,Essen Schliepersberg,51.394363,7.101335
1344,92716,Essen Schliepersberg,51.394363,7.101003
1345,114874,Essen Schlingmannsweg,51.42558,6.962932
1346,289858,Essen Schlingmannsweg,51.42558,6.962932
1347,69929,Essen Schlingmannsweg,51.425587,6.962752
1348,81641,Essen Schlingmannsweg,51.425587,6.962752
1349,182184,Essen Schloß Borbeck,51.46949,6.942531
1350,200134,Essen Schloß Borbeck,51.467,6.944786
1351,273110,Essen Schloß Borbeck,51.467007,6.944831
1352,63963,Essen Schloß Borbeck,51.468086,6.943312
1353,339808,Essen Schmachtenbergstr.,51.36777,6.952691
1354,70324,Essen Schmachtenbergstr.,51.36775,6.9527
1355,163476,Essen Schnabelstr.,51.427895,7.041759
1356,237222,Essen Schnabelstr.,51.428158,7.041741
1357,385253,Essen Schnabelstr.,51.42815,7.041777
1358,394408,Essen Schnabelstr.,51.4279,7.041777
1359,168092,Essen Schnitterweg,51.473618,6.927745
1360,297852,Essen Schnitterweg,51.473026,6.927628
1361,321224,Essen Schonnefeldstr.,51.48978,7.003715
1362,336316,Essen Schonnefeldstr.,51.48978,7.003715
1363,156637,Essen Schraeplerstr.,51.480305,6.96136
1364,171908,Essen Schraeplerstr.,51.480255,6.96127
1365,14835,Essen Schuirweg,51.381767,6.980916
1366,266146,Essen Schuirweg,51.381767,6.981131
1367,119372,Essen Schulte-Hinsel-Str.,51.4307,7.077485
1368,84612,Essen Schulte-Hinsel-Str.,51.430843,7.077422
1369,145791,Essen Schulte-Nünning,51.472248,7.053697
1370,459214,Essen Schulte-Nünning,51.47222,7.05359
1371,331443,Essen Schultenkamp,51.473843,7.041337
1372,389056,Essen Schultenkamp,51.473785,7.041534
1373,133450,Essen Schultenweg,51.443287,7.109914
1374,335018,Essen Schumannstr.,51.365944,6.949089
1375,64677,Essen Schumannstr.,51.365944,6.948675
1376,179124,Essen Schwanenbuschstr.,51.44805,7.038687
1377,195576,Essen Schwanenbuschstr.,51.448143,7.037501
1378,198101,Essen Schwanenbuschstr.,51.44829,7.03777
1379,26309,Essen Schwanenbuschstr.,51.448143,7.037294
1380,332173,Essen Schwanenbuschstr.,51.448196,7.038354
1381,60192,Essen Schwanenbuschstr.,51.44813,7.03883
1382,149586,Essen Schwarze Lene,51.412403,7.031572
1383,262245,Essen Schwarze Lene,51.41208,7.031895
1384,308080,Essen Schwarze Str.,51.49483,7.019481
1385,425901,Essen Schwarze Str.,51.494892,7.019481
1386,223824,Essen Schwimmbad Kettwig,51.374783,6.933664
1387,256860,Essen Schwimmbad Kettwig,51.373947,6.93362
1388,284527,Essen Schwimmbad Kettwig,51.373936,6.933602
1389,307319,Essen Schwimmbad Kettwig,51.374783,6.933673
1390,34119,Essen Schwimmbad Kettwig,51.373936,6.933602
1391,8481,Essen Schwimmbad Kettwig,51.373947,6.93362
1392,235613,Essen Schwimmbad Oststadt,51.44364,7.107084
1393,271317,Essen Schwimmbad Oststadt,51.443634,7.107066
1394,408883,Essen Schwimmbad Oststadt,51.443497,7.107318
1395,134587,Essen Schölerpad,51.464146,6.967378
1396,351673,Essen Schölerpad,51.464123,6.967073
1397,453757,Essen Schölerpad,51.464184,6.96745
1398,89317,Essen Schölerpad,51.463894,6.966758
1399,183949,Essen Schöne Aussicht,51.411053,7.036342
1400,280691,Essen Schöne Aussicht,51.411346,7.036719
1401,436988,Essen Schöne Aussicht,51.410835,7.037312
1402,237721,Essen Schönebecker Str.,51.455044,6.941749
1403,437391,Essen Schönebecker Str.,51.45501,6.941749
1404,13584,Essen Schönscheidtstr.,51.46355,7.063705
1405,318265,Essen Schönscheidtstr.,51.46367,7.064019
1406,412764,Essen Schönscheidtstr.,51.463524,7.063803
1407,420776,Essen Schönscheidtstr.,51.46354,7.063785
1408,164796,Essen Seeblick,51.39879,6.991812
1409,243724,Essen Seeblick,51.39877,6.992091
1410,6575,Essen Seeblick,51.39879,6.991812
1411,80114,Essen Seeblick,51.39877,6.992091
1412,276839,Essen Seumannstr.,51.47442,7.013866
1413,285666,Essen Seumannstr.,51.47453,7.013794
1414,431822,Essen Seumannstr.,51.474545,7.013758
1415,61103,Essen Seumannstr.,51.474392,7.013848
1416,246799,Essen Sigambrerweg,51.52128,7.007865
1417,87041,Essen Sigambrerweg,51.52128,7.007856
1418,136019,Essen Sommerburgstr.,51.417908,6.980628
1419,19712,Essen Sommerburgstr.,51.41905,6.979497
1420,424276,Essen Sommerburgstr.,51.4179,6.980619
1421,45116,Essen Sommerburgstr.,51.417908,6.980628
1422,92690,Essen Sommerburgstr.,51.4179,6.980619
1423,305260,Essen Sonderfeld,51.426285,7.069948
1424,454534,Essen Sonderfeld,51.426285,7.069948
1425,261124,Essen Spervogelweg,51.445663,7.09696
1426,451593,Essen Spervogelweg,51.445633,7.096754
1427,294502,Essen Sportanlage Eiberg,51.44676,7.112232
1428,326484,Essen Sportanlage Eiberg,51.446728,7.112681
1429,268299,Essen Sportanlage Kettwig,51.36616,6.95773
1430,305056,Essen Sportanlage Kettwig,51.366047,6.957596
1431,166353,Essen Springhoffsfeld,51.42804,7.07302
1432,185857,Essen Springhoffsfeld,51.428032,7.073029
1433,112739,Essen Stadtgarten,51.447273,7.064064
1434,184177,Essen Stadtgarten,51.44727,7.0641
1435,292826,Essen Stadtgarten,51.447273,7.0641
1436,363921,Essen Stadtgarten,51.44726,7.064118
1437,121266,Essen Stadtwaldplatz,51.419266,7.02426
1438,173699,Essen Stadtwaldplatz,51.419815,7.024233
1439,369815,Essen Stadtwaldplatz,51.419228,7.024026
1440,405414,Essen Stadtwaldplatz,51.419834,7.024008
1441,180712,Essen Stadtwiese,51.472248,7.006877
1442,289643,Essen Stadtwiese,51.472176,7.006698
1443,100297,Essen Stankeitstr.,51.49425,7.012779
1444,148405,Essen Stankeitstr.,51.494217,7.01268
1445,101992,Essen Steele Ost S,51.445072,7.086998
1446,224472,Essen Steele Ost S,51.445526,7.087699
1447,44518,Essen Steele Ost S,51.44459,7.089334
1448,1715,Essen Steele S,51.45047,7.074287
1449,177531,Essen Steele S,51.450504,7.075185
1450,213888,Essen Steele S,51.45054,7.074826
1451,301363,Essen Steele S,51.450684,7.074691
1452,385829,Essen Steele S,51.45051,7.074808
1453,397301,Essen Steele S,51.45061,7.074916
1454,98692,Essen Steele S,51.45036,7.07558
1455,375149,Essen Steinbachgrund,51.417408,6.956877
1456,384849,Essen Steinbachgrund,51.417328,6.956814
1457,56468,Essen Steinbachgrund,51.417408,6.956877
1458,94548,Essen Steinbachgrund,51.417328,6.956814
1459,177123,Essen Steinwerke,51.380512,7.087043
1460,365174,Essen Steinwerke,51.380432,7.087151
1461,14891,Essen Stensbeckhof,51.47141,6.930853
1462,294038,Essen Stensbeckhof,51.471436,6.930763
1463,186827,Essen Stiftplatz,51.424873,7.039845
1464,362794,Essen Stiftplatz,51.424892,7.039818
1465,123581,Essen Sulterkamp,51.4859,6.967073
1466,1369,Essen Sulterkamp,51.485977,6.968483
1467,269439,Essen Sulterkamp,51.485783,6.967567
1468,280976,Essen Sulterkamp,51.485867,6.968304
1469,411603,Essen Sulterkamp,51.485867,6.968304
1470,451697,Essen Sulterkamp,51.485977,6.968483
1471,268607,Essen Sulzbachtal,51.465656,7.099664
1472,444830,Essen Sulzbachtal,51.465607,7.099997
1473,10128,Essen Sälzerstr.,51.45647,6.979748
1474,52183,Essen Sälzerstr.,51.456383,6.97982
1475,116878,Essen Süd S,51.4404,7.021807
1476,117486,Essen Süd S,51.43992,7.022714
1477,219024,Essen Süd S,51.439926,7.022723
1478,326181,Essen Süd S,51.4404,7.021807
1479,24683,Essen Tengelmann-Ring,51.40067,7.061773
1480,229015,Essen Terrassenfriedhof,51.458298,6.943492
1481,442020,Essen Terrassenfriedhof,51.458347,6.943501
1482,244645,Essen Thea-Leymann-Str.,51.45781,7.000212
1483,46898,Essen Thea-Leymann-Str.,51.45781,7.000203
1484,342013,Essen Theobaldstr.,51.49307,7.042468
1485,93085,Essen Theobaldstr.,51.493206,7.042891
1486,328515,Essen Thurmfeld,51.46785,6.998918
1487,408015,Essen Thurmfeld,51.467525,6.999089
1488,457106,Essen Tommesweg,51.41802,6.965636
1489,82017,Essen Tommesweg,51.418137,6.965743
1490,237996,Essen Triftstr.,51.475735,6.932479
1491,82048,Essen Triftstr.,51.475613,6.932209
1492,100513,Essen Triple Z,51.503227,7.04926
1493,231694,Essen Triple Z,51.50333,7.050284
1494,283583,Essen Triple Z,51.50389,7.049448
1495,344075,Essen Triple Z,51.503353,7.05155
1496,419027,Essen Triple Z,51.50382,7.049376
1497,89375,Essen Triple Z,51.50316,7.04952
1498,221218,Essen Tuttmannstr.,51.476482,7.032452
1499,285150,Essen Tuttmannstr.,51.476482,7.032452
1500,166206,Essen Twentmannstr.,51.484905,7.01781
1501,61283,Essen Twentmannstr.,51.484943,7.01798
1502,104265,Essen Töpferstr.,51.437492,7.028778
1503,120164,Essen Töpferstr.,51.437458,7.029434
1504,127338,Essen Töpferstr.,51.437622,7.028859
1505,389558,Essen Töpferstr.,51.43749,7.029317
1506,406228,Essen Töpferstr.,51.437626,7.02885
1507,437695,Essen Töpferstr.,51.43778,7.029263
1508,402954,Essen Uhlenstr.,51.409893,7.048918
1509,449131,Essen Uhlenstr.,51.409916,7.048909
1510,145261,Essen Umstr.,51.394207,7.011018
1511,369968,Essen Umstr.,51.394184,7.011036
1512,156005,Essen Uniklinikum,51.436237,6.991049
1513,232099,Essen Uniklinikum,51.436405,6.990564
1514,241468,Essen Uniklinikum,51.436268,6.990797
1515,327428,Essen Uniklinikum,51.43636,6.990456
1516,13180,Essen Universität Essen,51.464424,7.00164
1517,27158,Essen Universität Essen,51.465073,7.001245
1518,29192,Essen Universität Essen,51.466,7.001927
1519,293195,Essen Universität Essen,51.465992,7.001784
1520,319150,Essen Universität Essen,51.46499,7.001362
1521,346144,Essen Universität Essen,51.46499,7.001362
1522,438997,Essen Universität Essen,51.464424,7.00164
1523,51412,Essen Universität Essen,51.464424,7.00164
1524,367059,Essen Unterfrintrop,51.48607,6.904954
1525,438982,Essen Unterfrintrop,51.486156,6.905116
1526,138823,Essen Unterstr.,51.481255,6.898549
1527,156776,Essen Unterstr.,51.480484,6.902089
1528,302565,Essen Unterstr.,51.48058,6.901559
1529,308057,Essen Unterstr.,51.480595,6.901586
1530,308137,Essen V.-d.-Vogelweide-Str.,51.44721,7.096808
1531,74616,Essen V.-d.-Vogelweide-Str.,51.447353,7.096781
1532,192678,Essen Vaestestr.,51.419666,7.126416
1533,231343,Essen Vaestestr.,51.419743,7.126721
1534,130983,Essen Vereinstr.,51.456394,7.005826
1535,155078,Essen Vereinstr.,51.456585,7.006383
1536,145352,Essen Viehauser Berg,51.39031,7.004209
1537,80419,Essen Viehauser Berg,51.390312,7.004218
1538,160071,Essen Viehofer Platz,51.461716,7.0156
1539,219688,Essen Viehofer Platz,51.460613,7.01471
1540,343577,Essen Viehofer Platz,51.460663,7.015124
1541,402788,Essen Viehofer Platz,51.46103,7.01586
1542,91097,Essen Viehofer Platz,51.461727,7.015474
1543,439764,Essen Viermännerhöfe,51.4916,7.0542
1544,97303,Essen Viermännerhöfe,51.491688,7.053787
1545,326782,Essen Vogelheimer Str.,51.49256,6.997301
1546,456705,Essen Vogelheimer Str.,51.492558,6.997301
1547,30105,Essen Vollmerstr.,51.450996,7.037662
1548,410422,Essen Vollmerstr.,51.45134,7.037707
1549,115438,Essen Von-Ossietzky-Ring,51.43687,7.107506
1550,288549,Essen Von-Ossietzky-Ring,51.436546,7.107587
1551,388928,Essen Von-Schirp-Str.,51.384235,6.992594
1552,44407,Essen Von-Schirp-Str.,51.38443,6.993034
1553,205818,Essen Voßbusch,51.411663,6.985398
1554,336781,Essen Voßbusch,51.411663,6.985398
1555,432513,Essen Voßbusch,51.411777,6.985767
1556,4680,Essen Voßbusch,51.411777,6.985767
1557,255028,Essen Wackenberg,51.467384,7.100886
1558,397968,Essen Wackenberg,51.46737,7.100886
1559,195744,Essen Waldsaum,51.422466,7.028545
1560,46838,Essen Waldsaum,51.422455,7.028545
1561,181843,Essen Walpurgisstr.,51.430622,7.016408
1562,348234,Essen Walpurgisstr.,51.430454,7.01657
1563,131533,Essen Wangeroogeweg,51.420948,6.978311
1564,168155,Essen Wangeroogeweg,51.420948,6.978311
1565,332924,Essen Wangeroogeweg,51.420868,6.978068
1566,338544,Essen Wangeroogeweg,51.420868,6.978068
1567,107917,Essen Wasserturm,51.45212,7.027952
1568,189189,Essen Wasserturm,51.452263,7.027826
1569,240878,Essen Wasserturm,51.452213,7.028122
1570,337164,Essen Wasserturm,51.452106,7.02797
1571,38251,Essen Wasserturm,51.452297,7.027844
1572,395183,Essen Wasserturm,51.452225,7.02761
1573,289182,Essen Weg am Berge,51.442783,7.114388
1574,195109,Essen Weg zur Platte,51.40242,6.98998
1575,231390,Essen Weg zur Platte,51.40242,6.98998
1576,257364,Essen Weg zur Platte,51.40229,6.989989
1577,413233,Essen Weg zur Platte,51.40229,6.989989
1578,33371,Essen Weidkamp,51.49105,6.953724
1579,447634,Essen Weidkamp,51.491,6.953203
1580,328451,Essen Wellmuth,51.371956,6.932631
1581,41437,Essen Wellmuth,51.372936,6.931284
1582,47493,Essen Wellmuth,51.37194,6.932622
1583,20212,Essen Wendelinstr.,51.463814,7.093511
1584,36595,Essen Wendelinstr.,51.463963,7.093627
1585,371957,Essen Wendelinstr.,51.463657,7.092738
1586,35007,Essen Werden Brücke,51.38739,7.000068
1587,55175,Essen Werden Brücke,51.38739,7.000068
1588,129279,Essen Werden S,51.38757,6.997903
1589,243612,Essen Werden S,51.386482,6.998164
1590,259578,Essen Werden S,51.38757,6.997903
1591,306099,Essen Werden S,51.38761,6.99811
1592,332271,Essen Werden S,51.386673,6.998361
1593,452563,Essen Werden S,51.38761,6.99811
1594,62469,Essen Werden S,51.38659,6.997993
1595,175279,Essen Werdener Markt,51.38835,7.003266
1596,192992,Essen Werdener Markt,51.388275,7.003356
1597,268403,Essen Werdener Markt,51.38835,7.003266
1598,293674,Essen Werdener Markt,51.38715,7.003607
1599,350271,Essen Werdener Markt,51.388275,7.003356
1600,369942,Essen Werdener Markt,51.388275,7.003356
1601,449288,Essen Werdener Markt,51.388424,7.003185
1602,53538,Essen Werdener Markt,51.387234,7.003482
1603,1732,Essen Wertstr.,51.486794,6.914297
1604,29208,Essen Wertstr.,51.48707,6.914063
1605,411074,Essen Wertstr.,51.48643,6.913884
1606,53697,Essen Wertstr.,51.487053,6.914072
1607,17257,Essen Weserstr.,51.43673,7.032821
1608,209514,Essen Weserstr.,51.436764,7.032794
1609,273610,Essen Weserstr.,51.43679,7.032758
1610,420298,Essen Weserstr.,51.43675,7.032847
1611,286182,Essen West,51.4545,6.979798
1612,284726,Essen West S,51.453392,6.981581
1613,409941,Essen West S,51.453247,6.982138
1614,159775,Essen Westendstr.,51.454716,6.993582
1615,44128,Essen Westendstr.,51.454655,6.993735
1616,114001,Essen Wetteramt/LANUV,51.407475,6.965878
1617,326402,Essen Wetteramt/LANUV,51.407417,6.965833
1618,269430,Essen Wickenburgstr.,51.4424,6.968762
1619,439514,Essen Wickenburgstr.,51.442364,6.969148
1620,45601,Essen Wickenburgstr.,51.442493,6.968357
1621,87994,Essen Wickenburgstr.,51.4423,6.968214
1622,207265,Essen Wiedfeldtstr.,51.416855,7.007389
1623,343937,Essen Wiedfeldtstr.,51.41694,7.007722
1624,18138,Essen Wildstr.,51.494087,6.980314
1625,361522,Essen Wildstr.,51.494183,6.980314
1626,116756,Essen Wilhelmstr.,51.36426,6.941983
1627,228158,Essen Wilhelmstr.,51.36426,6.941983
1628,233616,Essen Wilhelmstr.,51.365566,6.944067
1629,366239,Essen Wilhelmstr.,51.365173,6.943842
1630,73405,Essen Wilhelmstr.,51.365173,6.943842
1631,215387,Essen Windmühlenstr.,51.439922,6.979856
1632,247501,Essen Windmühlenstr.,51.439857,6.979793
1633,432646,Essen Winkhausstr.,51.495426,7.003706
1634,93361,Essen Winkhausstr.,51.495396,7.00376
1635,100358,Essen Wintgenstr.,51.388187,7.021628
1636,107270,Essen Wintgenstr.,51.388214,7.021412
1637,177878,Essen Wintgenstr.,51.388187,7.021628
1638,320937,Essen Wintgenstr.,51.388214,7.021412
1639,216745,Essen Wisthoff,51.439774,7.090025
1640,414523,Essen Wisthoff,51.439774,7.089998
1641,128060,Essen Wittenbergstr.,51.4258,7.016471
1642,425481,Essen Wittenbergstr.,51.425663,7.016184
1643,244012,Essen Witteringstr.,51.44009,7.006194
1644,265634,Essen Witteringstr.,51.44009,7.006194
1645,396487,Essen Witteringstr.,51.440086,7.006221
1646,408595,Essen Witteringstr.,51.440086,7.006221
1647,398195,Essen Wolbeckstr.,51.497574,7.002655
1648,434792,Essen Wolbeckstr.,51.49755,7.002655
1649,133016,Essen Wolfsbankring,51.472713,6.956194
1650,241729,Essen Wolfsbankring,51.472874,6.956033
1651,148339,Essen Wolfsbankstr.,51.47151,6.962752
1652,279798,Essen Wolfsbankstr.,51.47184,6.963318
1653,377958,Essen Wolfsbankstr.,51.47075,6.961395
1654,74837,Essen Wolfsbankstr.,51.47074,6.961404
1655,260518,Essen Wolfskuhle,51.45084,7.091283
1656,401213,Essen Wolfskuhle,51.45083,7.091157
1657,102577,Essen Worringstr.,51.416283,7.105809
1658,140234,Essen Worringstr.,51.416275,7.105809
1659,170178,Essen Wupperstr.,51.374107,6.938408
1660,254159,Essen Wupperstr.,51.374237,6.938704
1661,362966,Essen Wörthstr.,51.44987,7.033216
1662,369459,Essen Wörthstr.,51.44986,7.033216
1663,435532,Essen Wörthstr.,51.449894,7.033261
1664,68882,Essen Wörthstr.,51.44987,7.033297
1665,169779,Essen Wüstenhöferstr.,51.467793,6.954775
1666,349606,Essen Wüstenhöferstr.,51.46835,6.956329
1667,389257,Essen Zangenstr.,51.47339,6.997607
1668,42359,Essen Zangenstr.,51.473602,6.997903
1669,24263,Essen Zeche Bonifacius,51.474777,7.079802
1670,315838,Essen Zeche Bonifacius,51.47522,7.080557
1671,59164,Essen Zeche Bonifacius,51.475235,7.080566
1672,74588,Essen Zeche Bonifacius,51.474598,7.079165
1673,253019,Essen Zeche Carl,51.495995,7.010156
1674,449988,Essen Zeche Carl,51.49596,7.009896
1675,133089,Essen Zeche Katharina,51.458397,7.057075
1676,325562,Essen Zeche Katharina,51.458363,7.057488
1677,270632,Essen Zeche Ludwig,51.432693,7.036234
1678,384441,Essen Zeche Ludwig,51.43275,7.03627
1679,52274,Essen Zeche Ludwig,51.43275,7.036261
1680,54631,Essen Zeche Ludwig,51.432705,7.036306
1681,148084,Essen Zinkstr.,51.479176,6.973424
1682,197247,Essen Zinkstr.,51.479233,6.973397
1683,457782,Essen Zinkstr.,51.479214,6.973406
1684,96156,Essen Zinkstr.,51.479176,6.973424
1685,10448,Essen Zollverein,51.486168,7.046304
1686,210567,Essen Zollverein,51.486095,7.046062
1687,379634,Essen Zollverein,51.486202,7.046259
1688,70905,Essen Zollverein,51.486084,7.046017
1689,14787,Essen Zollverein Nord Bf,51.49373,7.046367
1690,319444,Essen Zollverein Nord Bf,51.4935,7.046475
1691,320834,Essen Zollverein Nord Bf,51.493473,7.046511
1692,348481,Essen Zollverein Nord Bf,51.49374,7.046394
1693,242929,Essen Zur Villa Hügel,51.415714,7.002673
1694,299041,Essen Zur Villa Hügel,51.415627,7.00235
1695,201598,Essen Zweibachegge,51.45407,7.106509
1696,82332,Essen Zweibachegge,51.45459,7.108117
1697,453116,Essen Zweigertstein,51.418865,7.014881
1698,51339,Essen Zweigertstein,51.418793,7.014944
1699,27942,Essen Zweigertstr.,51.437096,7.002269
1700,353194,Essen Zweigertstr.,51.437122,7.002637
1701,184185,Essen central train station (Freiheit),51.450253,7.01461
1702,164551,Essen thyssenkrupp,51.459274,6.992854
1703,165529,Essen thyssenkrupp,51.45936,6.992612
1704,174622,Essen thyssenkrupp,51.459152,6.993789
1705,263680,Essen thyssenkrupp,51.45908,6.993411
1706,303122,"Essen, Gerlingstr.",51.4612,7.020226
1707,417931,"Essen, Gerlingstr.",51.461033,7.020271
1708,371932,Essen-Borbeck,51.473103,6.948461
1709,387638,Essen-Frohnhausen,51.455112,6.965285
1710,124519,Friedrich-Lange-Str.,51.476826,6.983018
1711,188281,Friedrich-Lange-Str.,51.476707,6.981895
1712,208371,Friedrich-Lange-Str.,51.476948,6.983036
1713,320674,Friedrich-Lange-Str.,51.476948,6.983036
1714,385967,Friedrich-Lange-Str.,51.47613,6.983566
1715,407155,Friedrich-Lange-Str.,51.476803,6.98326
1716,42243,Friedrich-Lange-Str.,51.47613,6.983566
1717,120673,Frohnhausen Breilsort,51.447918,6.954829
1718,163646,Frohnhausen Breilsort,51.44823,6.955251
1719,178942,Frohnhausen Breilsort,51.447903,6.954919
1720,270598,Frohnhausen Breilsort,51.448135,6.954658
1721,74020,Frohnhausen Breilsort,51.448135,6.954658
1722,289436,Jacob-Weber-Str.,51.454002,7.070981
1723,353108,Jacob-Weber-Str.,51.454266,7.070559
