node_id,stop_id,stop_name,stop_lat,stop_lon
0,1299,Aachen Hbf,50.7678,6.091499
1,1339,Aachen Hbf,50.7678,6.091499
2,273,Aachen Hbf,50.7678,6.091499
3,974,Aachen Hbf,50.7678,6.091499
4,761,Aachen Süd(Gr),50.731915,6.04541
5,175,Aalen Hbf,48.841015,10.096271
6,321,Aalen Hbf,48.841015,10.096271
7,108,Alfeld(Leine),51.98142,9.817779
8,1111,Alfeld(Leine),51.98142,9.817779
9,538,Altenbeken,51.766434,8.943319
10,704,Altenbeken,51.766434,8.943319
11,430,Andernach,50.434544,7.404839
12,688,Andernach,50.434544,7.404839
13,75,Andernach,50.434544,7.404839
14,363,Angermünde,53.01522,13.996361
15,915,Angermünde,53.01522,13.996361
16,1320,Anklam,53.856102,13.701827
17,487,Anklam,53.856102,13.701827
18,136,Ansbach,49.29803,10.578239
19,1410,Ansbach,49.29803,10.578239
20,496,Ansbach,49.29803,10.578239
21,602,Ansbach,49.29803,10.578239
22,592,Apolda,51.03094,11.526136
23,992,Apolda,51.03094,11.526136
24,218,Aschaffenburg Hbf,49.980556,9.143697
25,752,Aschaffenburg Hbf,49.980556,9.143697
26,957,Aschaffenburg Hbf,49.980556,9.143697
27,141,Augsburg Hbf,48.36544,10.88557
28,170,Augsburg Hbf,48.36544,10.88557
29,201,Augsburg Hbf,48.36544,10.88557
30,28,Augsburg Hbf,48.36544,10.88557
31,439,Augsburg Hbf,48.36544,10.88557
32,470,Augsburg Hbf,48.36544,10.88557
33,657,Augsburg Hbf,48.36544,10.88557
34,740,Augsburg Hbf,48.36544,10.88557
35,955,Augsburg Hbf,48.36544,10.88557
36,132,Augustfehn,53.22089,7.759659
37,1417,Augustfehn,53.22089,7.759659
38,179,Aulendorf,47.953053,9.644046
39,275,Aulendorf,47.953053,9.644046
40,116,Bad Bentheim,52.30985,7.158539
41,1303,Bad Bentheim,52.30985,7.158539
42,200,Bad Bentheim(Gr),52.3091,7.04016
43,482,Bad Bevensen,53.078247,10.574141
44,755,Bad Bevensen,53.078247,10.574141
45,1087,Bad Endorf,47.905067,12.301558
46,299,Bad Endorf,47.905067,12.301558
47,260,Bad Hersfeld,50.869633,9.716182
48,812,Bad Hersfeld,50.869633,9.716182
49,426,Bad Kleinen,53.766975,11.466925
50,921,Bad Kleinen,53.766975,11.466925
51,45,Bad Krozingen,47.91972,7.697632
52,572,Bad Krozingen,47.91972,7.697632
53,1238,Bad Oeynhausen,52.2054,8.796523
54,228,Bad Oeynhausen,52.2054,8.796523
55,156,Bad Schandau,50.91929,14.137538
56,256,Bad Schandau,50.91929,14.137538
57,163,Bad Zwischenahn,53.18255,8.003123
58,1172,Baden-Baden,48.790325,8.190831
59,1440,Baden-Baden,48.790325,8.190831
60,477,Baden-Baden,48.790325,8.190831
61,1008,Bamberg,49.90076,10.899489
62,665,Bamberg,49.90076,10.899489
63,735,Bamberg,49.90076,10.899489
64,1042,Bebra,50.969566,9.797788
65,1421,Bebra,50.969566,9.797788
66,264,Bebra,50.969566,9.797788
67,1362,Bensheim,49.681328,8.616717
68,535,Bensheim,49.681328,8.616717
69,806,Bensheim,49.681328,8.616717
70,1083,Bergen auf Rügen,54.4205,13.417821
71,446,Bergen auf Rügen,54.4205,13.417821
72,1193,Berlin Gesundbrunnen,52.54896,13.388513
73,135,Berlin Gesundbrunnen,52.54896,13.388513
74,1363,Berlin Gesundbrunnen,52.54896,13.388513
75,1443,Berlin Gesundbrunnen,52.54896,13.388513
76,226,Berlin Gesundbrunnen,52.54896,13.388513
77,520,Berlin Gesundbrunnen,52.54896,13.388513
78,768,Berlin Gesundbrunnen,52.54896,13.388513
79,1242,Berlin Hbf,52.525593,13.369545
80,1346,Berlin Hbf,52.525593,13.369545
81,1429,Berlin Hbf,52.525593,13.369545
82,25,Berlin Hbf,52.525593,13.369545
83,339,Berlin Hbf,52.525593,13.369545
84,1273,Berlin Hbf (tief),52.525593,13.369545
85,160,Berlin Hbf (tief),52.525593,13.369545
86,290,Berlin Hbf (tief),52.525593,13.369545
87,305,Berlin Hbf (tief),52.525593,13.369545
88,478,Berlin Hbf (tief),52.525593,13.369545
89,554,Berlin Hbf (tief),52.525593,13.369545
90,727,Berlin Hbf (tief),52.525593,13.369545
91,8,Berlin Hbf (tief),52.525593,13.369545
92,847,Berlin Hbf (tief),52.525593,13.369545
93,1116,Berlin Ostbahnhof,52.510487,13.434681
94,1224,Berlin Ostbahnhof,52.510487,13.434681
95,18,Berlin Ostbahnhof,52.510487,13.434681
96,522,Berlin Ostbahnhof,52.510487,13.434681
97,622,Berlin Ostbahnhof,52.510487,13.434681
98,817,Berlin Ostbahnhof,52.510487,13.434681
99,56,Berlin Ostkreuz,52.503036,13.469105
100,922,Berlin Ostkreuz,52.503036,13.469105
101,1035,Berlin Südkreuz,52.475048,13.365319
102,1137,Berlin Südkreuz,52.475048,13.365319
103,1195,Berlin Südkreuz,52.475048,13.365319
104,1378,Berlin Südkreuz,52.475048,13.365319
105,1430,Berlin Südkreuz,52.475048,13.365319
106,195,Berlin Südkreuz,52.475048,13.365319
107,253,Berlin Südkreuz,52.475048,13.365319
108,1275,Berlin Wannsee,52.42097,13.179528
109,1319,Berlin Wannsee,52.42097,13.179528
110,1347,Berlin Wannsee,52.42097,13.179528
111,106,Berlin Zoologischer Garten,52.50728,13.331992
112,1084,Berlin Zoologischer Garten,52.50728,13.331992
113,386,Berlin Zoologischer Garten,52.50728,13.331992
114,1085,Berlin-Charlottenburg,52.50421,13.30233
115,1159,Berlin-Charlottenburg,52.50421,13.30233
116,1022,Berlin-Spandau,52.53465,13.196898
117,1355,Berlin-Spandau,52.53465,13.196898
118,377,Berlin-Spandau,52.53465,13.196898
119,668,Berlin-Spandau,52.53465,13.196898
120,873,Berlin-Spandau,52.53465,13.196898
121,1321,Bernau(b Berlin),52.675568,13.592641
122,908,Bernau(b Berlin),52.675568,13.592641
123,481,Biberach(Riß),48.101845,9.793127
124,820,Biberach(Riß),48.101845,9.793127
125,1181,Bielefeld Hbf,52.029263,8.532722
126,42,Bielefeld Hbf,52.029263,8.532722
127,807,Bielefeld Hbf,52.029263,8.532722
128,1122,Bingen(Rhein) Hbf,49.968727,7.884263
129,1208,Bingen(Rhein) Hbf,49.968727,7.884263
130,145,Bingen(Rhein) Hbf,49.968727,7.884263
131,102,Bitterfeld,51.62286,12.31685
132,1105,Bitterfeld,51.62286,12.31685
133,304,Bitterfeld,51.62286,12.31685
134,525,Bitterfeld,51.62286,12.31685
135,869,Bitterfeld,51.62286,12.31685
136,1078,Bochum Hbf,51.478607,7.223275
137,1277,Bochum Hbf,51.478607,7.223275
138,133,Bochum Hbf,51.478607,7.223275
139,759,Bochum Hbf,51.478607,7.223275
140,880,Bochum Hbf,51.478607,7.223275
141,44,Bondorf(b Herrenberg),48.523552,8.827662
142,982,Bondorf(b Herrenberg),48.523552,8.827662
143,202,Bonn Hbf,50.73201,7.097136
144,579,Bonn Hbf,50.73201,7.097136
145,799,Bonn Hbf,50.73201,7.097136
146,935,Bonn Hbf,50.73201,7.097136
147,1123,Bonn-Beuel,50.738476,7.127657
148,165,Bonn-Beuel,50.738476,7.127657
149,864,Bonn-Beuel,50.738476,7.127657
150,1220,Boppard Hbf,50.231415,7.586102
151,1279,Boppard Hbf,50.231415,7.586102
152,445,Boppard Hbf,50.231415,7.586102
153,1120,Brandenburg Hbf,52.400555,12.566138
154,169,Brandenburg Hbf,52.400555,12.566138
155,265,Brandenburg Hbf,52.400555,12.566138
156,372,Brandenburg Hbf,52.400555,12.566138
157,303,Braunschweig Hbf,52.252216,10.540295
158,4,Braunschweig Hbf,52.252216,10.540295
159,719,Braunschweig Hbf,52.252216,10.540295
160,1016,Bremen Hbf,53.08348,8.813834
161,13,Bremen Hbf,53.08348,8.813834
162,243,Bremen Hbf,53.08348,8.813834
163,340,Bremen Hbf,53.08348,8.813834
164,36,Bremen Hbf,53.08348,8.813834
165,819,Bremen Hbf,53.08348,8.813834
166,96,Bremen Hbf,53.08348,8.813834
167,961,Bremen Hbf,53.08348,8.813834
168,997,Bremen Hbf,53.08348,8.813834
169,1089,Bruchsal,49.124622,8.589649
170,1149,Bruchsal,49.124622,8.589649
171,1276,Bruchsal,49.124622,8.589649
172,829,Bruchsal,49.124622,8.589649
173,105,Buchloe,48.033722,10.716217
174,333,Buchloe,48.033722,10.716217
175,447,Buchloe,48.033722,10.716217
176,104,Böblingen,48.68776,9.004128
177,713,Böblingen,48.68776,9.004128
178,159,Büchen,53.47497,10.623298
179,676,Büchen,53.47497,10.623298
180,329,Bünde(Westf),52.202076,8.573876
181,978,Bünde(Westf),52.202076,8.573876
182,1186,Bützow,53.837112,11.998194
183,1297,Bützow,53.837112,11.998194
184,1399,Celle,52.620457,10.062468
185,601,Celle,52.620457,10.062468
186,785,Celle,52.620457,10.062468
187,1402,Coburg,50.262928,10.957328
188,913,Coburg,50.262928,10.957328
189,467,Cottbus Hbf,51.750957,14.324162
190,593,Cottbus Hbf,51.750957,14.324162
191,371,Crailsheim,49.13787,10.064326
192,575,Crailsheim,49.13787,10.064326
193,374,Darmstadt Hbf,49.8725,8.629636
194,765,Darmstadt Hbf,49.8725,8.629636
195,842,Darmstadt Hbf,49.8725,8.629636
196,895,Darmstadt Hbf,49.8725,8.629636
197,99,Darmstadt Hbf,49.8725,8.629636
198,1411,Delmenhorst,53.05279,8.629758
199,569,Delmenhorst,53.05279,8.629758
200,587,Delmenhorst,53.05279,8.629758
201,1015,Dessau Hbf,51.839867,12.234945
202,1096,Dessau Hbf,51.839867,12.234945
203,1233,Dessau Hbf,51.839867,12.234945
204,1192,Diepholz,52.60477,8.380334
205,1240,Diepholz,52.60477,8.380334
206,996,Diepholz,52.60477,8.380334
207,1246,Doberlug-Kirchhain,51.620575,13.564241
208,189,Doberlug-Kirchhain,51.620575,13.564241
209,744,Donaueschingen,47.947784,8.498919
210,831,Donaueschingen,47.947784,8.498919
211,107,Donauwörth,48.714027,10.771443
212,1394,Donauwörth,48.714027,10.771443
213,118,Dortmund Hbf,51.517895,7.45929
214,1359,Dortmund Hbf,51.517895,7.45929
215,1425,Dortmund Hbf,51.517895,7.45929
216,2,Dortmund Hbf,51.517895,7.45929
217,407,Dortmund Hbf,51.517895,7.45929
218,720,Dortmund Hbf,51.517895,7.45929
219,98,Dortmund Hbf,51.517895,7.45929
220,1093,Dresden Hbf,51.04056,13.732035
221,1292,Dresden Hbf,51.04056,13.732035
222,544,Dresden Hbf,51.04056,13.732035
223,330,Dresden-Neustadt,51.0659,13.740701
224,539,Dresden-Neustadt,51.0659,13.740701
225,60,Dresden-Neustadt,51.0659,13.740701
226,731,Dresden-Neustadt,51.0659,13.740701
227,1148,Duisburg Hbf,51.429787,6.775903
228,1259,Duisburg Hbf,51.429787,6.775903
229,1264,Duisburg Hbf,51.429787,6.775903
230,580,Duisburg Hbf,51.429787,6.775903
231,583,Duisburg Hbf,51.429787,6.775903
232,611,Duisburg Hbf,51.429787,6.775903
233,776,Duisburg Hbf,51.429787,6.775903
234,886,Duisburg Hbf,51.429787,6.775903
235,193,Düren,50.809517,6.482451
236,946,Düren,50.809517,6.482451
237,413,Düsseldorf Flughafen,51.292007,6.786836
238,418,Düsseldorf Flughafen,51.292007,6.786836
239,700,Düsseldorf Flughafen,51.292007,6.786836
240,1064,Düsseldorf Hbf,51.219963,6.794319
241,1107,Düsseldorf Hbf,51.219963,6.794319
242,1183,Düsseldorf Hbf,51.219963,6.794319
243,296,Düsseldorf Hbf,51.219963,6.794319
244,311,Düsseldorf Hbf,51.219963,6.794319
245,618,Düsseldorf Hbf,51.219963,6.794319
246,629,Düsseldorf Hbf,51.219963,6.794319
247,686,Düsseldorf Hbf,51.219963,6.794319
248,951,Düsseldorf Hbf,51.219963,6.794319
249,634,Eberswalde Hbf,52.834023,13.797062
250,985,Eberswalde Hbf,52.834023,13.797062
251,375,Eisenach,50.97692,10.331986
252,642,Eisenach,50.97692,10.331986
253,977,Eisenach,50.97692,10.331986
254,89,Ellwangen,48.964123,10.129681
255,1010,Elsterwerda,51.45968,13.516428
256,155,Elsterwerda,51.45968,13.516428
257,77,Elsterwerda,51.45968,13.516428
258,1142,Elze(Han),52.120148,9.746894
259,783,Elze(Han),52.120148,9.746894
260,638,Emden Außenhafen,53.344467,7.186179
261,1030,Emden Hbf,53.369038,7.195176
262,1165,Emden Hbf,53.369038,7.195176
263,1231,Emden Hbf,53.369038,7.195176
264,343,Emden Hbf,53.369038,7.195176
265,1344,Engen,47.856346,8.772786
266,376,Engen,47.856346,8.772786
267,238,Erfurt Hbf,50.97255,11.038499
268,419,Erfurt Hbf,50.97255,11.038499
269,576,Erfurt Hbf,50.97255,11.038499
270,630,Erfurt Hbf,50.97255,11.038499
271,936,Erfurt Hbf,50.97255,11.038499
272,1293,Ergenzingen,48.489532,8.809857
273,510,Ergenzingen,48.489532,8.809857
274,1263,Erkelenz,51.076565,6.32172
275,749,Erkelenz,51.076565,6.32172
276,217,Erlangen,49.59583,11.001638
277,448,Erlangen,49.59583,11.001638
278,851,Erlangen,49.59583,11.001638
279,1366,Essen Hbf,51.451355,7.014793
280,250,Essen Hbf,51.451355,7.014793
281,306,Essen Hbf,51.451355,7.014793
282,494,Essen Hbf,51.451355,7.014793
283,898,Essen Hbf,51.451355,7.014793
284,1067,Eutingen im Gäu,48.479954,8.782236
285,485,Eutingen im Gäu,48.479954,8.782236
286,987,Fischen,47.456593,10.271717
287,1000,Flensburg,54.77404,9.436526
288,857,Flensburg(Gr),54.814842,9.36324
289,805,Forbach(fr),49.21409,6.944314
290,1038,Frankfurt(M) Flughafen Fernbf,50.053165,8.570185
291,1298,Frankfurt(M) Flughafen Fernbf,50.053165,8.570185
292,180,Frankfurt(M) Flughafen Fernbf,50.053165,8.570185
293,394,Frankfurt(M) Flughafen Fernbf,50.053165,8.570185
294,718,Frankfurt(M) Flughafen Fernbf,50.053165,8.570185
295,1151,Frankfurt(M) Flughafen Regionalbf,50.05122,8.571251
296,1108,Frankfurt(Main)Hbf,50.107143,8.663789
297,127,Frankfurt(Main)Hbf,50.107143,8.663789
298,1287,Frankfurt(Main)Hbf,50.107143,8.663789
299,1377,Frankfurt(Main)Hbf,50.107143,8.663789
300,147,Frankfurt(Main)Hbf,50.107143,8.663789
301,162,Frankfurt(Main)Hbf,50.107143,8.663789
302,205,Frankfurt(Main)Hbf,50.107143,8.663789
303,294,Frankfurt(Main)Hbf,50.107143,8.663789
304,318,Frankfurt(Main)Hbf,50.107143,8.663789
305,388,Frankfurt(Main)Hbf,50.107143,8.663789
306,405,Frankfurt(Main)Hbf,50.107143,8.663789
307,441,Frankfurt(Main)Hbf,50.107143,8.663789
308,491,Frankfurt(Main)Hbf,50.107143,8.663789
309,497,Frankfurt(Main)Hbf,50.107143,8.663789
310,515,Frankfurt(Main)Hbf,50.107143,8.663789
311,534,Frankfurt(Main)Hbf,50.107143,8.663789
312,595,Frankfurt(Main)Hbf,50.107143,8.663789
313,757,Frankfurt(Main)Hbf,50.107143,8.663789
314,773,Frankfurt(Main)Hbf,50.107143,8.663789
315,949,Frankfurt(Main)Hbf,50.107143,8.663789
316,998,Frankfurt(Main)Hbf,50.107143,8.663789
317,1308,Frankfurt(Main)Süd,50.099365,8.686457
318,660,Frankfurt(Main)Süd,50.099365,8.686457
319,92,Frankfurt(Main)Süd,50.099365,8.686457
320,247,Frankfurt(Main)West,50.118862,8.639335
321,504,Frankfurt(Main)West,50.118862,8.639335
322,548,Frankfurt(Oder),52.336414,14.546496
323,712,Frankfurt(Oder),52.336414,14.546496
324,16,Frankfurt-Niederrad,50.081284,8.637075
325,1168,Freiburg(Breisgau) Hbf,47.997696,7.84117
326,1269,Freiburg(Breisgau) Hbf,47.997696,7.84117
327,14,Freiburg(Breisgau) Hbf,47.997696,7.84117
328,981,Freiburg(Breisgau) Hbf,47.997696,7.84117
329,1387,Freilassing,47.836918,12.977193
330,246,Freilassing,47.836918,12.977193
331,508,Freilassing,47.836918,12.977193
332,647,Freilassing,47.836918,12.977193
333,1333,Friedberg(Hess),50.332607,8.762056
334,1388,Friedberg(Hess),50.332607,8.762056
335,1315,Friedrichshafen Stadt,47.653225,9.4739
336,1306,Fulda,50.55472,9.683977
337,1310,Fulda,50.55472,9.683977
338,157,Fulda,50.55472,9.683977
339,244,Fulda,50.55472,9.683977
340,456,Fulda,50.55472,9.683977
341,312,Fürth(Bay)Hbf,49.469707,10.989988
342,582,Fürth(Bay)Hbf,49.469707,10.989988
343,746,Fürth(Bay)Hbf,49.469707,10.989988
344,1348,Garmisch-Partenkirchen,47.49145,11.097013
345,492,Garmisch-Partenkirchen,47.49145,11.097013
346,1289,Geilenkirchen,50.96104,6.124518
347,947,Geilenkirchen,50.96104,6.124518
348,619,Geislingen(Steige),48.619358,9.841941
349,933,Geislingen(Steige),48.619358,9.841941
350,1182,Gelsenkirchen Hbf,51.5049,7.102455
351,257,Gelsenkirchen Hbf,51.5049,7.102455
352,320,Gelsenkirchen Hbf,51.5049,7.102455
353,507,Gelsenkirchen Hbf,51.5049,7.102455
354,521,Gelsenkirchen Hbf,51.5049,7.102455
355,853,Gelsenkirchen Hbf,51.5049,7.102455
356,1265,Gera Hbf,50.883423,12.077092
357,183,Gera Hbf,50.883423,12.077092
358,907,Gera Hbf,50.883423,12.077092
359,393,Gießen,50.57906,8.661462
360,962,Gießen,50.57906,8.661462
361,119,Gotha,50.93907,10.712568
362,1270,Gotha,50.93907,10.712568
363,464,Gotha,50.93907,10.712568
364,551,Gotha,50.93907,10.712568
365,1097,Greifswald,54.092922,13.370262
366,401,Greifswald,54.092922,13.370262
367,171,Gäufelden,48.55966,8.850308
368,463,Gäufelden,48.55966,8.850308
369,573,Göppingen,48.700027,9.651969
370,68,Göppingen,48.700027,9.651969
371,861,Göppingen,48.700027,9.651969
372,1157,Göttingen,51.536816,9.926072
373,1272,Göttingen,51.536816,9.926072
374,1309,Göttingen,51.536816,9.926072
375,1437,Göttingen,51.536816,9.926072
376,517,Göttingen,51.536816,9.926072
377,695,Göttingen,51.536816,9.926072
378,743,Göttingen,51.536816,9.926072
379,891,Göttingen,51.536816,9.926072
380,999,Göttingen,51.536816,9.926072
381,1076,Günzburg,48.460564,10.279262
382,1121,Günzburg,48.460564,10.279262
383,1336,Günzburg,48.460564,10.279262
384,358,Gütersloh Hbf,51.90694,8.385071
385,444,Gütersloh Hbf,51.90694,8.385071
386,620,Gütersloh Hbf,51.90694,8.385071
387,1013,Hagen Hbf,51.362747,7.460249
388,1058,Hagen Hbf,51.362747,7.460249
389,203,Hagen Hbf,51.362747,7.460249
390,327,Hagen Hbf,51.362747,7.460249
391,349,Hagen Hbf,51.362747,7.460249
392,385,Hagen Hbf,51.362747,7.460249
393,696,Hagen Hbf,51.362747,7.460249
394,758,Hagen Hbf,51.362747,7.460249
395,792,Hagen Hbf,51.362747,7.460249
396,233,Hagenow Land,53.41358,11.215695
397,240,Hagenow Land,53.41358,11.215695
398,144,Halle(Saale)Hbf,51.47751,11.987085
399,177,Halle(Saale)Hbf,51.47751,11.987085
400,750,Halle(Saale)Hbf,51.47751,11.987085
401,76,Halle(Saale)Hbf,51.47751,11.987085
402,769,Halle(Saale)Hbf,51.47751,11.987085
403,1189,Hamburg Dammtor,53.560753,9.989566
404,359,Hamburg Dammtor,53.560753,9.989566
405,870,Hamburg Dammtor,53.560753,9.989566
406,1197,Hamburg Hbf,53.552734,10.006909
407,1329,Hamburg Hbf,53.552734,10.006909
408,192,Hamburg Hbf,53.552734,10.006909
409,216,Hamburg Hbf,53.552734,10.006909
410,279,Hamburg Hbf,53.552734,10.006909
411,280,Hamburg Hbf,53.552734,10.006909
412,381,Hamburg Hbf,53.552734,10.006909
413,640,Hamburg Hbf,53.552734,10.006909
414,682,Hamburg Hbf,53.552734,10.006909
415,69,Hamburg Hbf,53.552734,10.006909
416,79,Hamburg Hbf,53.552734,10.006909
417,889,Hamburg Hbf,53.552734,10.006909
418,1006,Hamburg-Altona,53.552696,9.935175
419,1020,Hamburg-Altona,53.552696,9.935175
420,1312,Hamburg-Altona,53.552696,9.935175
421,289,Hamburg-Altona,53.552696,9.935175
422,35,Hamburg-Altona,53.552696,9.935175
423,417,Hamburg-Altona,53.552696,9.935175
424,879,Hamburg-Altona,53.552696,9.935175
425,884,Hamburg-Altona,53.552696,9.935175
426,1439,Hamburg-Bergedorf,53.489834,10.206171
427,649,Hamburg-Bergedorf,53.489834,10.206171
428,1212,Hamburg-Harburg,53.45591,9.991701
429,1227,Hamburg-Harburg,53.45591,9.991701
430,1360,Hamburg-Harburg,53.45591,9.991701
431,151,Hamburg-Harburg,53.45591,9.991701
432,332,Hamburg-Harburg,53.45591,9.991701
433,658,Hamburg-Harburg,53.45591,9.991701
434,1207,Hamm(Westf)Hbf,51.678078,7.807821
435,274,Hamm(Westf)Hbf,51.678078,7.807821
436,420,Hamm(Westf)Hbf,51.678078,7.807821
437,436,Hamm(Westf)Hbf,51.678078,7.807821
438,473,Hamm(Westf)Hbf,51.678078,7.807821
439,652,Hamm(Westf)Hbf,51.678078,7.807821
440,90,Hamm(Westf)Hbf,51.678078,7.807821
441,995,Hamm(Westf)Hbf,51.678078,7.807821
442,1004,Hanau Hbf,50.120953,8.929
443,1014,Hanau Hbf,50.120953,8.929
444,255,Hanau Hbf,50.120953,8.929
445,549,Hanau Hbf,50.120953,8.929
446,614,Hanau Hbf,50.120953,8.929
447,653,Hanau Hbf,50.120953,8.929
448,1163,Hannover Hbf,52.376762,9.741021
449,1300,Hannover Hbf,52.376762,9.741021
450,1338,Hannover Hbf,52.376762,9.741021
451,214,Hannover Hbf,52.376762,9.741021
452,599,Hannover Hbf,52.376762,9.741021
453,816,Hannover Hbf,52.376762,9.741021
454,848,Hannover Hbf,52.376762,9.741021
455,932,Hannover Hbf,52.376762,9.741021
456,958,Hannover Hbf,52.376762,9.741021
457,993,Hannover Hbf,52.376762,9.741021
458,971,Hannover Messe/Laatzen,52.3169,9.792863
459,1284,Hausach,48.284924,8.181665
460,636,Hausach,48.284924,8.181665
461,1009,Heide(Holst),54.19356,9.101029
462,1304,Heide(Holst),54.19356,9.101029
463,1068,Heidelberg Hbf,49.40357,8.675442
464,208,Heidelberg Hbf,49.40357,8.675442
465,40,Heidelberg Hbf,49.40357,8.675442
466,431,Heidelberg Hbf,49.40357,8.675442
467,550,Heidelberg Hbf,49.40357,8.675442
468,669,Heidelberg Hbf,49.40357,8.675442
469,832,Heidelberg Hbf,49.40357,8.675442
470,918,Heidelberg Hbf,49.40357,8.675442
471,617,Helmstedt,52.222088,11.010553
472,775,Helmstedt,52.222088,11.010553
473,1395,Heppenheim(Bergstr),49.641552,8.633379
474,1423,Heppenheim(Bergstr),49.641552,8.633379
475,11,Herford,52.11961,8.663643
476,113,Herford,52.11961,8.663643
477,362,Herford,52.11961,8.663643
478,1392,Hermsdorf-Klosterlausnitz,50.903778,11.858626
479,824,Hermsdorf-Klosterlausnitz,50.903778,11.858626
480,1026,Herrenberg,48.59399,8.862662
481,530,Herrenberg,48.59399,8.862662
482,1088,Herzogenrath,50.870914,6.094486
483,983,Herzogenrath,50.870914,6.094486
484,929,Hildesheim Gbf,52.157387,9.942379
485,1036,Hildesheim Hbf,52.160625,9.953497
486,1249,Hildesheim Hbf,52.160625,9.953497
487,1040,Homburg(Saar)Hbf,49.328083,7.337035
488,309,Homburg(Saar)Hbf,49.328083,7.337035
489,1364,Horb,48.44147,8.688982
490,917,Horb,48.44147,8.688982
491,1191,Hornberg(Schwarzw),48.211895,8.23294
492,850,Hornberg(Schwarzw),48.211895,8.23294
493,1051,Hude,53.10943,8.460956
494,1199,Hude,53.10943,8.460956
495,1118,Husum,54.47227,9.055026
496,277,Husum,54.47227,9.055026
497,760,Hünfeld,50.67327,9.762453
498,839,Hünfeld,50.67327,9.762453
499,1173,Ibbenbüren,52.276867,7.721486
500,1218,Immendingen,47.93601,8.729536
501,317,Immendingen,47.93601,8.729536
502,1330,Immenstadt,47.559204,10.213999
503,624,Immenstadt,47.559204,10.213999
504,111,Ingolstadt Hbf,48.74454,11.437337
505,1418,Ingolstadt Hbf,48.74454,11.437337
506,689,Ingolstadt Hbf,48.74454,11.437337
507,466,Itzehoe,53.923874,9.510287
508,585,Itzehoe,53.923874,9.510287
509,450,Jena Paradies,50.924854,11.587461
510,502,Jena Paradies,50.924854,11.587461
511,771,Jena Paradies,50.924854,11.587461
512,1213,Jena West,50.923286,11.577848
513,1248,Jena West,50.923286,11.577848
514,1434,Jena-Göschwitz,50.88394,11.593537
515,225,Jena-Göschwitz,50.88394,11.593537
516,392,Jena-Göschwitz,50.88394,11.593537
517,465,Jena-Göschwitz,50.88394,11.593537
518,852,Jena-Göschwitz,50.88394,11.593537
519,355,Kaiserslautern Hbf,49.43614,7.768716
520,896,Kaiserslautern Hbf,49.43614,7.768716
521,1239,Karlsruhe Hbf,48.993515,8.402181
522,1283,Karlsruhe Hbf,48.993515,8.402181
523,1314,Karlsruhe Hbf,48.993515,8.402181
524,1409,Karlsruhe Hbf,48.993515,8.402181
525,271,Karlsruhe Hbf,48.993515,8.402181
526,337,Karlsruhe Hbf,48.993515,8.402181
527,338,Karlsruhe Hbf,48.993515,8.402181
528,382,Karlsruhe Hbf,48.993515,8.402181
529,438,Karlsruhe Hbf,48.993515,8.402181
530,633,Karlsruhe Hbf,48.993515,8.402181
531,753,Karlsruhe Hbf,48.993515,8.402181
532,809,Karlsruhe Hbf,48.993515,8.402181
533,1117,Karlsruhe-Durlach,49.002327,8.462822
534,1404,Karlsruhe-Durlach,49.002327,8.462822
535,207,Karlsruhe-Durlach,49.002327,8.462822
536,437,Karlsruhe-Durlach,49.002327,8.462822
537,1260,Kassel-Wilhelmshöhe,51.313114,9.446898
538,1441,Kassel-Wilhelmshöhe,51.313114,9.446898
539,24,Kassel-Wilhelmshöhe,51.313114,9.446898
540,249,Kassel-Wilhelmshöhe,51.313114,9.446898
541,65,Kassel-Wilhelmshöhe,51.313114,9.446898
542,802,Kassel-Wilhelmshöhe,51.313114,9.446898
543,945,Kassel-Wilhelmshöhe,51.313114,9.446898
544,1164,Kaufbeuren,47.87543,10.629496
545,597,Kaufbeuren,47.87543,10.629496
546,424,Kehl(Gr),48.575645,7.801118
547,1214,Kempten(Allgäu)Hbf,47.711746,10.31761
548,578,Kempten(Allgäu)Hbf,47.711746,10.31761
549,1340,Kiel Hbf,54.314983,10.131976
550,1069,Koblenz Hbf,50.35093,7.588345
551,1282,Koblenz Hbf,50.35093,7.588345
552,235,Koblenz Hbf,50.35093,7.588345
553,344,Koblenz Hbf,50.35093,7.588345
554,729,Koblenz Hbf,50.35093,7.588345
555,762,Koblenz Hbf,50.35093,7.588345
556,100,Konstanz,47.658752,9.177312
557,449,Konstanz,47.658752,9.177312
558,213,Krefeld Hbf,51.325718,6.569885
559,53,Krefeld Hbf,51.325718,6.569885
560,730,Krefeld Hbf,51.325718,6.569885
561,1367,Kreiensen,51.85142,9.967798
562,604,Kreiensen,51.85142,9.967798
563,693,Kreiensen,51.85142,9.967798
564,1155,Kronach,50.239613,11.320115
565,828,Kronach,50.239613,11.320115
566,10,Köln Hbf,50.94303,6.958729
567,1049,Köln Hbf,50.94303,6.958729
568,1052,Köln Hbf,50.94303,6.958729
569,1100,Köln Hbf,50.94303,6.958729
570,1110,Köln Hbf,50.94303,6.958729
571,1180,Köln Hbf,50.94303,6.958729
572,1201,Köln Hbf,50.94303,6.958729
573,1398,Köln Hbf,50.94303,6.958729
574,15,Köln Hbf,50.94303,6.958729
575,221,Köln Hbf,50.94303,6.958729
576,248,Köln Hbf,50.94303,6.958729
577,345,Köln Hbf,50.94303,6.958729
578,387,Köln Hbf,50.94303,6.958729
579,670,Köln Hbf,50.94303,6.958729
580,790,Köln Hbf,50.94303,6.958729
581,814,Köln Hbf,50.94303,6.958729
582,874,Köln Hbf,50.94303,6.958729
583,904,Köln Hbf,50.94303,6.958729
584,941,Köln Hbf,50.94303,6.958729
585,950,Köln Hbf,50.94303,6.958729
586,1361,Köln Messe/Deutz,50.940872,6.975001
587,1241,Köln Messe/Deutz Gl.11-12,50.941723,6.974067
588,774,Köln Messe/Deutz Gl.11-12,50.941723,6.974067
589,944,Köln Messe/Deutz Gl.11-12,50.941723,6.974067
590,1316,Köln-Ehrenfeld,50.951534,6.917276
591,1379,Köln-Ehrenfeld,50.951534,6.917276
592,822,Köln-Ehrenfeld,50.951534,6.917276
593,1092,Köln/Bonn Flughafen,50.878902,7.119302
594,1232,Köln/Bonn Flughafen,50.878902,7.119302
595,272,Köln/Bonn Flughafen,50.878902,7.119302
596,707,Königs Wusterhausen,52.296635,13.631472
597,84,Köthen,51.75193,11.989358
598,875,Köthen,51.75193,11.989358
599,168,Lahr(Schwarzw),48.340435,7.834734
600,810,Lahr(Schwarzw),48.340435,7.834734
601,364,Landstuhl,49.416286,7.565931
602,230,Langenhagen Mitte,52.440277,9.725427
603,596,Langenhagen Mitte,52.440277,9.725427
604,1198,Leer(Ostfriesl),53.23165,7.465283
605,142,Leer(Ostfriesl),53.23165,7.465283
606,462,Leer(Ostfriesl),53.23165,7.465283
607,1280,Leipzig Hbf,51.34547,12.382064
608,1370,Leipzig Hbf,51.34547,12.382064
609,187,Leipzig Hbf,51.34547,12.382064
610,190,Leipzig Hbf,51.34547,12.382064
611,197,Leipzig Hbf,51.34547,12.382064
612,301,Leipzig Hbf,51.34547,12.382064
613,421,Leipzig Hbf,51.34547,12.382064
614,732,Leipzig Hbf,51.34547,12.382064
615,91,Leipzig Hbf,51.34547,12.382064
616,928,Leipzig Hbf,51.34547,12.382064
617,1162,Leipzig/Halle Flughafen,51.42334,12.223426
618,1350,Leipzig/Halle Flughafen,51.42334,12.223426
619,269,Leipzig/Halle Flughafen,51.42334,12.223426
620,428,Lichtenfels,50.146454,11.059472
621,560,Lichtenfels,50.146454,11.059472
622,827,Lichtenfels,50.146454,11.059472
623,351,Limburg Süd,50.3825,8.096112
624,589,Limburg Süd,50.3825,8.096112
625,1422,Lindau-Insel,47.544342,9.680469
626,1140,Lindau-Reutin,47.552383,9.703292
627,1235,Lindau-Reutin,47.552383,9.703292
628,960,Lindau-Reutin,47.552383,9.703292
629,1237,Lingen(Ems),52.519867,7.321731
630,1023,Lippstadt,51.67069,8.348785
631,1046,Lippstadt,51.67069,8.348785
632,237,Ludwigsburg,48.89186,9.18542
633,511,Ludwigsburg,48.89186,9.18542
634,85,Ludwigsburg,48.89186,9.18542
635,1415,Ludwigshafen(Rh)Hbf,49.477985,8.433402
636,616,Ludwigshafen(Rh)Hbf,49.477985,8.433402
637,1274,Ludwigslust,53.33467,11.494491
638,645,Ludwigslust,53.33467,11.494491
639,621,Lutherstadt Wittenberg Hbf,51.86781,12.662285
640,766,Lutherstadt Wittenberg Hbf,51.86781,12.662285
641,800,Lutherstadt Wittenberg Hbf,51.86781,12.662285
642,1278,Lübben(Spreewald),51.939735,13.877182
643,613,Lübben(Spreewald),51.939735,13.877182
644,837,Lübbenau(Spreewald),51.862167,13.9609
645,866,Lübbenau(Spreewald),51.862167,13.9609
646,1044,Lübeck Hbf,53.867546,10.669821
647,1132,Lübeck Hbf,53.867546,10.669821
648,1200,Lübeck Hbf,53.867546,10.669821
649,1372,Lüneburg,53.249657,10.41989
650,1431,Lüneburg,53.249657,10.41989
651,328,Lüneburg,53.249657,10.41989
652,410,Lüneburg,53.249657,10.41989
653,101,Magdeburg Hbf,52.13035,11.626891
654,1043,Magdeburg Hbf,52.13035,11.626891
655,1158,Magdeburg Hbf,52.13035,11.626891
656,1256,Magdeburg Hbf,52.13035,11.626891
657,1261,Magdeburg Hbf,52.13035,11.626891
658,1424,Magdeburg Hbf,52.13035,11.626891
659,835,Magdeburg Hbf,52.13035,11.626891
660,1095,Mainz Hbf,50.001118,8.25872
661,1407,Mainz Hbf,50.001118,8.25872
662,1428,Mainz Hbf,50.001118,8.25872
663,1436,Mainz Hbf,50.001118,8.25872
664,671,Mainz Hbf,50.001118,8.25872
665,705,Mainz Hbf,50.001118,8.25872
666,1210,Mannheim Hbf,49.479355,8.468921
667,1405,Mannheim Hbf,49.479355,8.468921
668,709,Mannheim Hbf,49.479355,8.468921
669,833,Mannheim Hbf,49.479355,8.468921
670,901,Mannheim Hbf,49.479355,8.468921
671,910,Mannheim Hbf,49.479355,8.468921
672,952,Mannheim Hbf,49.479355,8.468921
673,34,Marburg(Lahn),50.81927,8.775014
674,62,Marburg(Lahn),50.81927,8.775014
675,1099,Marienhafe,53.519238,7.27436
676,458,Marienhafe,53.519238,7.27436
677,379,Memmingen,47.98558,10.186853
678,674,Memmingen,47.98558,10.186853
679,146,Meppen,52.696022,7.298015
680,361,Meppen,52.696022,7.298015
681,1176,Metzingen(Württ),48.539726,9.290156
682,728,Metzingen(Württ),48.539726,9.290156
683,173,Minden(Westf),52.29014,8.934728
684,268,Minden(Westf),52.29014,8.934728
685,501,Minden(Westf),52.29014,8.934728
686,862,Minden(Westf),52.29014,8.934728
687,191,Mittenwald,47.44003,11.265705
688,82,Mittenwald,47.44003,11.265705
689,459,Mittenwald(Gr),47.39807,11.267441
690,1114,Montabaur,50.444836,7.825333
691,623,Montabaur,50.444836,7.825333
692,261,Murnau,47.682266,11.192628
693,546,Murnau,47.682266,11.192628
694,737,Murnau,47.682266,11.192628
695,1045,Mönchengladbach Hbf,51.196583,6.446111
696,1047,Mönchengladbach Hbf,51.196583,6.446111
697,1327,Mönchengladbach Hbf,51.196583,6.446111
698,324,Mönchengladbach Hbf,51.196583,6.446111
699,855,Mönchengladbach Hbf,51.196583,6.446111
700,1318,Mühlacker,48.953194,8.846101
701,934,Mühlacker,48.953194,8.846101
702,1103,Mülheim(Ruhr)Hbf,51.431343,6.88651
703,1442,Mülheim(Ruhr)Hbf,51.431343,6.88651
704,167,Mülheim(Ruhr)Hbf,51.431343,6.88651
705,298,Müllheim(Baden),47.809742,7.599332
706,50,Müllheim(Baden),47.809742,7.599332
707,1174,München Hbf,48.140232,11.558335
708,1190,München Hbf,48.140232,11.558335
709,1194,München Hbf,48.140232,11.558335
710,152,München Hbf,48.140232,11.558335
711,181,München Hbf,48.140232,11.558335
712,302,München Hbf,48.140232,11.558335
713,532,München Hbf,48.140232,11.558335
714,562,München Hbf,48.140232,11.558335
715,628,München Hbf,48.140232,11.558335
716,631,München Hbf,48.140232,11.558335
717,655,München Hbf,48.140232,11.558335
718,725,München Hbf,48.140232,11.558335
719,779,München Hbf,48.140232,11.558335
720,803,München Hbf,48.140232,11.558335
721,811,München Hbf,48.140232,11.558335
722,821,München Hbf,48.140232,11.558335
723,989,München Hbf,48.140232,11.558335
724,27,München Hbf Gl.27-36,48.14153,11.556708
725,32,München Hbf Gl.27-36,48.14153,11.556708
726,609,München Hbf Gl.27-36,48.14153,11.556708
727,680,München Hbf Gl.27-36,48.14153,11.556708
728,887,München Hbf Gl.27-36,48.14153,11.556708
729,577,München Ost,48.12744,11.604971
730,662,München Ost,48.12744,11.604971
731,905,München Ost,48.12744,11.604971
732,1317,München-Pasing,48.149853,11.461872
733,594,München-Pasing,48.149853,11.461872
734,708,München-Pasing,48.149853,11.461872
735,1048,Münster(Westf)Hbf,51.956566,7.635715
736,1146,Münster(Westf)Hbf,51.956566,7.635715
737,1345,Münster(Westf)Hbf,51.956566,7.635715
738,1384,Münster(Westf)Hbf,51.956566,7.635715
739,353,Münster(Westf)Hbf,51.956566,7.635715
740,390,Münster(Westf)Hbf,51.956566,7.635715
741,763,Münster(Westf)Hbf,51.956566,7.635715
742,1307,Naumburg(Saale)Hbf,51.16307,11.796984
743,291,Naumburg(Saale)Hbf,51.16307,11.796984
744,325,Naumburg(Saale)Hbf,51.16307,11.796984
745,356,Neu-Ulm,48.39304,10.004823
746,519,Neu-Ulm,48.39304,10.004823
747,581,Neumünster,54.075752,9.979816
748,667,Neumünster,54.075752,9.979816
749,699,Neumünster,54.075752,9.979816
750,1033,Neustadt(Weinstr)Hbf,49.349552,8.140757
751,1255,Neustadt(Weinstr)Hbf,49.349552,8.140757
752,556,Neustrelitz Hbf,53.359257,13.074603
753,930,Neustrelitz Hbf,53.359257,13.074603
754,710,Niebüll,54.789604,8.834572
755,788,Niebüll,54.789604,8.834572
756,140,Nienburg(Weser),52.645565,9.217753
757,54,Nienburg(Weser),52.645565,9.217753
758,461,Norddeich,53.62158,7.160824
759,722,Norddeich,53.62158,7.160824
760,1179,Norddeich Mole,53.624313,7.158806
761,1082,Norden,53.588196,7.218913
762,483,Norden,53.588196,7.218913
763,1341,Northeim(Han),51.70314,9.986618
764,319,Northeim(Han),51.70314,9.986618
765,1029,Nürnberg Hbf,49.445618,11.082989
766,1034,Nürnberg Hbf,49.445618,11.082989
767,148,Nürnberg Hbf,49.445618,11.082989
768,229,Nürnberg Hbf,49.445618,11.082989
769,284,Nürnberg Hbf,49.445618,11.082989
770,297,Nürnberg Hbf,49.445618,11.082989
771,499,Nürnberg Hbf,49.445618,11.082989
772,656,Nürnberg Hbf,49.445618,11.082989
773,826,Nürnberg Hbf,49.445618,11.082989
774,893,Nürnberg Hbf,49.445618,11.082989
775,110,Nürtingen,48.628,9.342648
776,801,Nürtingen,48.628,9.342648
777,1294,Oberhausen Hbf,51.474876,6.851588
778,890,Oberhausen Hbf,51.474876,6.851588
779,900,Oberhausen Hbf,51.474876,6.851588
780,1144,Oberndorf(Neckar),48.29567,8.575514
781,1396,Oberndorf(Neckar),48.29567,8.575514
782,1150,Oberstdorf,47.411034,10.278097
783,1391,Oberstdorf,47.411034,10.278097
784,1019,Offenburg,48.476475,7.946723
785,1077,Offenburg,48.476475,7.946723
786,1134,Offenburg,48.476475,7.946723
787,541,Offenburg,48.476475,7.946723
788,892,Offenburg,48.476475,7.946723
789,986,Offenburg,48.476475,7.946723
790,1211,Oldenburg(Oldb),53.14432,8.222713
791,341,Oldenburg(Oldb),53.14432,8.222713
792,346,Oldenburg(Oldb),53.14432,8.222713
793,399,Oldenburg(Oldb),53.14432,8.222713
794,512,Oldenburg(Oldb),53.14432,8.222713
795,924,Oldenburg(Oldb),53.14432,8.222713
796,500,Oranienburg,52.753654,13.249613
797,6,Oranienburg,52.753654,13.249613
798,1175,Osnabrück Hbf,52.27285,8.061781
799,1185,Osnabrück Hbf,52.27285,8.061781
800,1371,Osnabrück Hbf,52.27285,8.061781
801,223,Osnabrück Hbf,52.27285,8.061781
802,285,Osnabrück Hbf,52.27285,8.061781
803,286,Ostseebad Binz,54.40482,13.600507
804,608,Ostseebad Binz,54.40482,13.600507
805,83,Paderborn Hbf,51.71298,8.740505
806,943,Paderborn Hbf,51.71298,8.740505
807,1055,Papenburg(Ems),53.089706,7.386708
808,1081,Papenburg(Ems),53.089706,7.386708
809,795,Pasewalk,53.515354,13.988875
810,937,Pasewalk,53.515354,13.988875
811,1072,Passau Hbf,48.57363,13.450776
812,1171,Passau Hbf,48.57363,13.450776
813,598,Passau Hbf,48.57363,13.450776
814,211,Peine,52.318943,10.232145
815,793,Peine,52.318943,10.232145
816,1390,Pforzheim Hbf,48.894154,8.703099
817,469,Pforzheim Hbf,48.894154,8.703099
818,644,Pforzheim Hbf,48.894154,8.703099
819,1178,Plattling,48.779617,12.86394
820,1226,Plattling,48.779617,12.86394
821,412,Plattling,48.779617,12.86394
822,1065,Plochingen,48.71308,9.41081
823,1217,Plochingen,48.71308,9.41081
824,172,Plochingen,48.71308,9.41081
825,452,Plochingen,48.71308,9.41081
826,561,Plochingen,48.71308,9.41081
827,849,Plochingen,48.71308,9.41081
828,871,Plochingen,48.71308,9.41081
829,1243,Potsdam Hbf,52.39151,13.066703
830,1247,Potsdam Hbf,52.39151,13.066703
831,738,Potsdam Hbf,52.39151,13.066703
832,1322,Prenzlau,53.32161,13.866532
833,877,Prenzlau,53.32161,13.866532
834,1281,Prien a Chiemsee,47.855515,12.346615
835,224,Prien a Chiemsee,47.855515,12.346615
836,408,Radolfzell,47.735874,8.968984
837,994,Radolfzell,47.735874,8.968984
838,23,Rastatt,48.86048,8.215623
839,663,Rastatt,48.86048,8.215623
840,1356,Ravensburg,47.78448,9.6061
841,322,Ravensburg,47.78448,9.6061
842,1400,Recklinghausen Hbf,51.61636,7.20349
843,615,Recklinghausen Hbf,51.61636,7.20349
844,894,Recklinghausen Hbf,51.61636,7.20349
845,1141,Regensburg Hbf,49.011673,12.099617
846,158,Regensburg Hbf,49.011673,12.099617
847,234,Regensburg Hbf,49.011673,12.099617
848,334,Remagen,50.577213,7.229779
849,524,Remagen,50.577213,7.229779
850,678,Remagen,50.577213,7.229779
851,739,Remagen,50.577213,7.229779
852,1039,Rendsburg,54.30226,9.671134
853,486,Rendsburg,54.30226,9.671134
854,1389,Reutlingen Hbf,48.49608,9.209116
855,778,Reutlingen Hbf,48.49608,9.209116
856,1205,Rheine,52.2763,7.434255
857,531,Rheine,52.2763,7.434255
858,651,Rheine,52.2763,7.434255
859,854,Rheine,52.2763,7.434255
860,1135,Rheydt Hbf,51.16303,6.439564
861,1342,Rheydt Hbf,51.16303,6.439564
862,270,Rheydt Hbf,51.16303,6.439564
863,1375,Ribnitz-Damgarten West,54.239178,12.436965
864,29,Ribnitz-Damgarten West,54.239178,12.436965
865,263,Riesa,51.309654,13.287734
866,422,Riesa,51.309654,13.287734
867,1012,Ringsheim,48.248726,7.773037
868,1136,Ringsheim,48.248726,7.773037
869,1435,Rosenheim,47.850018,12.119202
870,514,Rosenheim,47.850018,12.119202
871,571,Rosenheim,47.850018,12.119202
872,646,Rosenheim,47.850018,12.119202
873,916,Rosenheim,47.850018,12.119202
874,948,Rosenheim,47.850018,12.119202
875,1225,Rostock Hbf,54.078247,12.131079
876,1301,Rostock Hbf,54.078247,12.131079
877,259,Rostock Hbf,54.078247,12.131079
878,555,Rostock Hbf,54.078247,12.131079
879,128,Rottweil,48.165302,8.639295
880,398,Rottweil,48.165302,8.639295
881,1271,Saalfeld(Saale),50.650272,11.374583
882,1397,Saalfeld(Saale),50.650272,11.374583
883,715,Saalfeld(Saale),50.650272,11.374583
884,1153,Saarbrücken Hbf,49.241066,6.991021
885,33,Saarbrücken Hbf,49.241066,6.991021
886,942,Saarbrücken Hbf,49.241066,6.991021
887,103,Salzwedel,52.858112,11.162035
888,367,Salzwedel,52.858112,11.162035
889,687,Schleswig,54.49946,9.53814
890,717,Schleswig,54.49946,9.53814
891,5,Schlüchtern,50.34118,9.510039
892,476,Schorndorf,48.80715,9.52631
893,637,Schorndorf,48.80715,9.52631
894,906,Schwerin Hbf,53.63474,11.407455
895,967,Schwerin Hbf,53.63474,11.407455
896,231,Schwäbisch Gmünd,48.80101,9.787795
897,93,Schwäbisch Gmünd,48.80101,9.787795
898,1041,Schöna(Gr),50.860054,14.222133
899,1290,Siegburg/Bonn,50.793915,7.203026
900,209,Siegburg/Bonn,50.793915,7.203026
901,841,Siegburg/Bonn,50.793915,7.203026
902,1079,Singen(Hohentwiel),47.75844,8.840383
903,1386,Singen(Hohentwiel),47.75844,8.840383
904,149,Singen(Hohentwiel),47.75844,8.840383
905,222,Singen(Hohentwiel),47.75844,8.840383
906,432,Singen(Hohentwiel),47.75844,8.840383
907,1152,Soest,51.57842,8.104589
908,1219,Soest,51.57842,8.104589
909,109,Solingen Hbf,51.160767,7.004187
910,1129,Solingen Hbf,51.160767,7.004187
911,1257,Solingen Hbf,51.160767,7.004187
912,964,Solingen Hbf,51.160767,7.004187
913,1374,Sonthofen,47.51324,10.272344
914,1125,Spaichingen,48.06899,8.740147
915,174,Spaichingen,48.06899,8.740147
916,73,St Georgen(Schwarzw),48.123814,8.341955
917,777,St Georgen(Schwarzw),48.123814,8.341955
918,166,Stadtroda,50.868217,11.722792
919,489,Stadtroda,50.868217,11.722792
920,547,Steinach(b Rothenburg ob der Tauber),49.453217,10.273535
921,81,Steinach(b Rothenburg ob der Tauber),49.453217,10.273535
922,1184,Stendal Hbf,52.594723,11.854412
923,545,Stendal Hbf,52.594723,11.854412
924,926,Stendal Hbf,52.594723,11.854412
925,1250,Stralsund Hbf,54.308624,13.077321
926,131,Stralsund Hbf,54.308624,13.077321
927,206,Stralsund Hbf,54.308624,13.077321
928,239,Stralsund Hbf,54.308624,13.077321
929,278,Stralsund Hbf,54.308624,13.077321
930,976,Stralsund Hbf,54.308624,13.077321
931,1098,Straubing,48.87698,12.574094
932,1143,Straubing,48.87698,12.574094
933,754,Straubing,48.87698,12.574094
934,1003,Stuttgart Hbf,48.784084,9.181635
935,1128,Stuttgart Hbf,48.784084,9.181635
936,1166,Stuttgart Hbf,48.784084,9.181635
937,1221,Stuttgart Hbf,48.784084,9.181635
938,123,Stuttgart Hbf,48.784084,9.181635
939,1245,Stuttgart Hbf,48.784084,9.181635
940,134,Stuttgart Hbf,48.784084,9.181635
941,138,Stuttgart Hbf,48.784084,9.181635
942,310,Stuttgart Hbf,48.784084,9.181635
943,39,Stuttgart Hbf,48.784084,9.181635
944,409,Stuttgart Hbf,48.784084,9.181635
945,411,Stuttgart Hbf,48.784084,9.181635
946,47,Stuttgart Hbf,48.784084,9.181635
947,605,Stuttgart Hbf,48.784084,9.181635
948,867,Stuttgart Hbf,48.784084,9.181635
949,931,Stuttgart Hbf,48.784084,9.181635
950,1288,Sulz(Neckar),48.366486,8.636748
951,1066,Traunstein,47.869728,12.638801
952,626,Traunstein,47.869728,12.638801
953,423,Treuchtlingen,48.961266,10.908159
954,542,Treuchtlingen,48.961266,10.908159
955,711,Treuchtlingen,48.961266,10.908159
956,881,Treuchtlingen,48.961266,10.908159
957,1056,Treysa,50.91066,9.185673
958,714,Treysa,50.91066,9.185673
959,1427,Triberg,48.140003,8.236806
960,639,Triberg,48.140003,8.236806
961,1104,Tuttlingen,47.98058,8.798542
962,1222,Tuttlingen,47.98058,8.798542
963,566,Tutzing,47.907143,11.27289
964,574,Tutzing,47.907143,11.27289
965,1090,Tübingen Hbf,48.515812,9.055407
966,17,Tübingen Hbf,48.515812,9.055407
967,513,Tübingen Hbf,48.515812,9.055407
968,1215,Uelzen,52.96978,10.553053
969,137,Uelzen,52.96978,10.553053
970,1403,Uelzen,52.96978,10.553053
971,176,Uelzen,52.96978,10.553053
972,1007,Ulm Hbf,48.399437,9.982227
973,1127,Ulm Hbf,48.399437,9.982227
974,1393,Ulm Hbf,48.399437,9.982227
975,440,Ulm Hbf,48.399437,9.982227
976,797,Ulm Hbf,48.399437,9.982227
977,899,Ulm Hbf,48.399437,9.982227
978,953,Ulm Hbf,48.399437,9.982227
979,1011,Unna,51.538982,7.692858
980,1302,Vaihingen(Enz),48.948116,8.957632
981,495,Vaihingen(Enz),48.948116,8.957632
982,527,Vaihingen(Enz),48.948116,8.957632
983,860,Vaihingen(Enz),48.948116,8.957632
984,87,Vaihingen(Enz),48.948116,8.957632
985,1311,Velgast,54.277317,12.803137
986,1106,Venlo(Gr),51.340893,6.192712
987,1063,Verden(Aller),52.92082,9.237855
988,1154,Verden(Aller),52.92082,9.237855
989,505,Viersen,51.254948,6.403896
990,7,Viersen,51.254948,6.403896
991,859,Villingen(Schwarzw),48.05802,8.465261
992,1005,Wabern(Bz Kassel),51.103134,9.35804
993,1202,Wabern(Bz Kassel),51.103134,9.35804
994,1296,Wanne-Eickel Hbf,51.531258,7.165783
995,493,Wanne-Eickel Hbf,51.531258,7.165783
996,659,Wanne-Eickel Hbf,51.531258,7.165783
997,733,Wanne-Eickel Hbf,51.531258,7.165783
998,1130,Warburg(Westf),51.492954,9.163845
999,254,Warburg(Westf),51.492954,9.163845
1000,1126,Waren(Müritz),53.52151,12.680678
1001,368,Waren(Müritz),53.52151,12.680678
1002,78,Warnemünde,54.176853,12.091271
1003,1028,Weil am Rhein,47.59397,7.608419
1004,1365,Weilheim(Oberbay),47.845364,11.14286
1005,185,Weilheim(Oberbay),47.845364,11.14286
1006,1080,Weimar,50.991486,11.326458
1007,242,Weimar,50.991486,11.326458
1008,336,Weimar,50.991486,11.326458
1009,67,Weimar,50.991486,11.326458
1010,1337,Weinheim(Bergstr)Hbf,49.553303,8.665351
1011,925,Weinheim(Bergstr)Hbf,49.553303,8.665351
1012,954,Weinheim(Bergstr)Hbf,49.553303,8.665351
1013,756,Weißenfels,51.204617,11.970926
1014,940,Weißenfels,51.204617,11.970926
1015,558,Westerland(Sylt),54.906837,8.310925
1016,115,Westerstede-Ocholt,53.202168,7.886468
1017,1412,Westerstede-Ocholt,53.202168,7.886468
1018,86,Wiesbaden Hbf,50.07079,8.243731
1019,911,Wiesbaden Hbf,50.07079,8.243731
1020,204,Wiesloch-Walldorf,49.29135,8.664146
1021,416,Wiesloch-Walldorf,49.29135,8.664146
1022,603,Wiesloch-Walldorf,49.29135,8.664146
1023,764,Wiesloch-Walldorf,49.29135,8.664146
1024,380,Wittenberge,53.003117,11.762871
1025,912,Wittenberge,53.003117,11.762871
1026,1133,Wolfsburg Hbf,52.429497,10.787784
1027,1138,Wolfsburg Hbf,52.429497,10.787784
1028,1286,Wolfsburg Hbf,52.429497,10.787784
1029,745,Wolfsburg Hbf,52.429497,10.787784
1030,117,Worms Hbf,49.63494,8.356448
1031,526,Worms Hbf,49.63494,8.356448
1032,1236,Wuppertal Hbf,51.254364,7.149543
1033,1291,Wuppertal Hbf,51.254364,7.149543
1034,1002,Würzburg Hbf,49.801796,9.93578
1035,124,Würzburg Hbf,49.801796,9.93578
1036,1352,Würzburg Hbf,49.801796,9.93578
1037,150,Würzburg Hbf,49.801796,9.93578
1038,404,Würzburg Hbf,49.801796,9.93578
1039,523,Würzburg Hbf,49.801796,9.93578
1040,58,Würzburg Hbf,49.801796,9.93578
1041,1332,Züssow,53.97388,13.548191
1042,567,Züssow,53.97388,13.548191
1043,38,Übersee,47.82205,12.487338
1044,834,Übersee,47.82205,12.487338
