node_id,stop_id,stop_name,stop_lat,stop_lon
0,362176,Adolfstraße,51.49738,11.964546
1,130641,Albert-Einstein-Straße,51.481678,11.926103
2,347399,Albert-Einstein-Straße,51.4817,11.925485
3,121352,Alfred-Oelßner-Straße,51.50779,11.882423
4,337500,Alfred-Oelßner-Straße,51.50841,11.882015
5,7343,Alfred-Oelßner-Straße,51.50807,11.881634
6,183662,Alfred-Reinhardt-Straße,51.42515,11.990167
7,382867,Alfred-Reinhardt-Straße,51.42484,11.989715
8,155424,Alfred-Schneider-Straße,51.47858,12.019005
9,365230,Alfred-Schneider-Straße,51.47854,12.019031
10,378617,Alte Heerstraße,51.429768,11.974906
11,50760,Alte Heerstraße,51.429886,11.974784
12,100145,Altenburger Straße,51.477318,12.041123
13,103376,Altenburger Straße,51.47788,12.03998
14,285341,Am Breiten Pfuhl,51.453228,11.972936
15,95744,Am Breiten Pfuhl,51.45322,11.972906
16,106888,Am Bruchsee,51.481274,11.92062
17,117627,Am Bruchsee,51.481594,11.918913
18,125348,Am Bruchsee,51.481346,11.920308
19,165054,Am Bruchsee,51.481808,11.920078
20,150522,Am Grünen Feld,51.456753,11.977943
21,318872,Am Grünen Feld,51.456825,11.97825
22,429042,Am Grünen Feld,51.456768,11.977944
23,131628,Am Hechtgraben,51.5135,11.909988
24,178324,Am Hechtgraben,51.513504,11.909902
25,288399,Am Hechtgraben,51.513878,11.910459
26,299025,Am Heidebad,51.482147,11.891863
27,323403,Am Heidebad,51.482323,11.891111
28,386752,Am Heiderand,51.49921,11.928192
29,89728,Am Heiderand,51.499046,11.927994
30,265493,Am Heidesee,51.489758,11.903837
31,341865,Am Heidesee,51.489723,11.903749
32,115884,Am Klausberg,51.50875,11.961784
33,52222,Am Klausberg,51.50872,11.96184
34,130059,Am Leipziger Turm,51.478462,11.976997
35,245359,Am Leipziger Turm,51.477757,11.977843
36,290550,Am Leipziger Turm,51.478535,11.977016
37,345608,Am Leipziger Turm,51.478443,11.976967
38,115517,Am Sommerbad,51.43494,11.984291
39,252825,Am Sommerbad,51.434986,11.984164
40,434302,Am Sommerbad,51.434086,11.983961
41,9634,Am Sommerbad,51.43407,11.984119
42,190870,Am Stadion,51.48129,11.911405
43,30721,Am Stadion,51.481213,11.911616
44,319820,Am Steintor,51.488018,11.977432
45,36640,Am Steintor,51.488327,11.978662
46,395652,Am Steintor,51.4876,11.977564
47,445980,Am Steintor,51.487984,11.977286
48,451997,Am Steintor,51.48886,11.978553
49,57452,Am Steintor,51.48833,11.978576
50,71626,Am Steintor,51.488422,11.978467
51,96765,Am Steintor,51.488094,11.977495
52,119244,Am Waldrand,51.51111,11.897026
53,88680,Am Waldrand,51.51104,11.897267
54,183153,Am Wasserturm,51.493225,11.981848
55,410263,Am Wasserturm,51.493217,11.98179
56,116267,Ammendorf,51.42489,11.986756
57,316086,Ammendorf,51.424496,11.98663
58,348517,Ammendorf,51.42455,11.986619
59,364820,Ammendorf,51.424686,11.986613
60,313798,Ammendorfer Weg,51.462715,11.95546
61,149891,An der Eselsmühle,51.47893,11.904603
62,297012,An der Eselsmühle,51.47905,11.904078
63,407889,An der Eselsmühle,51.479023,11.904091
64,451122,An der Eselsmühle,51.479168,11.905137
65,128534,An der Feuerwache,51.480885,11.936204
66,211766,An der Feuerwache,51.480972,11.934107
67,301280,An der Feuerwache,51.480843,11.934257
68,362182,An der Feuerwache,51.480385,11.935034
69,416772,An der Feuerwache,51.48081,11.934269
70,285088,Anhalter Platz,51.437542,11.966061
71,380035,Anhalter Platz,51.437447,11.965997
72,382261,Ankerstraße,51.482494,11.963753
73,63315,Ankerstraße,51.482216,11.963274
74,197515,Apoldaer Str./Birkhahnweg,51.494766,12.007371
75,243636,Apoldaer Str./Birkhahnweg,51.494736,12.007585
76,166887,Apoldaer Straße,51.490208,12.005659
77,429741,Apoldaer Straße,51.49021,12.005588
78,308561,Auenblick,51.473034,12.030256
79,75523,Auenblick,51.473145,12.030134
80,115299,BB1 (Hof),51.485023,11.996016
81,25245,BB1 (Hof),51.487846,11.997554
82,176362,BB3 (Hof),51.44237,11.987681
83,211875,BB3 (Hof),51.44254,11.987736
84,207582,BG Klinikum Bergmannstrost,51.460297,11.983787
85,295868,BG Klinikum Bergmannstrost,51.459694,11.983834
86,119302,Beesen,51.432415,11.966506
87,211119,Beesen,51.432804,11.967135
88,352910,Beesen,51.43276,11.967175
89,55831,Beesen,51.43283,11.967122
90,281856,Begonienstraße,51.48535,11.938464
91,74566,Begonienstraße,51.484783,11.938456
92,139923,Berliner Brücke,51.488106,11.994331
93,184509,Berliner Brücke,51.48819,11.994236
94,255914,Berliner Brücke,51.489807,11.995753
95,355309,Berliner Brücke,51.48947,11.995486
96,304554,Bertha-von-Suttner-Platz,51.491188,11.927951
97,394861,Bertha-von-Suttner-Platz,51.491436,11.927391
98,207038,Bertolt-Brecht-Weg,51.438538,11.952344
99,281192,Bertolt-Brecht-Weg,51.43854,11.952431
100,152982,Betriebshof Freiimfelder Str.,51.484432,11.994609
101,226256,Betriebshof Freiimfelder Str.,51.485023,11.994734
102,261376,Betriebshof Freiimfelder Str.,51.484795,11.995151
103,379751,Betriebshof Freiimfelder Str.,51.484795,11.994488
104,221881,Betriebshof Rosengarten,51.438934,11.983415
105,378125,Betriebshof Rosengarten,51.439945,11.984085
106,387370,Betriebshof Rosengarten,51.438084,11.984078
107,405196,Betriebshof Rosengarten,51.43899,11.98513
108,59891,Betriebshof Rosengarten,51.43743,11.983949
109,400416,Bhf. Kossmann Ausfahrt,51.49234,11.999347
110,143335,Bhf. Kossmann Einfahrt,51.492355,11.999406
111,189823,Bhf. OBS Ausfahrt,51.4699,11.901107
112,240879,Bhf. OBS Einfahrt,51.469948,11.90098
113,109520,Binnenhafenstraße,51.524654,11.942149
114,359290,Binnenhafenstraße,51.524952,11.942845
115,89122,Binnenhafenstraße,51.524364,11.942966
116,95962,Bitterfelder Straße,51.478615,12.0254
117,9677,Bitterfelder Straße,51.478603,12.025428
118,259615,Blumenau,51.51587,11.909793
119,299004,Blumenau,51.515285,11.909742
120,211183,Blücherstraße,51.48947,11.942243
121,73740,Blücherstraße,51.489574,11.942437
122,171000,Braunschweiger Bogen,51.480015,11.898653
123,269868,Braunschweiger Bogen,51.48006,11.898556
124,424818,Braunschweiger Bogen,51.4801,11.8985
125,125366,Bremer Straße,51.443817,11.945089
126,168987,Bremer Straße,51.444695,11.944469
127,290760,Bremer Straße,51.444714,11.944556
128,365488,Bremer Straße,51.443794,11.945245
129,135982,Bruckdorf,51.44644,12.027228
130,15178,Bruckdorf,51.446404,12.027312
131,271512,Brühlstraße,51.433372,11.963892
132,61804,Brühlstraße,51.433704,11.963842
133,105657,Burg Giebichenstein,51.501667,11.954971
134,380161,Burg Giebichenstein,51.50217,11.954557
135,92828,Burg Giebichenstein,51.502403,11.955667
136,208262,Busabstellfl. Ausfahrt,51.484856,11.999086
137,118002,Busabstellfl. Einfahrt,51.48494,12.000071
138,396080,Böllberg,51.4669,11.955961
139,399332,Böllberg,51.466866,11.955973
140,147928,Büschdorf,51.479454,12.035664
141,328568,Büschdorf,51.479416,12.035057
142,3651,Büschdorf,51.479465,12.035003
143,381786,Büschdorf,51.479225,12.034742
144,122543,Camillo-Irmscher-Straße,51.43943,11.991144
145,235876,Camillo-Irmscher-Straße,51.439514,11.991077
146,116867,Carl-Schorlemmer-Ring,51.485134,11.919441
147,135993,Carl-Schorlemmer-Ring,51.485397,11.918983
148,356976,Chemiestraße,51.434383,11.988397
149,77298,Chemiestraße,51.434624,11.988571
150,407132,Coimbraer Straße,51.4345,11.959089
151,94171,Coimbraer Straße,51.434654,11.959027
152,315289,Cranachstraße,51.5131,11.990611
153,443464,Cranachstraße,51.513237,11.98941
154,337296,Dachstraße,51.521954,11.914995
155,164361,Dachsweg,51.429893,11.996762
156,435855,Dachsweg,51.43022,11.996899
157,135036,Damaschkestraße,51.456142,11.983818
158,171948,Damaschkestraße,51.457336,11.983867
159,250611,Damaschkestraße,51.456863,11.983145
160,322657,Damaschkestraße,51.456795,11.982911
161,396580,Damaschkestraße,51.456844,11.984224
162,203122,Dautzsch,51.494118,12.023503
163,375366,Dautzsch,51.494556,12.02395
164,141309,Diakoniewerk Halle,51.49401,11.95727
165,172456,Diakoniewerk Halle,51.49332,11.958262
166,19926,Dieselstraße,51.45925,12.009279
167,31299,Dieselstraße,51.45907,12.009282
168,334656,Diesterwegstraße,51.45894,11.946912
169,380071,Diesterwegstraße,51.458843,11.947064
170,438142,Diesterwegstraße,51.45892,11.946968
171,99640,Diesterwegstraße,51.458664,11.946419
172,254622,Dorflage Büschdorf,51.477055,12.031473
173,450478,Dorflage Büschdorf,51.477325,12.031823
174,228619,Dölau,51.511673,11.88104
175,233557,Dölau,51.511707,11.880984
176,192648,Dürrenberger Straße,51.45151,12.028369
177,296645,Dürrenberger Straße,51.451035,12.028338
178,386381,Einkaufspark HEP,51.45424,12.015742
179,78330,Einkaufspark HEP,51.454468,12.015599
180,24422,Eisenbahnstraße,51.434624,11.988628
181,388171,Eisenbahnstraße,51.43182,11.98856
182,45247,Eislebener Straße,51.482986,11.895818
183,77194,Eislebener Straße,51.48273,11.895212
184,238410,Elbestraße,51.511955,11.885524
185,81216,Elbestraße,51.512074,11.886641
186,323923,Ellernstraße,51.435658,11.972729
187,357413,Ellernstraße,51.435627,11.972497
188,113072,Elsa-Brändström-Straße,51.44993,11.974016
189,67393,Elsa-Brändström-Straße,51.45029,11.973479
190,101050,Emil-Eichhorn-Straße,51.505436,11.959869
191,60313,Emil-Eichhorn-Straße,51.505875,11.960286
192,166585,Emil-Schuster-Straße,51.52763,11.971384
193,299751,Emil-Schuster-Straße,51.527164,11.971008
194,310963,Energiepark Dieselstraße,51.45713,11.990977
195,391779,Energiepark Dieselstraße,51.45722,11.990609
196,225959,Erich-Kästner-Straße,51.439552,11.955517
197,253111,Erich-Kästner-Straße,51.439484,11.955426
198,197168,Ernst-Grube-Straße,51.50052,11.938143
199,376117,Ernst-Grube-Straße,51.500473,11.936642
200,239389,Ernst-Hermann-Meyer-Straße,51.46996,11.922632
201,27883,Ernst-Hermann-Meyer-Straße,51.469933,11.92191
202,302896,Etkar-Andrè-Straße,51.4982,12.019726
203,59581,Etkar-Andrè-Straße,51.498062,12.019789
204,163859,Fiete-Schulze-Straße,51.47835,12.01084
205,398502,Fiete-Schulze-Straße,51.47838,12.010871
206,10343,Florian-Geyer-Platz,51.42607,11.985064
207,353832,Florian-Geyer-Platz,51.426254,11.984918
208,369548,Florian-Geyer-Platz,51.427147,11.984142
209,75917,Florian-Geyer-Platz,51.426308,11.985108
210,33328,Fontanestraße,51.472633,11.904764
211,42026,Fontanestraße,51.472954,11.904857
212,113744,Franckeplatz,51.478424,11.969205
213,11729,Franckeplatz,51.478397,11.969232
214,130036,Franckeplatz,51.4786,11.969101
215,286444,Franckeplatz,51.47919,11.97055
216,332975,Franckeplatz,51.47907,11.97047
217,390557,Franckeplatz,51.478634,11.969103
218,131360,"Franckeplatz, Halle (Saale)",51.479034,11.970479
219,272350,Franz-Maye-Straße,51.472176,12.025823
220,137971,Freiheit,51.529095,11.972892
221,166178,Freiheit,51.529057,11.97302
222,282921,Freiimfelder Straße,51.47905,11.993449
223,392858,Freiimfelder Straße,51.479984,11.994878
224,408129,Freiimfelder Straße,51.478943,11.995847
225,92304,Freiimfelder Straße,51.479004,11.993878
226,120802,Freyburger Straße,51.445312,11.960983
227,187903,Freyburger Straße,51.445408,11.96119
228,31452,Freyburger Straße,51.445217,11.960833
229,378993,Freyburger Straße,51.44527,11.960894
230,436668,Friedhof Neustadt,51.479744,11.885548
231,450970,Friedhof Neustadt,51.479343,11.884299
232,341700,Friesenstraße,51.489834,11.980258
233,70391,Friesenstraße,51.48987,11.980232
234,182414,Frohe Zukunft,51.50888,11.99447
235,327772,Frohe Zukunft,51.502876,11.994753
236,386568,Frohe Zukunft,51.50918,11.994518
237,83517,Frohe Zukunft,51.508957,11.994691
238,181981,Futterwerk,51.525352,11.939887
239,302404,Futterwerk,51.525467,11.939203
240,189338,Gartenstadt Nietleben,51.490128,11.912387
241,190534,Gartenstadt Nietleben,51.490154,11.912388
242,263617,Gartenstadtstraße,51.49106,11.906714
243,375612,Gartenstadtstraße,51.491055,11.906642
244,255819,Gartenstraße,51.519993,11.909307
245,11765,Genthiner Straße,51.445854,11.972241
246,16079,Genthiner Straße,51.443417,11.971967
247,363635,Gertraudenfriedhof,51.504536,11.989286
248,48800,Gertraudenfriedhof,51.504494,11.989183
249,156135,Gimritzer Damm,51.48633,11.946058
250,198454,Gimritzer Damm,51.486843,11.94589
251,300141,Gimritzer Damm,51.4869,11.945778
252,413813,Gimritzer Damm,51.48627,11.946198
253,175479,Glauchaer Platz,51.47971,11.96458
254,200497,Glauchaer Platz,51.479736,11.964625
255,332250,Goldregenweg,51.462288,12.005176
256,458603,Goldregenweg,51.462563,12.004647
257,186767,Gottfried-Keller-Straße,51.51521,11.975143
258,225242,Gottfried-Keller-Straße,51.515152,11.974621
259,16180,Gottfried-Lindner-Straße,51.43729,11.991852
260,299894,Gottfried-Lindner-Straße,51.43729,11.992269
261,311703,Grashalmstraße,51.51757,11.902538
262,115949,Grenzstraße,51.478626,12.003241
263,413606,Grenzstraße,51.47851,12.004674
264,62455,Grenzstraße Nord,51.48748,12.00198
265,302055,Guldenstraße,51.43678,11.973866
266,74533,Guldenstraße,51.43687,11.9737
267,429315,Gustav-Menzel-Platz,51.484158,11.900903
268,82084,Gustav-Menzel-Platz,51.484184,11.900805
269,220540,Gustav-Staude-Straße,51.441875,11.965695
270,273963,Gustav-Staude-Straße,51.441856,11.965751
271,117327,Göttinger Bogen,51.47699,11.902666
272,178018,Göttinger Bogen,51.476997,11.902767
273,304512,Göttinger Bogen,51.47713,11.902847
274,396345,Göttinger Bogen,51.47736,11.903006
275,164287,Haflingerstraße,51.476418,11.940524
276,372274,Haflingerstraße,51.476368,11.940952
277,459049,Halle (Saale) central bus station,51.477535,11.984321
278,347254,Halle Messe,51.452263,12.024749
279,391445,Halle Messe,51.452293,12.024622
280,431930,Halle(Saale)Hbf Ernst-Kamieth-Str. Hst.9,51.476906,11.985572
281,321800,"Halle, Alfred-Oelßner-Straße (A)",51.507717,11.882476
282,454646,"Halle, Alfred-Oelßner-Straße (B)",51.508274,11.882165
283,269729,"Halle, Alfred-Oelßner-Straße (C)",51.508114,11.881608
284,270639,"Halle, Am Heidesee",51.48956,11.904185
285,51103,"Halle, Am Heidesee",51.489773,11.903838
286,120598,"Halle, Am Sonnenhang",51.513596,11.87923
287,384361,"Halle, Am Sonnenhang",51.513832,11.879116
288,328117,"Halle, Am Stadion",51.48122,11.911617
289,428171,"Halle, Am Stadion",51.481224,11.911401
290,383035,"Halle, Am Steintor",51.488102,11.978662
291,44076,"Halle, Am Steintor",51.489204,11.978763
292,163468,"Halle, Ammendorf",51.424915,11.986657
293,389930,"Halle, Ammendorf",51.42463,11.986638
294,41209,"Halle, An der Eselsmühle",51.479168,11.905137
295,188404,"Halle, An der Feuerwache",51.481033,11.934572
296,320610,"Halle, An der Feuerwache",51.48074,11.934783
297,170372,"Halle, An der Feuerwache (C)",51.48094,11.93638
298,211205,"Halle, An der Feuerwache (D)",51.481003,11.934066
299,5107,"Halle, An der Feuerwache (E)",51.480453,11.935082
300,197043,"Halle, Angerstraße",51.52343,11.956612
301,258408,"Halle, Angerstraße",51.524128,11.956643
302,319844,"Halle, Apoldaer Straße/Birkhahnweg",51.494576,12.007157
303,327296,"Halle, Apoldaer Straße/Birkhahnweg",51.494762,12.007284
304,140703,"Halle, Berliner Brücke",51.489464,11.995457
305,33092,"Halle, Berliner Brücke",51.489773,11.995636
306,256759,"Halle, Büschdorf",51.47937,12.035169
307,110792,"Halle, Cossebauder Weg",51.490707,12.013959
308,448685,"Halle, Cossebauder Weg",51.49063,12.014098
309,356274,"Halle, Dautzsch",51.49461,12.023983
310,429897,"Halle, Dautzsch",51.49419,12.023609
311,196423,"Halle, Einkaufspark HEP",51.45452,12.015559
312,356721,"Halle, Einkaufspark HEP",51.45424,12.015742
313,405094,"Halle, Etkar-Andre-Straße",51.497993,12.019784
314,76664,"Halle, Etkar-Andre-Straße",51.498272,12.019731
315,178260,"Halle, Franckeplatz",51.478497,11.969281
316,364793,"Halle, Franckeplatz",51.478302,11.969513
317,380849,"Halle, Franckeplatz",51.478443,11.969235
318,49175,"Halle, Franckeplatz",51.478462,11.96915
319,178598,"Halle, Freiimfelder Straße",51.47898,11.997131
320,239066,"Halle, Freiimfelder Straße",51.47888,11.99364
321,103173,"Halle, Frohe Zukunft",51.510357,11.994394
322,140516,"Halle, Frohe Zukunft",51.50989,11.994406
323,354905,"Halle, Goldregenweg",51.462536,12.004645
324,76268,"Halle, Goldregenweg",51.46234,12.005122
325,176585,"Halle, Göttinger Bogen",51.477413,11.902966
326,319518,"Halle, HBF/ Unter den Brücken",51.478912,11.985492
327,178002,"Halle, Hallesche Str",51.485043,11.909312
328,408536,"Halle, Hallesche Str",51.486084,11.908687
329,4911,"Halle, Hauptbf. ZOB",51.47744,11.984619
330,143250,"Halle, Hauptbf. ZOB Bst. 5",51.477673,11.984677
331,425607,"Halle, Heidebahnhof",51.50253,11.887636
332,93798,"Halle, Heidebahnhof",51.50293,11.887071
333,182875,"Halle, Helmut v. Gerlach Str.",51.489895,11.999288
334,431599,"Halle, Helmut v. Gerlach Str.",51.4898,11.999872
335,324982,"Halle, Isopan",51.488483,12.068712
336,162142,"Halle, K.-Meißner-Str.",51.422688,11.999713
337,299031,"Halle, K.-Meißner-Str.",51.42262,11.999953
338,122442,"Halle, Kastanienallee",51.475925,11.930356
339,335694,"Halle, Kastanienallee",51.47595,11.929767
340,240256,"Halle, Lieskauer Straße",51.50734,11.87447
341,265829,"Halle, Lieskauer Straße",51.507374,11.874487
342,324041,"Halle, M.-Twain-Str.",51.47911,11.908877
343,76429,"Halle, M.-Twain-Str.",51.478867,11.908299
344,21508,"Halle, Magdeburger Chaussee",51.522243,11.950539
345,234093,"Halle, Magdeburger Chaussee",51.521915,11.95134
346,11557,"Halle, Mark-Twain-Straße",51.479145,11.908303
347,407614,"Halle, Mark-Twain-Straße",51.478878,11.908934
348,21565,"Halle, MesseHandelsCentrum",51.44879,12.023311
349,325517,"Halle, MesseHandelsCentrum",51.448715,12.023062
350,247222,"Halle, Osendorf",51.42341,12.012962
351,353380,"Halle, Polarisstraße",51.490902,12.082845
352,137709,"Halle, Radewell",51.423855,11.992024
353,331562,"Halle, Radewell",51.423733,11.992289
354,145788,"Halle, Radeweller Str.",51.42245,11.996663
355,157695,"Halle, Radeweller Str.",51.422485,11.996752
356,432707,"Halle, Radial",51.486156,12.081977
357,303118,"Halle, Reideburg Siedlung",51.479343,12.063447
358,52873,"Halle, Reideburg Siedlung",51.47943,12.063251
359,132647,"Halle, Reideburger Landstraße",51.48986,12.007998
360,6571,"Halle, Reideburger Landstraße",51.489933,12.007629
361,150002,"Halle, Richard-Loesche-Str.",51.420456,12.007749
362,453318,"Halle, Richard-Loesche-Str.",51.42052,12.007423
363,335077,"Halle, Rosenfelder Str.",51.501015,12.031941
364,363480,"Halle, S-Bahnhof Neustadt",51.479294,11.921775
365,406172,"Halle, S-Bahnhof Neustadt (D)",51.479294,11.921472
366,189239,"Halle, S-Bahnhof Nietleben",51.487877,11.907159
367,213280,"Halle, S-Bahnhof Nietleben",51.487556,11.907298
368,184755,"Halle, S-Bahnhof Steintorbrücke",51.48982,11.986551
369,80059,"Halle, S-Bahnhof Steintorbrücke",51.489895,11.986369
370,136705,"Halle, S-Bahnhof Zscherbener Str.",51.474354,11.921977
371,380521,"Halle, S-Bahnhof Zscherbener Str.",51.47464,11.922355
372,257574,"Halle, Schmelzerstraße",51.444397,12.030948
373,327980,"Halle, Schmelzerstraße",51.444263,12.030896
374,46575,"Halle, Schwimmhalle",51.478718,11.915676
375,6274,"Halle, Schwimmhalle (C)",51.47882,11.915193
376,198394,"Halle, Schönnewitzer Straße",51.476337,12.044542
377,384399,"Halle, Schönnewitzer Straße",51.476257,12.044623
378,418667,"Halle, Seebener Straße",51.510777,11.961253
379,372158,"Halle, Siriusstraße / Smart Press Shop",51.48781,12.078676
380,47531,"Halle, Siriusstraße / flaconi",51.48782,12.077207
381,409219,"Halle, Suhler Str.",51.494205,12.006456
382,277354,"Halle, Thüringer Straße",51.468746,11.993811
383,88765,"Halle, Thüringer Straße",51.46867,11.993561
384,418532,"Halle, Tornau Kirschallee",51.52936,12.004305
385,457732,"Halle, Tornau Kirschallee",51.529278,12.004112
386,159001,"Halle, Trotha",51.519154,11.95743
387,413568,"Halle, Trothaer Straße",51.518353,11.956412
388,254944,"Halle, Trothaer Weg",51.5289,11.945622
389,65098,"Halle, Trothaer Weg",51.52921,11.94547
390,424931,"Halle, Wegastraße",51.49513,12.077902
391,104504,"Halle, Weststraße",51.47103,11.896111
392,451455,"Halle, Weststraße",51.47083,11.895969
393,294663,"Halle, ZOB (2)",51.47742,11.984646
394,197508,"Halle, ZOB (3)",51.477486,11.98465
395,454123,"Halle, ZOB (4)",51.477566,11.984627
396,12157,"Halle, ZOB (5)",51.477657,11.984633
397,219095,"Halle, ZOB (6)",51.477745,11.984624
398,454933,"Halle, ZOB (7+8)",51.477505,11.984277
399,82414,"Halle, ZOB (8)",51.47732,11.984294
400,384301,"Halle, ZOB (9)",51.476948,11.985566
401,308700,"Halle, home24",51.49069,12.065908
402,300509,Hallesche Straße,51.485435,11.907638
403,323929,Hallesche Straße,51.485035,11.909297
404,445306,Hallesche Straße,51.48605,11.908714
405,210946,Hallmarkt,51.48237,11.966581
406,229840,Hallmarkt,51.482273,11.966359
407,307315,Hallorenstraße,51.48119,11.928981
408,349530,Hallorenstraße,51.481632,11.928649
409,95074,Hamelner Straße,51.47574,11.897417
410,303957,Hans-Dittmar-Straße,51.521416,11.956942
411,173831,Harfenweg,51.44259,11.946765
412,458657,Harfenweg,51.442978,11.946372
413,112152,Hauptbahnhof,51.478466,11.985607
414,13982,Hauptbahnhof,51.4785,11.98571
415,223932,Hauptbahnhof,51.476894,11.985533
416,274152,Hauptbahnhof,51.47751,11.98553
417,312027,Hauptbahnhof,51.478844,11.985272
418,405239,Hauptbahnhof,51.477535,11.985474
419,423534,Hauptbahnhof,51.477314,11.984668
420,436925,Hauptbahnhof,51.478794,11.986939
421,68231,Hauptbahnhof,51.478477,11.986947
422,203458,Hegelstraße,51.499557,11.966575
423,366350,Hegelstraße,51.49946,11.966511
424,449932,Heide-Nord,51.51563,11.90289
425,417953,Heide-Uni Parkplatz P1,51.499912,11.932875
426,436989,Heide-Uni Parkplatz P2,51.5001,11.932599
427,16837,Heide-Universitätsklinikum,51.5,11.932939
428,260460,Heide-Universitätsklinikum,51.500065,11.932928
429,351659,Heide-Universitätsklinikum,51.499947,11.932935
430,419008,Heide-Universitätsklinikum,51.50008,11.932958
431,419460,Heide-Universitätsklinikum,51.500153,11.932646
432,228485,Heidebahnhof,51.502876,11.887356
433,57972,Heidebahnhof,51.502598,11.887655
434,24757,Heidering,51.51675,11.917069
435,63632,Heideringpassage,51.515396,11.913971
436,348900,Heinrich-Lammasch-Platz,51.49687,11.923677
437,394257,Heinrich-Lammasch-Platz,51.496834,11.923689
438,113217,Heinrich-Schütz-Straße,51.469616,11.983676
439,206424,Heinrich-Schütz-Straße,51.469204,11.984988
440,269440,Heinrich-Schütz-Straße,51.4692,11.985794
441,397080,Heinrich-Schütz-Straße,51.468735,11.983719
442,375646,Heizkraftwerk,51.523758,11.945305
443,451912,Heizkraftwerk,51.523666,11.945443
444,119762,Helmut-von-Gerlach-Straße,51.489914,11.99926
445,187124,Helmut-von-Gerlach-Straße,51.48983,11.999773
446,291004,Herman-Kussek-Straße,51.431774,11.993103
447,40552,Herman-Kussek-Straße,51.43183,11.993006
448,154603,Hermannstraße,51.49131,11.965909
449,440411,Hermannstraße,51.490936,11.965899
450,167408,Huttenstraße,51.463264,11.983794
451,173065,Huttenstraße,51.462757,11.982537
452,353445,Huttenstraße,51.46331,11.983739
453,296267,Hyazinthenstraße,51.481297,11.940147
454,338430,Hyazinthenstraße,51.481262,11.940144
455,36361,Höllweg,51.515015,12.005247
456,544,Höllweg,51.51507,12.00528
457,192805,Industriepark Halle-Trotha,51.531284,11.943124
458,418352,Industriestraße,51.43661,11.977567
459,172963,Jasminweg,51.515305,11.979573
460,387232,Jasminweg,51.51525,11.980175
461,152972,Joliot-Curie-Platz,51.48469,11.97314
462,427222,Kanena,51.457443,12.038477
463,104730,Kantstraße,51.466187,11.969964
464,121963,Kantstraße,51.46679,11.969917
465,120635,Karl-Ernst-Weg,51.51848,11.96217
466,270895,Karl-Ernst-Weg,51.51905,11.962294
467,64696,Karl-Ernst-Weg,51.519093,11.963536
468,72146,Karl-Ernst-Weg,51.51903,11.962322
469,50563,Karl-Meißner-Straße,51.42269,11.999915
470,5254,Karl-Meißner-Straße,51.422665,11.999827
471,418529,Karl-Pilger-Straße,51.429173,11.979844
472,454207,Karl-Pilger-Straße,51.42938,11.98026
473,148568,Kastanienallee,51.475952,11.9303
474,307884,Kastanienallee,51.475956,11.929782
475,386466,Kleinschmieden,51.48384,11.97019
476,64821,Knolls Hütte,51.50997,11.904029
477,96298,Knolls Hütte,51.509872,11.903619
478,162626,Kolkturmring,51.51815,11.909492
479,218047,Kolkturmring,51.517757,11.909496
480,29147,Kollenbeyer Weg,51.412388,11.982331
481,320833,Kollenbeyer Weg,51.41252,11.982283
482,15908,Kornblumenweg,51.50645,11.991515
483,280455,Kornblumenweg,51.506912,11.991978
484,143785,Krankenhaus Martha-Maria,51.5039,11.876789
485,224108,Kröllwitz,51.507587,11.927894
486,290386,Kröllwitz,51.507633,11.92794
487,3109,Kröllwitz,51.50768,11.928174
488,350069,Kröllwitz,51.507675,11.927597
489,362767,Kröllwitz,51.50751,11.927687
490,38354,Kröllwitz,51.50768,11.927871
491,58814,Kröllwitz Pause,51.507786,11.927561
492,39598,Kurallee,51.50465,11.966834
493,452841,Kurallee,51.503624,11.966825
494,168966,Kurt-Tucholsky-Straße,51.47376,11.961847
495,358003,Kurt-Tucholsky-Straße,51.47371,11.961513
496,108285,Kurt-Wüsteneck-Straße,51.431736,11.983708
497,359602,Kurt-Wüsteneck-Straße,51.430878,11.984227
498,69824,Kurt-Wüsteneck-Straße,51.4313,11.984168
499,167733,Käthe-Kollwitz-Straße,51.478874,12.031393
500,70154,Käthe-Kollwitz-Straße,51.478867,12.031334
501,100541,Kühlhaus,51.52728,11.933223
502,74065,Kühlhaus,51.527496,11.932776
503,13339,Küttener Weg,51.5147,11.969649
504,225953,Küttener Weg,51.514797,11.969698
505,157591,Landesmuseum für Vorgeschichte,51.49835,11.962837
506,452997,Landesmuseum für Vorgeschichte,51.49852,11.962834
507,145598,Lessingstraße,51.49122,11.974919
508,349036,Lessingstraße,51.490566,11.976216
509,123314,Lettin,51.523727,11.910482
510,197777,Liebenauer Straße,51.464676,11.978833
511,215190,Liebenauer Straße,51.464672,11.979035
512,291138,Lieskauer Straße,51.50702,11.875329
513,404864,Lieskauer Straße,51.506786,11.875372
514,186069,Lilienstraße,51.48595,11.928926
515,356964,Lilienstraße,51.485825,11.929249
516,405675,Lise-Meitner-Straße,51.486847,11.925009
517,9478,Lise-Meitner-Straße,51.48694,11.924554
518,283190,Louise-Otto-Peters-Straße,51.50627,11.946769
519,45375,Louise-Otto-Peters-Straße,51.507137,11.945197
520,376819,Ludwigstraße,51.470337,11.958818
521,71476,Ludwigstraße,51.470222,11.958724
522,36341,Lupinenweg,51.48865,12.037414
523,44240,Lupinenweg,51.488552,12.03817
524,316698,Lutherplatz,51.46739,11.976563
525,446079,Lutherplatz,51.466454,11.976531
526,112517,Lutherstraße,51.466396,11.983753
527,269443,Lutherstraße,51.46618,11.98371
528,32754,Lübecker Platz,51.442505,11.936199
529,196705,Magdeburger Chaussee,51.52367,11.951208
530,215587,Magdeburger Chaussee,51.522232,11.950567
531,392781,Magdeburger Chaussee,51.521935,11.951384
532,348166,Magdeburger Straße,51.484417,11.980697
533,65748,Magdeburger Straße,51.484867,11.980352
534,228812,Malachitweg,51.492447,11.922516
535,80217,Malachitweg,51.492504,11.921713
536,270507,Mark-Twain-Straße,51.47914,11.908331
537,307804,Mark-Twain-Straße,51.47903,11.908137
538,383794,Mark-Twain-Straße,51.47891,11.908691
539,45630,Mark-Twain-Straße,51.478996,11.908135
540,193632,Marktplatz,51.482677,11.96987
541,197282,Marktplatz,51.482563,11.969891
542,218130,Marktplatz,51.48588,11.968782
543,436084,Marktplatz,51.482933,11.968763
544,143114,Meisenweg,51.45908,11.962076
545,319722,Melanchthonstraße,51.47035,11.96891
546,361034,Melanchthonstraße,51.470352,11.968853
547,159426,MesseHandelsCentrum,51.449738,12.023244
548,177979,MesseHandelsCentrum,51.449593,12.022328
549,25455,MesseHandelsCentrum,51.44871,12.023292
550,94096,MesseHandelsCentrum,51.448776,12.023281
551,444959,Messestraße,51.454205,12.025727
552,163626,Mindener Straße,51.479454,11.894716
553,258425,Mindener Straße,51.47935,11.89445
554,262564,Mindener Straße,51.47949,11.894704
555,14734,Moritzburgring,51.48707,11.96667
556,423567,Moritzburgring,51.487778,11.966256
557,315066,Moskauer Straße,51.45282,11.961383
558,434841,Moskauer Straße,51.452805,11.961281
559,324772,Mustangweg,51.476135,11.936704
560,94848,Mustangweg,51.476013,11.936495
561,16933,Mörikestraße,51.511166,11.993813
562,244716,Mörikestraße,51.511093,11.993707
563,154273,Mötzlich,51.516003,12.010673
564,366983,Mötzlich,51.51592,12.010711
565,143850,Mühlrain,51.50985,12.000613
566,277673,Mühlrain,51.509693,12.000416
567,19469,Mühlweg,51.49372,11.965245
568,234926,Mühlweg,51.493732,11.965044
569,442267,Nachtigallensteig,51.49243,11.909365
570,150364,Nelkenstraße,51.49485,11.908972
571,295111,Neues Theater,51.484737,11.969169
572,95044,Neues Theater,51.484997,11.968854
573,186781,Osendorf,51.423416,12.012934
574,257706,Osnabrücker Straße,51.47676,11.893883
575,221605,Otto-Eißfeldt-Straße,51.490326,11.936206
576,450295,Otto-Eißfeldt-Straße,51.4903,11.936132
577,193434,Otto-Kanning-Str.,51.504906,11.884502
578,235181,Otto-Kanning-Str.,51.504696,11.884604
579,144125,Otto-Kilian-Straße,51.469814,11.97436
580,400013,Otto-Kilian-Straße,51.469734,11.974384
581,83963,Otto-Stomps-Straße,51.48367,12.010975
582,19059,Otto-Stomps-Straße Nord,51.486267,12.011463
583,27299,Passendorfer Weg,51.461884,11.950268
584,307990,Passendorfer Weg,51.461933,11.950387
585,381849,Passendorfer Weg,51.46193,11.950573
586,194582,Paul-Singer-Straße,51.47921,12.047916
587,219755,Paul-Singer-Straße,51.48005,12.048044
588,139937,Paul-Suhr-Straße,51.456696,11.962727
589,187136,Paul-Suhr-Straße,51.45682,11.960001
590,323999,Paul-Suhr-Straße,51.45618,11.96173
591,402651,Paul-Suhr-Straße,51.45674,11.960643
592,144374,Paul-Thiersch-Straße,51.477497,11.933956
593,373540,Paul-Thiersch-Straße,51.477726,11.934215
594,134549,Pfarrstraße,51.51316,11.958742
595,152945,Pfarrstraße,51.5131,11.958723
596,112744,Pflaumenweg,51.458126,12.006097
597,69112,Pflaumenweg,51.45812,12.006499
598,241338,Pfännerhöhe,51.473267,11.983597
599,410721,Pfännerhöhe,51.47188,11.983665
600,396950,Pirolweg,51.494186,11.905689
601,29718,Prager Straße,51.447323,11.943674
602,35995,Prager Straße,51.447315,11.943573
603,127302,Radewell,51.42376,11.992276
604,159510,Radewell,51.423836,11.992066
605,395361,Radeweller Straße,51.422512,11.996653
606,410706,Radeweller Straße,51.422485,11.996651
607,29017,Raffineriestraße,51.47287,11.989733
608,324004,Raffineriestraße,51.47298,11.989956
609,259619,Rannischer Platz,51.474636,11.970038
610,374103,Rannischer Platz,51.47453,11.970046
611,116544,Rannischer Platz/Bertramstraße,51.474106,11.969385
612,231258,Rapsweg,51.48947,12.029777
613,315781,Rapsweg,51.489494,12.029837
614,343161,Rattmannsdorfer Weg,51.457863,11.952944
615,156947,Reideburg,51.4834,12.047274
616,231324,Reideburg,51.483604,12.047244
617,8184,Reideburger Landstraße,51.489876,12.0081
618,348993,Reideburger Straße,51.483696,12.00225
619,454339,Reideburger Straße,51.48365,12.002016
620,142426,Reileck,51.49659,11.96631
621,39986,Reileck,51.495853,11.966291
622,417161,Reileck,51.495995,11.965335
623,113286,Rennbahnkreuz,51.483368,11.946918
624,243314,Rennbahnkreuz,51.482494,11.946588
625,256135,Rennbahnkreuz,51.482456,11.9466
626,403867,Rennbahnkreuz,51.48338,11.947164
627,413879,Rennbahnkreuz,51.48224,11.948242
628,446681,Rennbahnkreuz,51.48238,11.94648
629,83194,Rennbahnkreuz,51.48338,11.947164
630,147740,Rennbahnring,51.479774,11.944267
631,73904,Rennbahnring,51.48027,11.944199
632,198516,Richard-Loesche-Straße,51.420547,12.007424
633,414099,Richard-Loesche-Straße,51.42044,12.007705
634,178656,Richard-Riedel-Hof,51.472233,11.982306
635,174648,Riebeckplatz,51.47926,11.982794
636,280252,Riebeckplatz,51.47695,11.983305
637,356966,Riebeckplatz,51.478516,11.98227
638,426618,Riebeckplatz,51.478542,11.982229
639,95060,Riebeckplatz,51.47926,11.982736
640,11385,Robert-Koch-Straße,51.463184,11.970604
641,153994,Robert-Koch-Straße,51.46352,11.970597
642,187153,Robert-Koch-Straße,51.462814,11.969616
643,71418,Robert-Koch-Straße,51.462692,11.971694
644,320165,Roßlauer Straße,51.440414,11.973283
645,376909,Roßlauer Straße,51.44093,11.973215
646,345350,Rudolf-Ernst-Weise-Straße,51.474285,11.986659
647,53952,Rudolf-Ernst-Weise-Straße,51.473938,11.986607
648,173084,S-Bahnhof Dessauer Brücke,51.501038,11.985081
649,456360,S-Bahnhof Dessauer Brücke,51.50059,11.98462
650,135669,S-Bahnhof Halle Messe,51.45449,12.029344
651,142018,S-Bahnhof Halle Messe,51.454308,12.029058
652,199284,S-Bahnhof Halle Messe,51.454166,12.028574
653,117443,S-Bahnhof Neustadt,51.479027,11.920591
654,153783,S-Bahnhof Neustadt,51.479332,11.92172
655,177676,S-Bahnhof Neustadt,51.478153,11.921673
656,194727,S-Bahnhof Neustadt,51.478996,11.920734
657,240649,S-Bahnhof Neustadt,51.47904,11.922248
658,357738,S-Bahnhof Neustadt,51.47866,11.921273
659,30672,S-Bahnhof Nietleben,51.487892,11.906801
660,80252,S-Bahnhof Nietleben,51.488,11.906894
661,245076,S-Bahnhof Rosengarten,51.447525,11.984004
662,273893,S-Bahnhof Rosengarten,51.44732,11.983962
663,328476,S-Bahnhof Silberhöhe,51.44407,11.966082
664,375387,S-Bahnhof Silberhöhe,51.444088,11.96604
665,430606,S-Bahnhof Silberhöhe,51.445034,11.967065
666,440962,S-Bahnhof Silberhöhe,51.444942,11.967045
667,450208,S-Bahnhof Steintorbrücke,51.48979,11.986506
668,99280,S-Bahnhof Steintorbrücke,51.489838,11.986509
669,232490,S-Bahnhof Südstadt,51.449764,11.950609
670,250125,S-Bahnhof Südstadt,51.44969,11.950302
671,302284,S-Bahnhof Südstadt,51.449512,11.95101
672,340095,S-Bahnhof Südstadt,51.44973,11.950261
673,244349,S-Bahnhof Trotha,51.521885,11.96183
674,335240,S-Bahnhof Wohnstadt Nord,51.514965,11.963181
675,354645,S-Bahnhof Wohnstadt Nord,51.51543,11.96314
676,345441,S-Bahnhof Zscherbener Straße,51.47464,11.922341
677,51026,S-Bahnhof Zscherbener Straße,51.47436,11.922021
678,169540,Saline,51.481567,11.956925
679,309523,Saline,51.481525,11.957484
680,239708,Sanddornweg,51.486267,11.934202
681,275364,Sanddornweg,51.4863,11.935342
682,149590,Schlehenweg,51.494534,11.918847
683,186915,Schlehenweg,51.495285,11.919082
684,181795,Schule Kröllwitz,51.50759,11.950672
685,279371,Schwalbenweg,51.45989,11.971584
686,143081,Schwarzenberger Straße,51.48678,12.046635
687,309851,Schwerzer Straße,51.48362,11.995146
688,55768,Schwerzer Straße,51.483578,11.995993
689,121335,Schwimmhalle,51.478924,11.915373
690,199507,Schwimmhalle,51.47911,11.916133
691,308457,Schwimmhalle,51.478806,11.915077
692,447637,Schwimmhalle,51.47897,11.915016
693,15407,Schwuchtstraße,51.507736,11.937773
694,159351,Schwuchtstraße,51.50771,11.937742
695,163792,Schwuchtstraße,51.507664,11.937797
696,79432,Schwuchtstraße,51.507763,11.937746
697,17489,Schönnewitzer Straße,51.47652,12.045462
698,388088,Schönnewitzer Straße,51.4765,12.045604
699,66603,Seeben,51.530983,11.973607
700,280787,Seebener Straße,51.510693,11.961463
701,338530,Seebener Straße,51.51084,11.961242
702,215826,Siedlerstraße,51.4299,11.990118
703,33665,Siedlerstraße,51.42989,11.990117
704,166572,Soltauer Straße,51.47926,11.891982
705,36731,Soltauer Straße,51.479515,11.891451
706,94831,Soltauer Straße,51.479595,11.8915
707,358328,Sparkasse Dölau,51.511654,11.891989
708,454603,Sparkasse Dölau,51.51171,11.891906
709,187126,Spechtweg,51.503815,11.929323
710,360964,Spechtweg,51.503994,11.928917
711,433908,Spechtweg,51.50401,11.928961
712,116444,Steinweg,51.476997,11.970177
713,130308,Steinweg,51.477016,11.970222
714,293985,Straßburger Weg,51.49839,11.935399
715,314391,Straßburger Weg,51.498295,11.936056
716,412274,Straßburger Weg,51.49823,11.935403
717,434532,Straßburger Weg,51.49839,11.935399
718,156569,Straße der Bergarbeiter,51.42038,12.010433
719,54767,Straße der Bergarbeiter,51.419933,12.009944
720,100796,Suhler Straße,51.4942,12.006398
721,352181,Suhler Straße,51.49406,12.006287
722,209963,Südfriedhof,51.46279,11.977343
723,47730,Südfriedhof,51.462723,11.979627
724,187736,Südpark,51.47021,11.926578
725,330943,Südpark,51.470284,11.926539
726,389541,Südpark,51.469997,11.926406
727,110560,"Südstadt, Gleis X",51.449135,11.957115
728,142839,"Südstadt, Paul-Suhr-Straße",51.44951,11.960736
729,150717,"Südstadt, Paul-Suhr-Straße",51.449516,11.960766
730,119350,"Südstadt, Veszpremer Straße",51.448997,11.959336
731,185229,"Südstadt, Veszpremer Straße",51.44913,11.959302
732,327725,"Südstadt, Veszpremer Straße",51.448944,11.959318
733,344115,"Südstadt, Veszpremer Straße",51.449005,11.959366
734,366660,"Südstadt, Veszpremer Straße",51.44887,11.959285
735,80236,"Südstadt, Veszpremer Straße",51.4491,11.959832
736,219545,Talstraße,51.50529,11.950985
737,435822,Talstraße,51.505356,11.950989
738,352168,Tangermünder Straße,51.47366,11.919097
739,384973,Tangermünder Straße,51.47373,11.919231
740,363589,Taucherweg,51.46269,11.963994
741,78614,Taucherweg,51.462826,11.964262
742,412812,Taxusweg,51.51456,11.98477
743,92366,Taxusweg,51.51431,11.984681
744,276173,Teutschenthaler Landstraße,51.475086,11.880719
745,211997,Theodor-Neubauer-Straße,51.451347,11.983894
746,381814,Theodor-Neubauer-Straße,51.450558,11.983957
747,197214,Thomasiusstraße,51.470337,11.980052
748,100308,Thüringer Straße,51.468708,11.993823
749,165794,Thüringer Straße,51.46873,11.99368
750,304334,Thüringer Straße,51.469303,11.992393
751,350657,Thüringer Straße,51.46927,11.992391
752,2951,Tiefe Straße,51.426964,11.992414
753,347356,Tiefe Straße,51.426987,11.9923
754,310048,Tornau,51.527245,12.005909
755,18900,Triftstraße,51.5001,11.958629
756,343248,Triftstraße,51.500095,11.958442
757,104388,Trotha,51.519127,11.957558
758,110697,Trotha,51.519176,11.95808
759,279755,Trotha,51.51917,11.958021
760,318383,Trotha,51.51915,11.957934
761,399331,Trotha,51.51912,11.95773
762,233693,Turmstraße,51.463505,11.974295
763,246992,Turmstraße,51.462982,11.973973
764,142497,Türkstraße,51.4668,11.977662
765,438427,Türkstraße,51.466515,11.977586
766,160630,Ufaer Straße,51.45525,11.948056
767,18178,Uranusstraße,51.520523,11.957014
768,58279,Verlängerte Apoldaer Straße,51.48368,12.005691
769,217889,Vogelweide,51.456757,11.971064
770,230725,Vogelweide,51.458054,11.971997
771,239071,Vogelweide,51.456303,11.9722
772,258968,Vogelweide,51.456795,11.970865
773,287311,Vogelweide,51.456764,11.973166
774,63971,Vogelweide,51.45738,11.972025
775,279425,Vogelweide/Gleisw.,51.460316,11.971425
776,102044,Volkspark,51.497437,11.95585
777,386269,Volkspark,51.48741,11.949123
778,41751,Von-der-Heydt-Straße,51.43257,11.995269
779,455042,Von-der-Heydt-Straße,51.432625,11.995431
780,121102,Waldhornweg,51.440746,11.949279
781,88168,Waldhornweg,51.440956,11.94912
782,436216,Waldstraße,51.510933,11.910256
783,453435,Waldstraße,51.51086,11.91018
784,102067,Weinberg Campus,51.4958,11.939093
785,130177,Weinberg Campus,51.4957,11.939144
786,266756,Weinberg Campus,51.49612,11.939978
787,61788,Weinberg Campus,51.49599,11.938961
788,15032,Weststraße,51.470856,11.895942
789,274986,Weststraße,51.47098,11.896281
790,233277,Wiener Straße,51.455772,11.94334
791,258936,Wiener Straße,51.455803,11.943572
792,346787,Wiener Straße,51.455784,11.943283
793,371545,Wiener Straße,51.455826,11.943156
794,336667,Wilhelm-Koenen-Ring,51.5111,11.916492
795,193701,Willy-Lohmann-Straße,51.492805,11.970154
796,317756,Willy-Lohmann-Straße,51.49349,11.970127
797,232232,Wolfgang-Borchert-Straße,51.472153,11.907368
798,245001,Wolfgang-Borchert-Straße,51.472237,11.907373
799,35609,Wolfstraße,51.47112,11.97302
800,89098,Wolfstraße,51.471264,11.97254
801,151105,Wörmlitz,51.452377,11.942834
802,193259,Wörmlitz,51.452465,11.942998
803,217557,Wörmlitz,51.452236,11.942796
804,429804,Wörmlitz,51.452404,11.942893
805,16109,Wörmlitz Parkplatz,51.450714,11.94323
806,233874,Yorckstraße,51.492367,11.931498
807,75687,Yorckstraße,51.492393,11.931571
808,261672,Zentrum Neustadt,51.47998,11.927852
809,327716,Zentrum Neustadt,51.47991,11.927689
810,335998,Zentrum Neustadt,51.479782,11.927767
811,384220,Zentrum Neustadt,51.48008,11.927714
812,196192,Zoo,51.506428,11.965782
813,356754,Zoo,51.50653,11.965631
814,429909,Zscherbener Landstraße,51.471085,11.889896
815,454444,Zscherbener Landstraße,51.470814,11.892211
816,149996,Zscherbener Straße,51.473797,11.912987
817,253901,Zscherbener Straße,51.47389,11.913223
818,255998,Zum Planetarium,51.456776,12.031049
819,339775,Zum Planetarium,51.456387,12.030319
820,221112,Zwickauer Straße,51.48603,12.043921
821,366530,Zwickauer Straße,51.486153,12.043641
822,152035,Äußere Hordorfer Straße,51.496437,11.981136
823,396703,Äußere Hordorfer Straße,51.496407,11.981192
