node_id,stop_id,stop_name,stop_lat,stop_lon
0,183191,Aalborgring,54.316437,10.048266
1,308425,Aalborgring (Ankunft),54.31617,10.047968
2,22682,Adalbertstraße,54.35897,10.133267
3,382591,Adalbertstraße,54.358646,10.133381
4,264921,Adelheidstraße,54.319534,10.122558
5,309890,Adelheidstraße,54.319588,10.122529
6,155014,Adolf-Westphal-Straße,54.309753,10.131145
7,160962,Alsenstraße,54.334602,10.129797
8,200592,Alsenstraße,54.334835,10.129634
9,157951,Alt-Mettenhof,54.3171,10.061581
10,405146,Alt-Mettenhof,54.31703,10.062102
11,293288,Alte Siedlung,54.294037,10.153777
12,408844,Alte Siedlung,54.294243,10.153691
13,35161,"Altenholz-Stift, Stettiner Weg",54.38349,10.1387
14,188806,Am Biberbach,54.281143,10.116691
15,378040,Am Biberbach,54.28142,10.117098
16,305443,Am Dorfplatz,54.274734,10.108961
17,399732,Am Dorfplatz,54.274776,10.109331
18,281927,Am Forsthaus,54.324577,10.069877
19,386799,Am Forsthaus,54.324623,10.070709
20,411723,Am Hain,54.29487,10.076129
21,69604,Am Hain,54.294884,10.074593
22,100955,Am Langsee,54.306747,10.158129
23,103823,Am Langsee,54.306454,10.158889
24,364276,Am Reben,54.275433,10.100717
25,101270,Am Reben (Ankunft),54.275433,10.100717
26,54498,Am Stadion,54.35065,10.125175
27,67083,Am Stadion,54.35027,10.125611
28,311724,Am Teich,54.267097,10.177102
29,103551,Am Voßberg,54.29006,10.063221
30,416099,Am Voßberg,54.290043,10.063159
31,426100,Am Wellsee,54.27772,10.196404
32,91723,Am Wellsee (Ankunft),54.2777,10.196633
33,333359,Am Wohld,54.319576,10.065181
34,402127,Am Wohld,54.319424,10.065193
35,105640,An der Au,54.3552,10.071427
36,21621,An der Au,54.35522,10.071673
37,329378,An der Schanze,54.39193,10.176483
38,348434,An der Schanze,54.39195,10.176314
39,268351,Andreas-Gayk-Straße A,54.318905,10.134087
40,256764,Andreas-Gayk-Straße B,54.31903,10.134044
41,8244,Andreas-Gayk-Straße C,54.318996,10.13372
42,136898,Andreas-Gayk-Straße D,54.319336,10.134068
43,179868,Andreas-Hofer-Platz,54.297783,10.183601
44,439556,Andreas-Hofer-Platz,54.29791,10.183728
45,100075,Ansgarkirche > Alsenstr.,54.33543,10.132496
46,230650,Ansgarkirche > Feldstr./Waitzstr.,54.33534,10.13457
47,140717,Ansgarkirche > Schauenburgerstr.,54.334858,10.133188
48,344651,Ansgarkirche > Schauspielhaus,54.335735,10.133381
49,218298,Apenrader Straße,54.371983,10.138289
50,18626,Arndtplatz,54.325344,10.12104
51,433920,Arndtplatz,54.325623,10.121109
52,375918,Auberg,54.361713,10.130972
53,445620,Auberg,54.361786,10.131097
54,283267,August-Sievers-Ring,54.315388,10.178403
55,262292,Augustenstraße,54.31448,10.148692
56,385009,Augustenstraße,54.31494,10.148982
57,436086,Bachweg,54.395054,10.157442
58,452173,Bachweg,54.394955,10.157255
59,227878,Bahnhof (Fähre),54.31531,10.134603
60,163214,Bahnhof Ellerbek > Federmannstr.,54.313946,10.170368
61,413429,Bahnhof Ellerbek > Hollmannstr.,54.31315,10.16993
62,137096,Bahnhof Ellerbek > Schwanenseepl.,54.313885,10.170397
63,260371,Bahnhof Elmschenhagen,54.287426,10.181875
64,335063,Bahnhof Elmschenhagen,54.2872,10.18193
65,434223,Bahnhof Oppendorf,54.325798,10.208962
66,16154,Bahnhof Russee,54.309467,10.070192
67,245757,Bahnhof Russee,54.3095,10.071116
68,199176,Bahnhof Suchsdorf,54.349895,10.092137
69,213194,Bahnhof Suchsdorf,54.350136,10.092174
70,151461,Bahnübergang,54.36442,10.106651
71,7440,Bahnübergang,54.36452,10.106577
72,13759,Barkauer Kreuz,54.30335,10.128772
73,91626,Barkauer Kreuz,54.302956,10.12956
74,349903,Barkauer Straße,54.283688,10.135915
75,55797,Barkauer Straße,54.28408,10.13545
76,327418,Bebelplatz,54.29463,10.183572
77,40939,Bebelplatz,54.294674,10.183558
78,45348,Beekkate,54.273186,10.170487
79,459264,Beekkate,54.27349,10.170573
80,275172,Bellevue (Fähre),54.344448,10.154958
81,382853,Bellevue/Lindenallee,54.343502,10.155086
82,393204,Bellevue/Lindenallee,54.34331,10.155126
83,102546,Belvedere > Hanssenstr. (Holtenauer Str.),54.34559,10.133144
84,246243,Belvedere > Hanssenstr. (Paul-Fuß-Str.),54.346046,10.132342
85,205909,Belvedere > Hardenbergstr.,54.34506,10.132915
86,91900,Belvedere > Nordfriedhof,54.346073,10.132158
87,126680,Berchtesgadener Straße,54.283276,10.193523
88,401865,Berchtesgadener Straße,54.283047,10.193901
89,333239,Bergenring,54.324905,10.054017
90,58163,Bergenring,54.32458,10.053932
91,324672,Betriebshof Werftstraße,54.31048,10.13874
92,414487,Betriebshof Werftstraße,54.31077,10.13913
93,133944,Boksberg,54.331535,10.186016
94,161818,Boksberg,54.33183,10.186301
95,318949,Bootshafen,54.32163,10.138867
96,335937,Bootshafen,54.321682,10.138714
97,291364,Borsigstraße,54.278233,10.149204
98,294237,Borsigstraße,54.27752,10.149799
99,257544,Botanischer Garten,54.347443,10.11341
100,30359,Botanischer Garten (Ankunft),54.347122,10.113033
101,142119,Brahmsweg,54.395985,10.161319
102,400406,Brahmsweg,54.39572,10.161635
103,111885,Brahmsweg Ersatz Umleitung,54.39572,10.161635
104,375924,Brahmsweg Ersatz Umleitung,54.39572,10.161635
105,135188,Brauner Berg,54.39455,10.174155
106,284793,Brauner Berg,54.395615,10.172784
107,417726,Braunstraße,54.278294,10.142002
108,64422,Braunstraße,54.27826,10.14174
109,263411,Bremerskamp,54.346455,10.105691
110,366938,Bremerskamp,54.34665,10.105789
111,370537,Bunsenstraße,54.28462,10.154574
112,63782,Bunsenstraße,54.284554,10.154757
113,244578,Buschkoppel,54.291904,10.162153
114,315999,Buschkoppel,54.291557,10.162696
115,10426,Bustorfer Weg,54.28241,10.126617
116,142803,Bustorfer Weg,54.282307,10.126
117,15276,Bärenkrog,54.308475,10.096158
118,64979,Bärenkrog,54.30913,10.096252
119,76307,CITTI-PARK,54.312653,10.101695
120,426008,CITTI-PARK (Ankunft),54.31277,10.101591
121,103070,Carl-Loewe-Weg/Kiellinie,54.341,10.156538
122,187453,Carl-Loewe-Weg/Kiellinie,54.340206,10.156639
123,331122,Christian-Kruse-Straße,54.33257,10.117284
124,403304,Christian-Kruse-Straße,54.33243,10.11748
125,345724,Christianistraße,54.306484,10.108846
126,91551,Christianistraße,54.306526,10.108863
127,128100,Claudiusstraße,54.3978,10.17052
128,281062,Claudiusstraße,54.398075,10.170035
129,335124,Dahmeweg,54.308537,10.075394
130,453046,Dahmeweg,54.30862,10.075412
131,206803,Daimlerstraße,54.323734,10.079865
132,326705,Daimlerstraße,54.323845,10.079299
133,362385,Dammstraße,54.321934,10.128158
134,402953,Dammstraße,54.32172,10.128045
135,12977,Dehnckestraße,54.327854,10.104285
136,43427,Dehnckestraße,54.32741,10.105442
137,172322,Diederichsenpark,54.350048,10.142376
138,201053,Diederichsenpark,54.348885,10.144097
139,176695,Diedrichstraße A,54.303493,10.135584
140,348899,Diedrichstraße B,54.302345,10.136275
141,365512,Diedrichstraße C,54.30275,10.137285
142,175738,Diesterwegstraße,54.303837,10.113386
143,439042,Diesterwegstraße,54.303425,10.11193
144,362936,Dietrichsdorf (Fähre),54.32942,10.178358
145,139337,Dorfstraße,54.294422,10.174316
146,244485,Dorfstraße,54.294495,10.174349
147,170886,Dornbusch,54.29661,10.177344
148,314359,Dornbusch,54.29626,10.175613
149,286634,Drachenbahn,54.428696,10.167609
150,317561,Drachenbahn,54.42925,10.167193
151,152936,Dreiecksplatz > Lehmberg,54.330006,10.131147
152,175393,Dreiecksplatz > Lorentzendamm (Holtenauer Str.),54.33023,10.132092
153,157959,Dreiecksplatz > Lorentzendamm (Lehmberg),54.329784,10.131434
154,319034,Dreiecksplatz > Schauenburgerstr.,54.330326,10.132294
155,249138,Dreikronen,54.394775,10.144989
156,256664,Dreikronen,54.395054,10.145813
157,210645,Düvelsbeker Weg,54.348274,10.138926
158,429833,Düvelsbeker Weg,54.348328,10.139097
159,27413,Eckernförder Straße,54.332935,10.110911
160,334001,Eckernförder Straße,54.332863,10.110956
161,253005,Edisonstraße (Ankunft),54.27863,10.156772
162,9642,Edisonstraße > Bunsenstr.,54.278393,10.157165
163,423437,Edisonstraße > IG Wellsee,54.278263,10.157223
164,228884,Eiche,54.394382,10.163692
165,348602,Eiche,54.394306,10.163936
166,117077,Eichhof,54.33404,10.103959
167,417393,Eichhof,54.333626,10.104993
168,293157,Eichhofstraße > Christian-Kruse-Straße,54.33275,10.113567
169,196649,Eichhofstraße > Nordmark-Sportfeld,54.33342,10.112001
170,323528,Eichhofstraße > Prof.-Peters-Platz,54.333622,10.111191
171,111942,Eiderbad,54.287952,10.072738
172,152877,Eiderbad,54.287994,10.072939
173,135294,Elendsredder > F.-Junge-Schule Wik,54.354935,10.129509
174,448870,Elendsredder > Knorrstr.,54.355923,10.130705
175,423284,Elendsredder > Mercatorstr.,54.354885,10.129753
176,125413,Elendsredder > Schulredder,54.35431,10.131061
177,110115,Ellerbeker Markt,54.32358,10.17037
178,434804,Ellerbeker Markt,54.32327,10.16894
179,64531,Ellerbeker Markt,54.32326,10.168987
180,92814,Ellerbeker Markt,54.323635,10.170397
181,19400,Ellerbeker Schule,54.320236,10.169516
182,32604,Ellerbeker Schule,54.320045,10.170833
183,178662,Ellerbeker Weg,54.3067,10.177724
184,213337,Ellerbeker Weg (Ankunft),54.30714,10.177952
185,262725,Erlenkampsee,54.36659,10.104554
186,79356,Erlenkampsee,54.36651,10.104691
187,379622,Ernestinenstraße,54.31308,10.15966
188,431746,Ernestinenstraße,54.313065,10.15846
189,27543,Ernst-Barlach-Gymnasium,54.358627,10.107065
190,293470,Ernst-Barlach-Gymnasium,54.358215,10.106007
191,158574,Exerzierplatz,54.32098,10.127302
192,213850,Exerzierplatz,54.320824,10.126975
193,288121,Fachhochschule,54.33254,10.182646
194,29469,Fachhochschule,54.332672,10.182711
195,215785,Falckensteiner Strand,54.404003,10.18635
196,383652,Falckensteiner Straße,54.39162,10.179709
197,308677,Falckensteiner Straße (Ankunft),54.391735,10.179712
198,25533,Federmannstraße,54.310383,10.170743
199,302452,Federmannstraße,54.31032,10.170711
200,411118,Fehrsstraße,54.393265,10.160257
201,62554,Fehrsstraße,54.39087,10.161483
202,294127,Feldstraße/Waitzstraße > Ansgarkirche,54.33533,10.139045
203,170728,Feldstraße/Waitzstraße > Niemannsweg,54.335323,10.141014
204,399069,Feldstraße/Waitzstraße > Unikliniken,54.334846,10.140078
205,142430,Feldstraße/Waitzstraße > Wrangelstr.,54.33594,10.140093
206,199964,Fettberg,54.28559,10.139163
207,102445,Flughafen Kiel,54.384457,10.143346
208,221226,Flüggendorfer Straße,54.325497,10.194853
209,358280,Flüggendorfer Straße,54.325428,10.194805
210,230475,Franzensbader Straße,54.28786,10.198188
211,382797,Franzensbader Straße,54.288185,10.197168
212,124311,Franziusallee,54.31911,10.16543
213,26733,Franziusallee,54.31943,10.16598
214,384879,Franziusallee > Ellerbeker Markt,54.319695,10.166211
215,168692,Franziusallee > Große Ziegelstr.,54.31908,10.165486
216,331516,Franziusallee > Hollmannstr.,54.31882,10.166278
217,201116,Frerich-Frerichs-Allee,54.360043,10.112505
218,351343,Frerich-Frerichs-Allee,54.360233,10.11231
219,224810,Friedhof Elmschenhagen,54.291958,10.178994
220,291507,Friedhof Elmschenhagen,54.291904,10.179008
221,266723,Friedrich-Junge-Schule Wik,54.354687,10.12347
222,74312,Friedrich-Junge-Schule Wik,54.35452,10.124773
223,140834,Friedrichsort (Fähre),54.390022,10.178538
224,1901,Fröbelstraße,54.302364,10.113054
225,217448,Fröbelstraße,54.302338,10.112961
226,182430,Funkstellenweg,54.417553,10.170975
227,330981,Funkstellenweg,54.417564,10.170883
228,124271,Gablenzstraße,54.30968,10.13499
229,187702,Gablenzstraße,54.30988,10.13457
230,235418,Gablenzstraße (Hörnbad),54.309837,10.134575
231,422481,Gablenzstraße (Hörnbad),54.309708,10.134971
232,216570,Gatowweg,54.305714,10.077933
233,316499,Gatowweg,54.305645,10.077225
234,307347,Gerstenkamp,54.303852,10.176875
235,86395,Gerstenkamp,54.304123,10.176821
236,319884,Geschwister-Scholl-Straße,54.306374,10.163283
237,33091,Geschwister-Scholl-Straße,54.306957,10.163422
238,458575,Goetheschule,54.33461,10.123168
239,75148,Goetheschule,54.33438,10.123393
240,429364,Goldregenholz,54.278732,10.113231
241,97346,Goldregenholz,54.279236,10.11432
242,13106,Grabastraße,54.30985,10.169437
243,187829,Grabastraße,54.309475,10.167966
244,73126,Gravensteiner Straße,54.369038,10.130373
245,230999,Grenzgraben,54.33111,10.20523
246,33143,Grenzgraben,54.33113,10.2042
247,213524,Grenzgraben Kiel,54.331127,10.203654
248,357167,Grenzstraße,54.329872,10.182446
249,391376,Grenzstraße,54.32968,10.182487
250,197150,Grimmstraße,54.37083,10.146093
251,446375,Grot Steenbusch > Kieler Weg,54.284107,10.131748
252,55009,Grot Steenbusch > Neumeimersdorf,54.283207,10.130925
253,258909,Grot Steenbusch > Odbarsweg,54.282696,10.131694
254,115209,Große Ziegelstraße,54.317368,10.162179
255,394327,Große Ziegelstraße,54.317,10.161046
256,221285,Grüffkamp,54.400307,10.168219
257,49384,Grüffkamp,54.40055,10.167857
258,170298,Gurlittstraße,54.35655,10.117396
259,249510,Gurlittstraße,54.356472,10.117779
260,124373,Gärtnerstraße,54.305195,10.106214
261,47507,Gärtnerstraße,54.30513,10.107565
262,111246,Göteborgring > Am Forsthaus,54.32551,10.062228
263,191983,Göteborgring > Stockholmstr. (Göteborgring),54.32497,10.062784
264,201231,Göteborgring > Stockholmstr. (Skandinaviendamm),54.32541,10.064133
265,173927,Götenhof,54.26992,10.17603
266,306181,Götenhof,54.26952,10.176771
267,216505,HDW,54.31663,10.15062
268,401128,HDW,54.31601,10.15169
269,186237,HDW > Augustenstraße,54.31615,10.150537
270,80738,HDW > Große Ziegelstraße,54.316032,10.151749
271,224192,HDW > Norwegenkai,54.31661,10.150596
272,412870,Hamburger Baum,54.293217,10.10007
273,422801,Hamburger Baum,54.292667,10.099303
274,129197,Hans-Geiger-Gymnasium (Abfahrt),54.309086,10.162575
275,362481,Hans-Geiger-Gymnasium (Ankunft),54.309097,10.16256
276,110597,Hansastraße,54.33197,10.123466
277,322133,Hansastraße,54.331818,10.122938
278,23488,Hanssenstraße,54.349724,10.132289
279,315805,Hanssenstraße,54.349487,10.132221
280,100964,Hardenbergstraße,54.34206,10.133555
281,142856,Hardenbergstraße,54.341568,10.133357
282,422049,Harmsstraße,54.316647,10.121726
283,93343,Harmsstraße,54.31644,10.121628
284,175780,Hasenholz,54.29691,10.1187
285,249436,Hasenholz,54.29667,10.118432
286,370518,Hasseldieksdammer Weg,54.32146,10.111586
287,37858,Hasseldieksdammer Weg,54.3214,10.111185
288,106613,Hasselrade,54.319862,10.092479
289,144394,Hasselrade,54.31972,10.093259
290,182218,Hauptfeuerwache,54.330994,10.121301
291,87150,Hauptfeuerwache,54.331223,10.121923
292,326632,Hbf,54.31564,10.13099
293,84141,Hbf,54.31523,10.13123
294,81512,Hbf. A1,54.315155,10.13117
295,170077,Hbf. A2,54.314762,10.130914
296,183636,Hbf. B1,54.315853,10.131559
297,398772,Hbf. B2,54.315334,10.131145
298,323627,Hbf. B3,54.3148,10.130761
299,303213,Hbf. C1,54.315655,10.130784
300,165861,Hbf. C2,54.315857,10.131036
301,126512,Hbf. C3,54.316235,10.131262
302,229434,Hbf. D1,54.315544,10.13092
303,171041,Hbf. D2,54.315765,10.131141
304,120073,Hbf. D3,54.316223,10.131538
305,69617,Hebbelschule,54.34865,10.138891
306,94186,Hermannstraße > Hasselfelde,54.33954,10.19003
307,271813,Hermannstraße > Lüderitzstr.,54.33931,10.18987
308,132331,Hermannstraße > Salzredder,54.33905,10.189539
309,107820,Herthastraße,54.360027,10.138236
310,239212,Hofkoppel,54.30616,10.068892
311,51613,Hofkoppel,54.306557,10.068979
312,197447,Hohenleuchte > Brahmsweg,54.398193,10.158023
313,340616,Hohenleuchte > Dreikronen,54.39855,10.15657
314,428574,Hohenleuchte > Kreuzung Pries,54.398857,10.158119
315,190472,Hollmannstr.,54.314693,10.165639
316,202579,Hollmannstr.,54.315098,10.167587
317,110800,Hollmannstraße,54.31502,10.16739
318,419548,Hollmannstraße,54.31472,10.16564
319,310110,Holmredder,54.34951,10.080756
320,367945,Holmredder,54.350037,10.081232
321,146499,"Holtenau, Schule",54.372536,10.142553
322,210908,Holunderbusch,54.295647,10.116438
323,356587,Holunderbusch,54.29577,10.116564
324,451907,Homannstraße,54.351833,10.137055
325,456211,Homannstraße,54.35227,10.136867
326,156314,Hospitalstraße,54.32828,10.140265
327,39020,Hospitalstraße,54.32818,10.139986
328,288796,Hubertus,54.2925,10.156577
329,91699,Hubertus,54.292137,10.157612
330,72251,Hummelwiese > Gablenzstr.,54.310875,10.128594
331,26933,Hummelwiese > Hbf. (Gablenzstr.),54.311184,10.128202
332,183392,Hummelwiese > Hbf. (Sophienblatt),54.311848,10.128251
333,391699,Hummelwiese > Rondeel,54.310726,10.127052
334,178504,IG Wellsee,54.27575,10.151408
335,197491,IG Wellsee,54.275578,10.151419
336,28896,IPN,54.340088,10.117872
337,359142,IPN,54.339886,10.118144
338,206246,Ihlkatenweg,54.30134,10.059301
339,329158,Ihlkatenweg,54.301334,10.058794
340,213278,Ihlseeweg,54.29395,10.062584
341,297743,Ihlseeweg,54.29393,10.06243
342,270992,Ikea,54.313393,10.109124
343,52471,Ikea,54.313763,10.109688
344,10887,Illerweg,54.28878,10.186969
345,217334,Illerweg,54.288204,10.187966
346,379354,Im Saal,54.27938,10.138976
347,386388,Im Saal,54.279675,10.138431
348,351741,Immelmannstr. > Schleusenstr. (Linie 501),54.37399,10.130201
349,267325,Immelmannstr. > Schleusenstr. (Linien 32/91),54.373665,10.129438
350,3659,Immelmannstr. > Stettiner Weg,54.374493,10.130369
351,314164,Institut für Weltwirtschaft (ZBW),54.337486,10.154594
352,376237,Institut für Weltwirtschaft (ZBW),54.337597,10.155135
353,32456,Isarweg,54.288998,10.194103
354,90478,Isarweg,54.28916,10.192848
355,312263,Ivensring,54.332565,10.189075
356,414791,Ivensring,54.332554,10.189336
357,216145,Jaegerallee (Kanalfähre),54.369427,10.134971
358,160020,Jensendamm,54.325104,10.141761
359,302944,Jensendamm,54.32503,10.141928
360,295234,Johannisburger Straße,54.336765,10.191719
361,210640,Julius-Leber-Straße,54.28872,10.155196
362,254190,Julius-Leber-Straße,54.288548,10.15513
363,289390,Jütlandring > Odensestr.,54.315926,10.048115
364,271621,Jütlandring > Stavangerstr.,54.315914,10.048161
365,122196,KN Druckzentrum,54.277546,10.13547
366,281769,KN Druckzentrum,54.27711,10.135734
367,369742,KVG-Btf. Werftstraße A,54.310482,10.138789
368,424166,KVG-Btf. Werftstraße C,54.310795,10.139075
369,94387,KVG-Verw. Werftstr. B,54.30873,10.138587
370,197883,KVG-Verw. Werftstr. D,54.30895,10.138455
371,106304,Karlsburg,54.29202,10.1286
372,237524,Karlsburg,54.290855,10.129736
373,329686,Karlstal > KVG-Btf. Werftstr. (Karlstal),54.310658,10.144958
374,71659,Karlstal > KVG-Btf. Werftstr. (Schulstr.),54.31098,10.143983
375,247822,Karlstal > Kieler Str.,54.31106,10.144262
376,212662,Karlstal > Stoschstr.,54.31053,10.144893
377,441504,Kastanienallee,54.369072,10.147491
378,391559,Kattenbergsredder,54.25602,10.17285
379,64468,Kiel Hbf,54.314983,10.131976
380,374782,"Kiel, Am Biberbach, Mast 1u",54.28153,10.117131
381,176356,"Kiel, Am Biberbach, Mast 6o",54.28153,10.117131
382,42385,"Kiel, Am Dorfplatz, Mast 1u",54.27504,10.11006
383,190761,"Kiel, Am Dorfplatz, Mast 6o",54.27504,10.11006
384,286008,"Kiel, Am Langsee",54.30644,10.158833
385,443923,"Kiel, Am Langsee",54.306736,10.158183
386,253329,"Kiel, Am Langsee, Mast 1u",54.306507,10.158768
387,213901,"Kiel, Am Langsee, Mast 6o",54.306667,10.15825
388,457509,"Kiel, Am Taubenkrug, Mast 1o",54.30276,10.051822
389,320515,"Kiel, Am Taubenkrug, Mast 6u",54.30276,10.051822
390,387165,"Kiel, An der Schanze, Mast 1r",54.39173,10.176416
391,397383,"Kiel, An der Schanze, Mast 6l",54.39173,10.176416
392,458755,"Kiel, Andreas-Gayk-Straße, Mast 1r",54.31901,10.13409
393,420165,"Kiel, Andreas-Gayk-Straße, Mast 6l",54.31921,10.134018
394,17423,"Kiel, Ansgarkirche, Mast 1r",54.335663,10.133364
395,366236,"Kiel, Ansgarkirche, Mast 6l",54.3351,10.133302
396,408387,"Kiel, Arndtplatz, Mast 1o",54.325733,10.120851
397,440603,"Kiel, Arndtplatz, Mast 6u",54.32567,10.120757
398,108968,"Kiel, Bahnhof Suchsdorf, Mast 1=6l",54.35014,10.091066
399,161565,"Kiel, Bahnhof Suchsdorf, Mast 2",54.35014,10.091066
400,237974,"Kiel, Belvedere, Mast 1r",54.345623,10.133176
401,415365,"Kiel, Belvedere, Mast 6l",54.345078,10.132992
402,269501,"Kiel, Brahmsweg, Mast 1r",54.39554,10.161953
403,341327,"Kiel, Brahmsweg, Mast 6l",54.39554,10.161953
404,88693,"Kiel, Brauner Berg, Mast 1r",54.395355,10.173501
405,214807,"Kiel, Brauner Berg, Mast 6l",54.395355,10.173501
406,105460,"Kiel, Bustorfer Weg, Mast 1u",54.28243,10.126541
407,325171,"Kiel, Bustorfer Weg, Mast 6o",54.28243,10.126541
408,201391,"Kiel, Dehnckestraße, Mast 1o",54.32807,10.102861
409,438632,"Kiel, Dehnckestraße, Mast 6u",54.32791,10.10281
410,7422,"Kiel, Diesterwegstraße, Mast 1o",54.303413,10.112114
411,383947,"Kiel, Diesterwegstraße, Mast 6u",54.303703,10.112937
412,1015,"Kiel, Dornbusch",54.296257,10.175524
413,12000,"Kiel, Dornbusch",54.296597,10.177332
414,264210,"Kiel, Dornbusch, Mast 1u",54.296333,10.175308
415,453783,"Kiel, Dornbusch, Mast 6o",54.29653,10.177403
416,104424,"Kiel, Dreiecksplatz, Mast 1r",54.33011,10.132288
417,160577,"Kiel, Dreiecksplatz, Mast 6l",54.33029,10.132124
418,235100,"Kiel, Edisonstraße",54.272987,10.145007
419,300060,"Kiel, Edisonstraße",54.274044,10.144773
420,33363,"Kiel, Eiche (IGS Friedrichsort), Mast 1r",54.393997,10.164374
421,440661,"Kiel, Eiche (IGS Friedrichsort), Mast 6l",54.393997,10.164374
422,12939,"Kiel, Eichhofstraße, Mast 1r",54.333294,10.111921
423,376340,"Kiel, Eichhofstraße, Mast 6l",54.333233,10.11175
424,392538,"Kiel, Eiderbrücke, Mast 1l",54.289673,10.090251
425,129691,"Kiel, Eiderbrücke, Mast 6r",54.289673,10.090251
426,284873,"Kiel, Elendsredder, Mast 1r",54.355328,10.13075
427,231434,"Kiel, Elendsredder, Mast 6l",54.354523,10.131036
428,53237,"Kiel, Exerzierplatz, Mast 1o",54.32088,10.127376
429,307487,"Kiel, Exerzierplatz, Mast 6u",54.32078,10.127266
430,75916,"Kiel, Falckensteiner Straße, Mast 1r",54.392082,10.179922
431,251497,"Kiel, Flüggendorfer Straße",54.325424,10.194792
432,334309,"Kiel, Flüggendorfer Straße",54.325462,10.194913
433,290773,"Kiel, Funkstellenweg, Mast 1r",54.41723,10.170951
434,24142,"Kiel, Funkstellenweg, Mast 6l",54.41723,10.170951
435,156143,"Kiel, Gablenzstraße, Mast 1u",54.31017,10.131802
436,210577,"Kiel, Gablenzstraße, Mast 6o",54.309772,10.133974
437,240819,"Kiel, Goldregenholz, Mast 1r",54.27799,10.111921
438,6635,"Kiel, Goldregenholz, Mast 6l",54.27799,10.111921
439,85974,"Kiel, Grot Steenbusch, Mast 1r",54.283237,10.131417
440,330923,"Kiel, Grot Steenbusch, Mast 6l",54.283237,10.131417
441,233774,"Kiel, Gärtnerstraße, Mast 1o",54.305115,10.106274
442,207304,"Kiel, Gärtnerstraße, Mast 6l",54.304966,10.107776
443,37479,"Kiel, Hamburger Baum, Mast 1l",54.292877,10.099646
444,182525,"Kiel, Hamburger Baum, Mast 6r",54.292877,10.099646
445,276536,"Kiel, Hanssenstraße, Mast 1r",54.34954,10.132345
446,100931,"Kiel, Hanssenstraße, Mast 6l",54.34954,10.132345
447,95647,"Kiel, Hardenbergstraße, Mast 1r",54.34199,10.13343
448,103274,"Kiel, Hardenbergstraße, Mast 6l",54.341614,10.133481
449,100293,"Kiel, Hauptbahnhof",54.31565,10.130993
450,96232,"Kiel, Hauptbahnhof",54.315243,10.131227
451,419513,"Kiel, Hauptbahnhof B3",54.315845,10.131374
452,425302,"Kiel, Hauptbahnhof D1",54.315964,10.131331
453,427535,"Kiel, Hohenleuchte, Mast 1u",54.398735,10.157577
454,162305,"Kiel, Hohenleuchte, Mast 6o",54.398632,10.15705
455,40297,"Kiel, Humboldtschule, Mast 6r",54.327793,10.128257
456,135832,"Kiel, Hummelwiese",54.31165,10.12812
457,147221,"Kiel, Hummelwiese",54.311657,10.128119
458,55881,"Kiel, Hummelwiese",54.31115,10.12816
459,74332,"Kiel, Hummelwiese",54.31082,10.12881
460,9930,"Kiel, Hummelwiese",54.310787,10.127032
461,39419,"Kiel, Hummelwiese, Mast 1l",54.310673,10.127128
462,41154,"Kiel, Hummelwiese, Mast 2u",54.311127,10.127801
463,174982,"Kiel, Hummelwiese, Mast 6r",54.31176,10.12808
464,10974,"Kiel, Hummelwiese, Mast 7o",54.31103,10.128198
465,217291,"Kiel, Ihlkatenweg, Mast 1o",54.30141,10.058273
466,52615,"Kiel, Ihlkatenweg, Mast 6u",54.30141,10.058273
467,229034,"Kiel, Immelmannstraße, Mast 1r",54.374374,10.13035
468,80515,"Kiel, Immelmannstraße, Mast 6l",54.37418,10.13016
469,30744,"Kiel, Karlsburg",54.290874,10.129718
470,434623,"Kiel, Karlsburg",54.291985,10.128658
471,312837,"Kiel, Kleinflintbeker Weg, Mast 1u",54.274303,10.106247
472,27853,"Kiel, Kleinflintbeker Weg, Mast 6o",54.274303,10.106247
473,175034,"Kiel, Klosterweg",54.29613,10.195473
474,31027,"Kiel, Knorrstraße, Mast 1r",54.357895,10.130328
475,45011,"Kiel, Knorrstraße, Mast 6l",54.357895,10.130328
476,286670,"Kiel, Kreuzung Pries (K 17), Mast 1r",54.403404,10.164856
477,297078,"Kiel, Kreuzung Pries (K 17), Mast 6l",54.402958,10.16452
478,309268,"Kiel, Kreuzung Pries, Mast 1l",54.402462,10.1654
479,287497,"Kiel, Kreuzung Pries, Mast 6r",54.402462,10.1654
480,408313,"Kiel, Krusenrotter Weg, Mast 1l",54.306065,10.121054
481,452050,"Kiel, Krusenrotter Weg, Mast 6r",54.306213,10.121642
482,313489,"Kiel, Käthe-Kollwitz-Schule, Mast 1r",54.318047,10.118966
483,428388,"Kiel, Käthe-Kollwitz-Schule, Mast 6l",54.31958,10.117409
484,231689,"Kiel, Lorentzendamm, Mast 1r",54.32575,10.135521
485,40386,"Kiel, Lorentzendamm, Mast 6l",54.32575,10.135521
486,203035,"Kiel, Martensdamm, Mast 1r",54.323418,10.135733
487,441521,"Kiel, Martensdamm, Mast 6l",54.323444,10.135672
488,356394,"Kiel, Meimersdorf Schule, Mast 1u",54.282696,10.121034
489,258318,"Kiel, Meimersdorf Schule, Mast 6o",54.282696,10.121034
490,302245,"Kiel, Moorsee",54.26456,10.150388
491,360593,"Kiel, Moorsee",54.265163,10.150037
492,33401,"Kiel, Nienbrügger Weg, Mast 1l",54.355312,10.086141
493,447935,"Kiel, Nienbrügger Weg, Mast 6r",54.355385,10.086296
494,265430,"Kiel, Olympiazentrum, Mast 1r",54.425987,10.167717
495,438277,"Kiel, Olympiazentrum, Mast 6l",54.425987,10.167717
496,407193,"Kiel, Petersburger Weg, Mast 1l",54.297314,10.104927
497,429392,"Kiel, Petersburger Weg, Mast 6r",54.297314,10.104927
498,316816,"Kiel, Preetzer Str./Ostring, Mast 1u",54.30696,10.149974
499,143634,"Kiel, Preetzer Str./Ostring, Mast 6o",54.306896,10.148128
500,172930,"Kiel, Preetzer/Ostring",54.306976,10.148098
501,414811,"Kiel, Preetzer/Ostring",54.306904,10.150037
502,431467,"Kiel, Prey, Mast 1o",54.30064,10.093214
503,185687,"Kiel, Prey, Mast 6u",54.300896,10.094942
504,250349,"Kiel, Pries Dorf, Mast 1u",54.403732,10.156546
505,403782,"Kiel, Pries Dorf, Mast 6o",54.403744,10.156547
506,419265,"Kiel, Professor-Peters-Platz, Mast 2r",54.32834,10.117984
507,22721,"Kiel, Professor-Peters-Platz, Mast 7l",54.327705,10.118398
508,216866,"Kiel, Redinskamp, Mast 1r",54.3948,10.166985
509,25343,"Kiel, Redinskamp, Mast 6l",54.394817,10.16697
510,58040,"Kiel, Rendsburger Hof, Mast 6u",54.300503,10.072419
511,10158,"Kiel, Richthofenstraße, Mast 6o",54.373783,10.132012
512,173342,"Kiel, Rondeel, Mast 1l",54.30842,10.125176
513,63018,"Kiel, Rondeel, Mast 6r",54.30791,10.124547
514,246167,"Kiel, Rosenfelder Straße",54.32314,10.198438
515,61398,"Kiel, Rosenfelder Straße",54.323597,10.197849
516,197375,"Kiel, Rundweg",54.32099,10.201306
517,246120,"Kiel, Rundweg",54.320866,10.201263
518,153069,"Kiel, Russee Kirche, Mast 1o",54.30062,10.068272
519,340158,"Kiel, Rutkamp, Mast 1o",54.300335,10.076994
520,144433,"Kiel, Rutkamp, Mast 6u",54.300396,10.075274
521,144969,"Kiel, Räucherei",54.307117,10.14328
522,96171,"Kiel, Räucherei",54.307156,10.143876
523,265544,"Kiel, Schauenburgerstraße, Mast 1r",54.332554,10.132463
524,297355,"Kiel, Schauenburgerstraße, Mast 6l",54.332554,10.132463
525,25014,"Kiel, Schauspielhaus, Mast 1r",54.33886,10.133759
526,187971,"Kiel, Schauspielhaus, Mast 6l",54.339146,10.133783
527,92344,"Kiel, Schilksee Kirche, Mast 1r",54.420876,10.173089
528,342676,"Kiel, Schilksee Süd, Mast 1r",54.41395,10.169054
529,86772,"Kiel, Schilksee Süd, Mast 6l",54.41395,10.169054
530,35450,"Kiel, Schleswiger Straße, Mast 1r",54.30328,10.109252
531,264742,"Kiel, Schleusenstraße, Mast 1o",54.360653,10.130173
532,407815,"Kiel, Schleusenstraße, Mast 6u",54.360584,10.129941
533,424499,"Kiel, Schneiderkamp, Mast 1r",54.353657,10.08842
534,240750,"Kiel, Schneiderkamp, Mast 6l",54.352543,10.089514
535,65626,"Kiel, Schulensee (Endstation), Mast 1=6r",54.289787,10.089639
536,113815,"Kiel, Sophienhöhe",54.30078,10.165358
537,243028,"Kiel, Sophienhöhe",54.30158,10.16423
538,291163,"Kiel, Steenbeker Weg, Mast 1l",54.35444,10.120124
539,149371,"Kiel, Steenbeker Weg, Mast 6r",54.35444,10.120124
540,209890,"Kiel, Stormarnstraße",54.30473,10.125415
541,55882,"Kiel, Stormarnstraße",54.304626,10.125127
542,99290,"Kiel, Streitkamp, Mast 1o",54.30388,10.102921
543,132531,"Kiel, Streitkamp, Mast 6u",54.30319,10.10135
544,31656,"Kiel, Strucksdiek, Mast 1o",54.29974,10.085399
545,233482,"Kiel, Strucksdiek, Mast 6u",54.29974,10.085399
546,219522,"Kiel, Sylter Bogen, Mast 1r",54.35918,10.080933
547,261894,"Kiel, Sylter Bogen, Mast 6l",54.35918,10.080933
548,308340,"Kiel, Toweddern",54.29567,10.187362
549,353564,"Kiel, Toweddern",54.29619,10.187925
550,169966,"Kiel, Verwaltung Werftstraße",54.308987,10.13842
551,339910,"Kiel, Verwaltung Werftstraße",54.30874,10.138626
552,152686,"Kiel, Villacher Str.",54.297054,10.171328
553,337662,"Kiel, Villacher Str.",54.297977,10.169953
554,384269,"Kiel, Waldwiese, Mast 1o",54.305172,10.117495
555,258775,"Kiel, Waldwiese, Mast 6u",54.305172,10.117495
556,366308,"Kiel, Wellingdorf",54.32616,10.186229
557,425974,"Kiel, Wellingdorf",54.326096,10.186432
558,34583,"Kiel, Westring, Mast 1o",54.325054,10.113328
559,38685,"Kiel, Westring, Mast 6u",54.324787,10.114044
560,177176,"Kiel, Wiener Allee",54.29569,10.183285
561,405587,"Kiel, Wiener Allee",54.296375,10.182311
562,427286,"Kiel, Wiener Allee Ri. Kiel, Mast 6o",54.296284,10.18239
563,41255,"Kiel, Wiener Allee Ri. Raisdorf, Mast 1u",54.295696,10.183618
564,331890,"Kiel, Wilhelmplatz, Mast 1o",54.322464,10.121546
565,433928,"Kiel, Wilhelmplatz, Mast 6u",54.323124,10.120134
566,313245,"Kiel, Winterbeker Weg, Mast 1r",54.310764,10.116171
567,318879,"Kiel, Winterbeker Weg, Mast 6l",54.310764,10.116171
568,10544,"Kiel, Wischhofstraße",54.325493,10.18151
569,357391,"Kiel, Wulfsbrook, Mast 1l",54.301735,10.109088
570,220535,"Kiel, Wulfsbrook, Mast 6r",54.301735,10.109088
571,135391,"Kiel, ZOB",54.317154,10.133526
572,335792,"Kiel, ZOB",54.316586,10.133553
573,150479,"Kiel, ZOB, Abfahrt AK",54.317352,10.133767
574,170250,"Kiel, ZOB, Abfahrt VKP",54.317513,10.133803
575,310796,"Kiel, ZOB, Ankunft",54.317333,10.133659
576,183653,"Kiel, Ziegelteich, Mast 1o",54.318825,10.132086
577,379019,"Kiel, Ziegelteich, Mast 6u",54.31879,10.131916
578,269953,Kieler Kuhle,54.324203,10.171274
579,355711,Kieler Kuhle,54.325516,10.174894
580,148601,Kieler Straße,54.31445,10.145801
581,422278,Kieler Straße,54.314144,10.145747
582,371696,Kieler Weg -> Kronsburg,54.28667,10.131588
583,179843,Kieler Weg-> Meimersdorf,54.286575,10.131125
584,148767,Kirchhofallee,54.316967,10.12484
585,243420,Kirchhofallee,54.316895,10.124807
586,153008,Klausdorfer Weg/Ostring,54.319523,10.178275
587,206503,Klausdorfer Weg/Ostring,54.31905,10.176985
588,183895,Kleinflintbeker Weg,54.2744,10.104591
589,186261,Kleinflintbeker Weg,54.274162,10.10566
590,343458,Klosterweg,54.296192,10.195356
591,167242,Knorrstraße,54.3585,10.130591
592,351200,Knorrstraße,54.357677,10.130246
593,48725,Kolonnenweg,54.31178,10.089913
594,57252,Kolonnenweg (Ankunft),54.312412,10.091467
595,384939,Kreisauer Straße > Bunsenstr. (Linie 8),54.28428,10.160018
596,215098,Kreisauer Straße > Bunsenstr. (Linie 900),54.28433,10.162216
597,90129,Kreisauer Straße > Schoolkamp,54.284264,10.16246
598,409809,Kreisauer Straße > Tresckowweg,54.284187,10.159862
599,14723,Kreuzung Pries > Grüffkamp,54.40258,10.165418
600,261446,Kreuzung Pries > Hohenleuchte,54.402805,10.1643
601,307191,Kreuzung Pries > Seekamp,54.403572,10.165092
602,341785,Kronsburg,54.285847,10.14341
603,267402,"Kronshagen, Nordmark-Sportfeld, Mast 6r",54.339447,10.104334
604,281973,"Kronshagen, Vulkanweg, Mast 1l",54.347298,10.094914
605,217999,"Kronshagen, Vulkanweg, Mast 6r",54.347298,10.094914
606,10483,Kronshagener Weg,54.32459,10.113162
607,64942,Kronshagener Weg,54.32511,10.114237
608,199742,Krooger Kamp,54.287365,10.196483
609,45172,Krooger Kamp (Ankunft),54.288,10.195718
610,354776,Krummbogen,54.29352,10.113707
611,388476,Krummbogen (Ankunft),54.293568,10.113708
612,165999,Krusenrotter Weg,54.30616,10.121471
613,386316,Krusenrotter Weg,54.306065,10.120885
614,207209,Kunsthalle,54.327293,10.14582
615,444794,Kunsthalle,54.326653,10.145187
616,185731,Kunsthochschule,54.32737,10.128215
617,268668,Kunsthochschule,54.327812,10.128089
618,125001,Kurt-Schumacher-Platz,54.32214,10.05184
619,337652,Kurt-Schumacher-Platz,54.32185,10.05194
620,30574,Käthe-Kollwitz-Schule,54.31812,10.118891
621,116516,Kölenberg,54.290226,10.166761
622,80880,Kölenberg,54.290215,10.166837
623,245221,Königsförder Weg,54.317184,10.056049
624,248699,Königsförder Weg,54.317104,10.056939
625,361421,Königstein > Dehnckestr. (Kieler Str.),54.32882,10.095038
626,334463,Königstein > Dehnckestr. (Skandinaviendamm),54.32811,10.095788
627,405392,Königstein > Villenweg,54.32888,10.09524
628,129939,Königstein > Wittland,54.328274,10.095516
629,342334,Landtag,54.334686,10.150963
630,441537,Landtag,54.3348,10.151273
631,139918,Lantziusstraße,54.3123,10.111432
632,66042,Lantziusstraße,54.312454,10.111513
633,16449,Lehmberg > Alsenstr.,54.331524,10.128067
634,209502,Lehmberg > Dreiecksplatz,54.330845,10.128694
635,215247,Lehmberg > Hansastr.,54.331345,10.127201
636,36782,Lehmberg > Kunsthochschule,54.330425,10.128191
637,142952,Lehmkoppel,54.35133,10.071449
638,41557,Lehmkoppel,54.351425,10.07159
639,422297,Leibnizstraße > Bremerskamp,54.344902,10.10828
640,99918,Leibnizstraße > Uni-Sportstätten (Leibnizstr.),54.34497,10.109498
641,120899,Leibnizstraße > Uni-Sportstätten (Olshausenstr.),54.344788,10.108139
642,183868,Leibnizstraße > Universitätsbibliothek,54.34512,10.109902
643,126030,Liebigstraße,54.280285,10.145237
644,361380,Liebigstraße,54.280285,10.146327
645,127708,Lindenauwerft,54.389698,10.17106
646,452222,Lindenauwerft,54.389503,10.170654
647,345956,Lindenhain > Barkauer Str.,54.287437,10.134958
648,17018,Lindenhain > Karlsburg,54.28846,10.134064
649,25276,Lindenhain > Kieler Weg,54.288086,10.133854
650,166756,Lindenhain > Reesenberg,54.288082,10.135206
651,253681,Lorentzendamm,54.3258,10.135614
652,265371,Lorentzendamm,54.325535,10.135422
653,200595,Lubinus Clinicum,54.354305,10.11595
654,396680,Lubinus Clinicum,54.354275,10.116503
655,282124,Lüderitzstraße,54.334766,10.190892
656,34436,Lüderitzstraße,54.335884,10.190617
657,108064,Malmöweg,54.322433,10.061288
658,173944,Malmöweg,54.32168,10.061146
659,352376,Mangoldtstraße,54.35025,10.103209
660,383207,Mangoldtstraße,54.349915,10.101876
661,229493,Marconistraße,54.277935,10.165384
662,268815,Marconistraße,54.278244,10.164932
663,81211,Marie-Curie-Straße,54.278885,10.161879
664,296695,Marienlust,54.299786,10.090118
665,362746,Marienlust,54.29954,10.089221
666,276413,Martensdamm,54.323776,10.135743
667,61094,Martensdamm,54.323273,10.135698
668,349754,Max-Tau-Schule,54.317135,10.051589
669,407927,Max-Tau-Schule,54.317326,10.051179
670,154203,"Meimersdorf, Schule",54.282784,10.120452
671,332034,"Meimersdorf, Schule",54.2828,10.120606
672,133521,Meimersdorfer Weg,54.27975,10.097284
673,114080,Meimersdorfer Weg (Ankunft),54.27993,10.097182
674,385351,Melsdorfer Feldweg,54.31124,10.068378
675,44096,Melsdorfer Feldweg,54.311047,10.068435
676,314474,Melsdorfer Straße,54.319633,10.077129
677,338686,Melsdorfer Straße,54.319523,10.076511
678,440460,Mercatorstraße > Elendsredder,54.35543,10.134154
679,50570,Mercatorstraße > Homannstr.,54.35442,10.135496
680,454386,Mercatorstraße > Petruskirche,54.354885,10.135524
681,238701,Metzstraße,54.321564,10.114741
682,335502,Metzstraße,54.321682,10.114544
683,76226,"Moorsee, Dorfplatz",54.264668,10.145787
684,236957,Möllenholt,54.353977,10.078873
685,290640,Möllenholt,54.353973,10.079165
686,242921,Mühlenweg,54.319355,10.099845
687,368224,Mühlenweg,54.319263,10.098951
688,372740,Narvikstraße,54.3299,10.05436
689,393959,Narvikstraße (Ankunft),54.329834,10.054651
690,16190,Nelkenweg,54.298515,10.175601
691,288739,Nelkenweg,54.298546,10.175309
692,168899,Niemannsweg,54.3354,10.144969
693,450930,Niemannsweg,54.33577,10.145979
694,321505,Nienbrügger Weg,54.356094,10.085192
695,51050,Nienbrügger Weg,54.356937,10.084614
696,274865,Nissenstraße > August-Sievers-Ring,54.317043,10.180141
697,1651,Nissenstraße > Ellerbeker Schule,54.31771,10.179745
698,282905,Nissenstraße > Ostfriedhof/Selenter Str.,54.317932,10.179244
699,3774,Nixenweg,54.37172,10.130954
700,194775,Nordfriedhof,54.344948,10.128604
701,272885,Nordfriedhof,54.344067,10.127887
702,149002,Nordmark-Sportfeld (Mare-Klinikum),54.339546,10.10426
703,134584,Norwegenkai,54.316166,10.143312
704,198066,Norwegenkai,54.31617,10.14329
705,45019,Norwegenkai,54.31619,10.1438
706,89292,Norwegenkai,54.316223,10.143791
707,342241,Odbarsweg,54.280075,10.134018
708,58151,Odbarsweg,54.280434,10.133291
709,368765,Odensestr.,54.31533,10.049991
710,267453,Olympiazentrum,54.425922,10.168008
711,50261,Olympiazentrum,54.42537,10.168655
712,181641,Ostring/B76 > Diedrichstr.,54.301884,10.143331
713,372597,Ostring/B76 > Preetzer Str./Ostring,54.30189,10.144392
714,137897,Ostring/B76 > TÜV,54.30067,10.145188
715,252578,Ottomar-Enking-Straße,54.39438,10.165864
716,323354,Ottomar-Enking-Straße,54.39409,10.165239
717,284850,PREY,54.300716,10.093677
718,75393,PREY,54.300858,10.094864
719,294018,Pappelweg,54.299423,10.11697
720,300829,Pappelweg,54.29939,10.116877
721,380753,Partenkirchener Straße,54.2799,10.207741
722,289379,Petersburger Weg,54.297245,10.104818
723,382753,Petersburger Weg,54.29758,10.105227
724,219895,Petruskirche,54.35908,10.134978
725,35640,Petruskirche,54.358173,10.134737
726,354528,Pillauer Straße,54.337307,10.196749
727,415496,Pillauer Straße (Ankunft),54.337517,10.196371
728,239788,Plötzen,54.282616,10.20395
729,124058,Poggendörper Weg,54.33153,10.192752
730,63211,Poggendörper Weg,54.332138,10.192262
731,160833,Poppenrade,54.309204,10.163547
732,324790,Poppenrade,54.309235,10.163194
733,371619,Pottberg,54.285168,10.184146
734,411501,Pottberg,54.285404,10.183692
735,162746,Pottbergkrug,54.28317,10.187145
736,216910,Pottbergkrug,54.28302,10.188692
737,152071,Preetzer Straße/Ostring > Am Langsee,54.306904,10.15011
738,317649,Preetzer Straße/Ostring > Karlstal,54.3073,10.149368
739,198894,Preetzer Straße/Ostring > Ostring,54.30652,10.148424
740,415782,Preetzer Straße/Ostring > Räucherei,54.30696,10.14816
741,52145,Prieser Strand Ersatz -> Fehrsstraße,54.387573,10.16487
742,431612,Prieser Strand Ersatz -> Lindenau,54.388004,10.164266
743,167928,Professor-Peters-Platz > Arndtplatz,54.32737,10.118835
744,47935,Professor-Peters-Platz > Eichhofstr.,54.328648,10.117777
745,170527,Professor-Peters-Platz > Hauptfeuerwache,54.328438,10.119002
746,391756,Professor-Peters-Platz > Kronshagener Weg,54.327766,10.117523
747,362476,Pudelhütte,54.29449,10.070372
748,8588,Pudelhütte,54.294495,10.07005
749,383191,RBZ am Schützenpark,54.318886,10.111009
750,94566,RBZ am Schützenpark,54.31887,10.110748
751,108781,REWE CENTER,54.30957,10.109467
752,99343,REWE CENTER,54.30913,10.107242
753,393147,Rankestraße,54.34083,10.126568
754,434913,Rankestraße,54.341373,10.126429
755,16320,Rarsrott,54.27759,10.205539
756,124434,Rathaus/Opernhaus,54.323215,10.134298
757,158185,Rathaus/Opernhaus,54.322998,10.134538
758,272927,Redderkamp,54.303207,10.077714
759,61831,Redderkamp,54.302704,10.077547
760,275527,Redinskamp,54.3958,10.169216
761,363706,Redinskamp,54.396374,10.17068
762,30216,Reesenberg > Fettberg,54.28789,10.139226
763,412214,Reesenberg > Lindenhain,54.2881,10.139677
764,120765,Rehbenitzwinkel,54.356182,10.104152
765,348105,Rehbenitzwinkel,54.35616,10.104044
766,278253,Reichenberger Allee,54.289646,10.182861
767,345844,Reichenberger Allee,54.289604,10.182614
768,441254,Reventloubrücke,54.33408,10.151515
769,449958,Reventloubrücke (Ankunft),54.333702,10.151535
770,163950,Reventloubrücke (Fähre),54.33365,10.152733
771,106140,Richthofenstr. > Immelmannstr.,54.373756,10.13215
772,35331,Richthofenstr. > Nixenweg,54.373734,10.131749
773,239707,Rondeel,54.30824,10.124879
774,53626,Rondeel,54.307987,10.12481
775,409107,Roonstraße,54.34518,10.147933
776,413359,Roonstraße,54.34522,10.147703
777,63111,Rosenfelder Straße,54.323143,10.198444
778,6478,Rosenfelder Straße,54.32361,10.197843
779,368910,Roskilder Weg,54.31241,10.047303
780,286655,Rundweg,54.32064,10.201493
781,357063,Rundweg,54.321037,10.201289
782,280735,Rungholtplatz,54.361256,10.077063
783,98842,Rungholtplatz (Ankunft),54.361694,10.075443
784,346196,"Russee, Kirche",54.302013,10.067371
785,81082,"Russee, Kirche",54.301865,10.066845
786,410307,Russeer Weg > Am Wohld (Hofholzallee),54.316845,10.067278
787,261069,Russeer Weg > Am Wohld (Russeer Weg),54.316616,10.066581
788,86992,Russeer Weg > Melsdorfer Feldweg,54.31658,10.066395
789,288662,Russeer Weg > Waldesruh,54.31671,10.067782
790,21716,Rutkamp,54.30025,10.077591
791,310529,Rutkamp,54.30047,10.077274
792,284602,Räucherei,54.307137,10.143877
793,351524,Räucherei,54.30714,10.14317
794,182999,"Rönne, Dorf",54.267197,10.17887
795,246971,"Rönne, Dorf (Ankunft)",54.267197,10.17887
796,3960,Saarbrückenstraße,54.311954,10.109178
797,360325,Salzredder,54.33741,10.18457
798,385848,Salzredder,54.33704,10.183867
799,350093,Samwerstraße,54.33739,10.130181
800,8077,Samwerstraße,54.33784,10.129178
801,188681,Schauenburgerstraße,54.33232,10.132257
802,95475,Schauenburgerstraße,54.333225,10.132789
803,123795,Schauspielhaus,54.338905,10.133837
804,17573,Schauspielhaus,54.339096,10.133643
805,453421,Schiefe Horn,54.302586,10.052371
806,356007,Schiefe Horn (Ankunft),54.302673,10.052297
807,5401,Schilksee Süd,54.412975,10.168318
808,85764,Schilksee Süd,54.41358,10.16892
809,154221,"Schilksee, Kirche",54.420776,10.173071
810,311338,"Schilksee, Kirche",54.421246,10.172992
811,185299,Schlachthof,54.27433,10.150186
812,357200,Schlachthof,54.27424,10.149462
813,95952,Schleswiger Straße,54.30346,10.109165
814,362873,Schleuse,54.369896,10.142188
815,176818,Schleusenstraße,54.360973,10.129474
816,303236,Schleusenstraße,54.36052,10.129939
817,273754,Schloßgarten,54.326115,10.143311
818,443015,Schloßgarten,54.326847,10.143885
819,389248,Schlüsbek,54.261894,10.151053
820,93947,Schlüsbek (Ankunft),54.261757,10.152216
821,165666,Schneiderkamp > Bf. Suchsdorf,54.352425,10.089557
822,277320,Schneiderkamp > Holmredder,54.352924,10.088001
823,379363,Schneiderkamp > Nienbrügger Weg,54.35369,10.088498
824,275840,Schneiderkamp > Rehbenitzwinkel,54.35342,10.089953
825,129782,Schoolkamp,54.28746,10.169279
826,220459,Schoolkamp,54.287746,10.169195
827,181273,Schulensee,54.28994,10.090565
828,135550,Schulensee (Ankunft),54.289944,10.090242
829,384986,Schulredder,54.35325,10.131955
830,78351,Schulredder,54.35254,10.131905
831,404156,Schulzentrum Elmschenhagen,54.291634,10.19165
832,452265,Schulzentrum Elmschenhagen,54.291763,10.191525
833,66354,Schulzentrum Elmschenhagen,54.29149,10.192747
834,350358,Schwanenseeplatz > Bahnhof Ellerbek,54.314266,10.173421
835,189727,Schwanenseeplatz > Ph.-Reis-Weg (P.-Hansen-Str.),54.314987,10.174179
836,263067,Schwanenseeplatz > Selenter Str.,54.313652,10.173695
837,61580,Schwanenweg,54.3314,10.148918
838,72394,Schwanenweg,54.33084,10.148241
839,165422,Schwedendamm,54.306305,10.134786
840,325618,Schwentinestraße,54.33001,10.178406
841,126838,Schwentinestraße (Ankunft),54.331196,10.178547
842,226075,Schönkirchener Straße,54.32962,10.19628
843,312380,Schönkirchener Straße,54.329784,10.19773
844,365269,Schönkirchener Straße,54.32964,10.19629
845,51359,Schönkirchener Straße,54.32971,10.19771
846,206850,Schützenwall/Boiestraße,54.317432,10.115506
847,252745,Schützenwall/Boiestraße,54.31693,10.114692
848,347475,Seefischmarkt,54.32539,10.17868
849,356668,Seefischmarkt,54.32524,10.178931
850,71954,Seefischmarkt,54.32536,10.178703
851,99327,Seefischmarkt,54.32521,10.17894
852,277705,Seegarten (Fähre),54.3235,10.144777
853,229741,Seegarten/Ostseekai,54.32321,10.143231
854,445953,Seegarten/Ostseekai,54.323746,10.143984
855,442814,Seekamp,54.409855,10.165841
856,71967,Seekamp,54.409634,10.165572
857,108098,Seekoppelweg,54.29591,10.088587
858,227669,Seekoppelweg,54.296246,10.088073
859,424064,Seelandweg,54.31494,10.045123
860,343194,Seestraße,54.422775,10.171987
861,22848,Selenter Straße,54.31289,10.178255
862,433278,Selenter Straße,54.312214,10.177559
863,31903,Sonthofener Straße,54.28401,10.197354
864,89171,Sonthofener Straße,54.28404,10.197339
865,224157,Sophienhöhe,54.300774,10.165384
866,361521,Sophienhöhe,54.301582,10.164224
867,171267,Speckenbeker Weg,54.293217,10.084075
868,172857,Speckenbeker Weg,54.293243,10.084076
869,244714,Spolertstraße,54.300297,10.12583
870,421576,Spolertstraße,54.30026,10.126013
871,35500,Sportplatz Wellsee,54.29013,10.158708
872,84065,Sportplatz Wellsee,54.29006,10.158844
873,181956,Stadtrade,54.30919,10.104016
874,399188,Stadtrade,54.308823,10.1025
875,319177,Stavangerstraße,54.319992,10.050648
876,37135,Stavangerstraße,54.319008,10.049915
877,411874,Steenbeker Weg > Am Stadion,54.353256,10.121307
878,215115,Steenbeker Weg > Fr.-Ju.-Sch. Wik (Linie 91),54.35331,10.12137
879,374287,Steenbeker Weg > Gurlittstr.,54.354645,10.120053
880,19886,Steenbeker Weg > Kl. Lubinus/F.J.S.W.,54.35473,10.119855
881,408437,Stockholmstraße > Bergenring,54.32604,10.057245
882,146524,Stockholmstraße > Göteborgring,54.325863,10.05867
883,398610,Stockholmstraße > Narvikstr.,54.3266,10.057705
884,184483,Stormarnstraße,54.304615,10.125164
885,18611,Stormarnstraße,54.304714,10.125321
886,238555,Stoschstraße,54.310078,10.152228
887,289516,Stoschstraße,54.31055,10.15335
888,314546,Stoschstraße,54.31065,10.153427
889,417347,Stoschstraße,54.31012,10.15223
890,439722,Streitkamp,54.303703,10.102271
891,54808,Streitkamp,54.303665,10.102316
892,204661,Strucksdiek,54.29985,10.085141
893,85774,Strucksdiek,54.299778,10.084985
894,23624,Sylter Bogen,54.3588,10.081446
895,63209,Sylter Bogen,54.359615,10.080529
896,251970,Südfriedhof,54.31511,10.118579
897,371500,Südfriedhof,54.314743,10.117631
898,72665,Tannenberg,54.367958,10.104191
899,132382,Tannenberg (Ankunft),54.36794,10.104283
900,127906,Tannenholz,54.291653,10.059897
901,164771,Tannenholz,54.2917,10.059899
902,305934,Teplitzer Allee,54.29264,10.185666
903,47794,Teplitzer Allee,54.29306,10.185632
904,122329,Tiefe Allee,54.329273,10.190349
905,28184,Tiefe Allee,54.32909,10.190743
906,404490,Toni-Jensen-Schule,54.336975,10.192925
907,229566,Torfende > Ernst-Barlach-Gymnasium,54.35591,10.106622
908,270668,Torfende > Klinik Lubinus,54.355057,10.106753
909,252519,Torfende > Mangoldtstr.,54.354664,10.105496
910,329753,Torfende > Rehbenitzwinkel,54.35606,10.106811
911,256716,Toweddern,54.295784,10.188399
912,458334,Toweddern,54.296165,10.187873
913,11960,Trenntrader Weg,54.325264,10.210269
914,233939,Trenntrader Weg,54.32518,10.2103
915,395385,Trenntrader Weg,54.32492,10.210275
916,60352,Trenntrader Weg,54.32492,10.21025
917,113582,Tresckowweg,54.28601,10.154751
918,446644,Tresckowweg,54.286106,10.154754
919,137111,Tröndelweg,54.305748,10.175177
920,233477,Tröndelweg,54.30581,10.175286
921,135584,TÜV,54.297684,10.150053
922,55004,TÜV,54.29793,10.151397
923,162233,Uhlenkrog,54.306458,10.09675
924,46227,Uhlenkrog,54.30628,10.096745
925,140591,Ulmenweg,54.322193,10.212624
926,243741,Ulmenweg,54.32219,10.21272
927,200283,Ulmenweg (Ankunft),54.322193,10.212624
928,351050,Uni-Sportstätten,54.34308,10.111231
929,41264,Uni-Sportstätten,54.343422,10.110963
930,104009,Unikliniken,54.331375,10.140166
931,332735,Unikliniken,54.330597,10.139637
932,240775,Universität,54.339165,10.122523
933,329779,Universität,54.33907,10.123951
934,110307,Universität/Westring,54.33915,10.125692
935,61585,Universität/Westring,54.338287,10.124838
936,452371,Universitätsbibliothek,54.346283,10.111702
937,91046,Universitätsbibliothek,54.346203,10.111469
938,170577,Villacher Straße,54.29722,10.171276
939,182934,Villacher Straße,54.298016,10.169901
940,414522,Virchowstraße,54.320652,10.109397
941,425123,Virchowstraße,54.320717,10.110398
942,254949,Vulkanweg,54.347713,10.094556
943,420283,Vulkanweg,54.347355,10.094731
944,57294,WaD Haus Schönow,54.295177,10.103948
945,15025,Waldeck,54.31966,10.086108
946,358149,Waldeck,54.31963,10.086476
947,349363,Waldesruh,54.317467,10.071107
948,394552,Waldesruh,54.317886,10.071395
949,247956,Waldhof,54.2788,10.200812
950,15995,Waldwiese,54.30505,10.117153
951,432716,Waldwiese,54.305145,10.117217
952,122859,Weinberg,54.301296,10.180859
953,456915,Weinberg,54.30121,10.180856
954,376524,Wellingdorf,54.32612,10.186521
955,54184,Wellingdorf,54.326115,10.186183
956,449812,Wellingdorf (Fähre),54.327805,10.182464
957,132322,Wenrade,54.35907,10.113863
958,310957,Wenrade,54.358906,10.113336
959,219450,Westring,54.325077,10.112914
960,236084,Westring,54.325275,10.11295
961,233937,Wiener Allee,54.29568,10.183341
962,66918,Wiener Allee,54.296364,10.182439
963,110163,Wiepenkrog,54.290752,10.080308
964,378819,Wiepenkrog,54.29074,10.080431
965,202652,Wiesenweg,54.362392,10.109121
966,32322,Wiesenweg,54.362423,10.108952
967,185804,"Wik, Kanal",54.365227,10.131469
968,293178,"Wik, Kanal (Anknuft)",54.365574,10.131524
969,350780,Wilhelmplatz > Exerzierplatz (Hasseldieksd. Weg),54.322235,10.12011
970,429594,Wilhelmplatz > Exerzierplatz (Kronshagener Weg),54.322742,10.120692
971,108939,Wilhelmplatz > Metzstr.,54.322414,10.120145
972,232001,Wilhelmplatz > Westring,54.32315,10.120273
973,18431,Winterbeker Weg,54.31083,10.116265
974,399939,Winterbeker Weg,54.31116,10.116996
975,294788,Wischhofstraße > Boksberg,54.32483,10.181487
976,227716,Wischhofstraße > Wellingdorf,54.32552,10.181583
977,299716,Wittland,54.324486,10.085174
978,451601,Wittland,54.324303,10.083693
979,285752,Wohldkoppel,54.3084,10.174084
980,329797,Wohldkoppel,54.30838,10.174191
981,114634,Woltersweg,54.357063,10.112162
982,214172,Woltersweg,54.356773,10.112585
983,112321,Wrangelstraße,54.33908,10.139933
984,77868,Wrangelstraße,54.33977,10.14006
985,279227,Wulfsbrook,54.301937,10.109554
986,294410,Wulfsbrook,54.301487,10.108666
987,149608,Yorckstraße,54.34462,10.139718
988,439257,Yorckstraße,54.343353,10.139713
989,178368,ZOB,54.31714,10.13352
990,46428,ZOB,54.31658,10.13355
991,431073,Zeppelinring > Am Wellsee,54.281548,10.196392
992,44686,Zeppelinring > Berchtesgadener Str.,54.28188,10.195864
993,29838,Zeppelinring > Plötzen,54.28189,10.196555
994,159544,Ziegelteich,54.318745,10.131869
995,372381,Ziegelteich,54.318924,10.131797
