node_id,stop_id,stop_name,stop_lat,stop_lon
0,279776,A.-Bebel-/K.-Eisner-Str.,51.3214,12.368854
1,56152,A.-Bebel-/K.-Eisner-Str.,51.32174,12.369238
2,160514,A.-Bebel-/R.-Lehmann-Str.,51.315067,12.368562
3,281007,A.-Bebel-/R.-Lehmann-Str.,51.315086,12.36819
4,126560,A.-Hoffmann-/R.-Lehmann-Str.,51.314766,12.37778
5,148118,A.-Hoffmann-/R.-Lehmann-Str.,51.314823,12.377885
6,18989,A.-Hoffmann-/R.-Lehmann-Str.,51.31447,12.378461
7,317382,A.-Hoffmann-/R.-Lehmann-Str.,51.31513,12.378323
8,396755,A.-Hoffmann-/R.-Lehmann-Str.,51.31512,12.378308
9,381850,A.-Nitzsche-/A.-Hoffmann-Str.,51.310135,12.379634
10,443824,A.-Nitzsche-/A.-Hoffmann-Str.,51.310135,12.379634
11,79034,A.-Nitzsche-/A.-Hoffmann-Str.,51.310402,12.379095
12,46840,Abtnaundorf,51.365654,12.423169
13,74849,Abtnaundorf,51.36575,12.423248
14,12503,Abzw Hartmannsdorf,51.263027,12.292031
15,442196,Abzweig nach Hartmannsdorf,51.26305,12.292105
16,67768,Abzweig nach Hartmannsdorf,51.263,12.291972
17,108749,Adler,51.320175,12.330594
18,233914,Adler,51.320606,12.330539
19,307318,Adler,51.320316,12.329743
20,313595,Adler,51.31996,12.329889
21,357090,Adler,51.32118,12.330925
22,384908,Adler,51.320396,12.329103
23,26982,Ahornstraße,51.356598,12.460508
24,419968,Ahornstraße,51.35568,12.459893
25,306882,Albersdorfer Straße,51.284286,12.31139
26,419742,Albersdorfer Straße,51.28407,12.311389
27,437740,Albersdorfer Straße,51.284355,12.311452
28,63334,Albersdorfer Straße,51.28431,12.311449
29,262981,Allee-Center Süd,51.318504,12.289879
30,24640,"Allee-Center, Offenburger Str.",51.32045,12.28877
31,324017,"Allee-Center, Offenburger Str.",51.320522,12.288732
32,297075,Alte Salzstraße,51.314552,12.279753
33,342215,Alte Salzstraße,51.314537,12.279666
34,191334,Alte Theklaer Straße,51.39193,12.449997
35,205447,Alte Theklaer Straße,51.39189,12.44985
36,376207,Alte Theklaer Straße,51.392513,12.451018
37,207865,Altes Messegelände,51.320274,12.404919
38,236051,Altes Messegelände,51.321396,12.404098
39,299693,Altes Messegelände,51.321404,12.404099
40,31212,Altes Messegelände,51.320663,12.404733
41,396018,Altes Messegelände,51.320656,12.404746
42,342436,Altes Messegelände Sonderh.,51.322216,12.404259
43,98750,Altes Messegelände Sonderh.,51.322422,12.404605
44,326937,"Althen, Freundschaftsring",51.33975,12.522722
45,437685,"Althen, Freundschaftsring",51.339775,12.522752
46,163106,"Althen, Oertgering",51.344994,12.519434
47,254487,"Althen, Oertgering",51.346397,12.519355
48,186490,Althener Anger,51.339252,12.519195
49,367758,Althener Anger,51.33934,12.519532
50,410596,Am Bahndamm,51.332745,12.456671
51,439269,Am Bahndamm,51.33272,12.456268
52,271612,Am Eichwinkel,51.283684,12.395011
53,178127,Am Kellerberg,51.39395,12.457336
54,84686,Am Kellerberg,51.39325,12.458332
55,126131,Am Kirschberg,51.321156,12.283784
56,193079,Am Kirschberg,51.320095,12.281168
57,232834,Am Kirschberg,51.32049,12.282732
58,436405,Am Kirschberg,51.320374,12.282551
59,133685,Am Klucksgraben,51.267075,12.297983
60,166000,Am Klucksgraben,51.26714,12.298217
61,412643,Am Mückenschlösschen,51.348915,12.355338
62,96307,Am Mückenschlösschen,51.349518,12.355037
63,166469,Am Schenkberg,51.3968,12.451011
64,255734,Am Silo,51.30387,12.260071
65,284822,Am Silo,51.304,12.260309
66,210068,Am Sonneneck,51.301598,12.260999
67,410485,Am Sonneneck,51.301704,12.262585
68,214325,Am Sportpark,51.356857,12.312921
69,449186,Am Sportpark,51.35683,12.313192
70,122262,Am Viadukt,51.373142,12.327746
71,388490,Am Viadukt,51.37337,12.327303
72,391583,Am Viadukt,51.372845,12.328802
73,80358,Am Viadukt,51.37321,12.327665
74,170228,Am Vorwerk,51.35202,12.458684
75,34757,Am Vorwerk,51.35247,12.45899
76,102259,Am alten Flughafen,51.392666,12.397807
77,306428,Am alten Flughafen,51.39201,12.397529
78,250590,Am kleinen Feld,51.3167,12.264956
79,260555,Am langen Teiche,51.383816,12.453165
80,45963,Am langen Teiche,51.383926,12.454625
81,215590,An den Badeanlagen,51.279205,12.466152
82,302938,An den Pferdnerkabeln,51.38009,12.437208
83,99944,An den Pferdnerkabeln,51.380123,12.436923
84,188043,An den Platanen,51.32694,12.440217
85,441033,An den Platanen,51.326687,12.441949
86,119795,An den Tierkliniken,51.31831,12.394872
87,335826,An den Tierkliniken,51.317898,12.394741
88,414384,An der Brauerei,51.284615,12.45625
89,455073,An der Brauerei,51.285007,12.455491
90,417598,An der Hufschmiede,51.39521,12.33816
91,90667,An der Hufschmiede,51.39492,12.338196
92,295880,An der Märchenwiese,51.30564,12.396332
93,385706,An der Märchenwiese,51.306015,12.396403
94,439050,An der Märchenwiese SEV,51.3057,12.396221
95,386823,An der Schule,51.392166,12.333224
96,79647,An der Schule,51.391987,12.333211
97,182128,An der Tabaksmühle,51.31471,12.406716
98,367491,An der Tabaksmühle,51.314342,12.406603
99,159971,Anemonenweg,51.331707,12.439153
100,312607,Anemonenweg,51.3317,12.43855
101,124721,"Angerbrücke, Straßenbahnhof",51.33781,12.340817
102,263264,"Angerbrücke, Straßenbahnhof",51.33688,12.33983
103,285604,"Angerbrücke, Straßenbahnhof",51.337685,12.34052
104,360347,"Angerbrücke, Straßenbahnhof",51.33768,12.34075
105,406833,"Angerbrücke, Straßenbahnhof",51.33832,12.341916
106,78282,"Angerbrücke, Straßenbahnhof",51.337475,12.340003
107,87160,"Angerbrücke, Straßenbahnhof",51.337696,12.340794
108,192407,Annaberger Straße,51.371872,12.331633
109,289165,Annaberger Straße,51.371906,12.331434
110,332342,Annaberger Straße,51.37156,12.332228
111,36104,Annaberger Straße,51.371555,12.332314
112,236069,Annenstraße,51.34369,12.42087
113,334420,Annenstraße,51.343895,12.421517
114,60748,Annenstraße,51.34375,12.422195
115,10147,Antonien-/Gießerstraße,51.320347,12.325153
116,143947,Antonien-/Gießerstraße,51.32038,12.326189
117,363849,Antonien-/Gießerstraße,51.320427,12.326149
118,333690,"Apelstr., Hist. Bf",51.355,12.39101
119,458954,"Apelstr., Hist. Bf",51.354725,12.390559
120,171587,Arcus Park,51.361683,12.446859
121,361169,Arcus Park,51.36108,12.445708
122,410111,Arcus Park,51.361477,12.446341
123,2112,Arno-Nitzsche-Straße,51.31059,12.374489
124,139837,Arthur-Nagel-Straße,51.30797,12.32661
125,6805,Arthur-Nagel-Straße,51.307564,12.326681
126,75524,Arthur-Nagel-Straße,51.307785,12.326726
127,264336,Arthur-Polenz-Straße,51.306793,12.458578
128,377148,Arthur-Polenz-Straße,51.306732,12.458559
129,151898,Arthur-Polenz-Straße Sonder,51.3073,12.458415
130,274652,Arthur-Winkler-Straße,51.337822,12.475644
131,54801,Arthur-Winkler-Straße,51.337597,12.475929
132,158506,Auensee,51.3698,12.314675
133,207378,Auensee,51.369984,12.314875
134,160544,Auensee Li. 80,51.369892,12.314912
135,120650,Augustusplatz,51.33861,12.38242
136,293247,Augustusplatz,51.33909,12.382068
137,297480,Augustusplatz,51.338432,12.381775
138,343706,Augustusplatz,51.338844,12.381561
139,9726,Augustusplatz,51.339184,12.380452
140,130516,Augustusplatz Sonderhst.,51.33974,12.382589
141,194181,Augustusplatz Sonderhst.,51.339878,12.382212
142,420747,Azaleenstraße,51.263123,12.296008
143,64147,Azaleenstraße,51.26315,12.295294
144,357628,BMW Presswerk,51.412025,12.4497
145,38185,BMW Presswerk,51.411922,12.449907
146,233961,BMW Tor 1,51.40175,12.452505
147,200889,BMW Zentralgebäude,51.408607,12.443058
148,92432,BMW Zentralgebäude,51.408607,12.443058
149,244737,Baaderstraße,51.371204,12.376966
150,251359,Baaderstraße,51.37121,12.37711
151,299648,Baaderstraße,51.371197,12.376894
152,363237,Baaderstraße,51.37132,12.377061
153,406173,"Baalsdorf, Kirchweg",51.3226,12.488528
154,193154,Baalsdorfer Straße,51.324394,12.480569
155,244991,Baalsdorfer Straße,51.32343,12.480984
156,399017,Baalsdorfer Straße,51.323357,12.481294
157,70858,Baalsdorfer Straße,51.3244,12.480599
158,148314,Barbarastraße,51.345528,12.450139
159,351493,Barbarastraße,51.345547,12.450112
160,381332,Barbarastraße,51.345562,12.449323
161,52714,Barbarastraße,51.34555,12.44971
162,126742,Barnecker Straße,51.35613,12.299326
163,281270,Barnecker Straße,51.35613,12.299326
164,422860,Barnecker Straße,51.356487,12.298921
165,92602,Barnecker Straße,51.356293,12.299151
166,125193,Bautzner Straße,51.35547,12.433754
167,64910,Bautzner Straße,51.355564,12.434178
168,94893,Bautzner Straße,51.355686,12.434302
169,29456,Bautzner/Bästleinstraße,51.357227,12.431473
170,430223,Bautzner/Bästleinstraße,51.35723,12.431574
171,301336,Bayerischer Bahnhof,51.331337,12.379659
172,369246,Bayerischer Bahnhof,51.32982,12.379992
173,373659,Bayerischer Bahnhof,51.330597,12.381284
174,402236,Bayerischer Bahnhof,51.329395,12.380248
175,404504,Bayerischer Bahnhof,51.330185,12.381857
176,450893,Bayerischer Bahnhof,51.330456,12.380599
177,54038,Bayerischer Bahnhof,51.33156,12.379819
178,84176,Bayerischer Bahnhof,51.33021,12.380266
179,436523,Bei der Krähenhütte,51.28729,12.398805
180,252595,Bergstraße,51.340603,12.402106
181,397093,Bergstraße,51.34061,12.402235
182,165773,Bertolt-Brecht-Straße,51.358707,12.428194
183,401797,Bertolt-Brecht-Straße,51.358673,12.428436
184,273139,Beyerleinstraße,51.37886,12.358708
185,402178,Beyerleinstraße,51.378494,12.358954
186,180234,Bf. Holzhausen,51.306534,12.461628
187,37192,Bf. Holzhausen,51.306427,12.462466
188,295993,Bf. Mölkau,51.324646,12.459104
189,360430,Bf. Mölkau,51.324543,12.459498
190,446316,Bf. Paunsdorf,51.344536,12.44504
191,92625,Bf. Paunsdorf,51.344917,12.445226
192,334042,Binzer Straße,51.311897,12.259621
193,453042,Binzer Straße,51.312107,12.259808
194,125166,Bismarckstraße,51.300274,12.319957
195,225424,Bismarckstraße,51.30052,12.320391
196,134805,Blüthnerstraße,51.351322,12.314087
197,391144,Blüthnerstraße,51.35197,12.314033
198,268722,Brahestraße,51.365196,12.438174
199,337287,Brahestraße,51.365772,12.437226
200,308948,Brand-/Selnecker Str.,51.309498,12.369373
201,168300,Brandiser Straße,51.32376,12.47491
202,99721,Brandiser Straße,51.323696,12.475336
203,179045,Braun-/Bautzner Straße,51.359394,12.430817
204,415351,Braun-/Bautzner Straße,51.359314,12.430495
205,306385,Braun-/Heiterblickstr.,51.368477,12.430534
206,81847,Braun-/Heiterblickstr.,51.369267,12.430837
207,4195,Breisgau-/Ringstraße,51.317783,12.295553
208,96703,"Breisgaustr., S-Bf. Karlsruher",51.317234,12.280992
209,184863,Breite Straße,51.335564,12.408522
210,352012,Breite Straße,51.335457,12.407839
211,419926,Breite Straße,51.335854,12.408099
212,446041,Breite Straße,51.335438,12.407881
213,93619,Breite Straße,51.335835,12.408112
214,206514,"Breitenfeld, Gewerbegebiet",51.404613,12.359245
215,40791,"Breitenfeld, Gewerbegebiet",51.40465,12.359219
216,201162,"Breitenfeld, Kutscherweg",51.403233,12.34126
217,216194,"Breitenfeld, Parkring",51.404594,12.346147
218,273156,"Breitenfeld, Tierheim",51.40314,12.346285
219,50351,Breitscheidhof,51.35191,12.286961
220,220802,Bremer Straße,51.376133,12.365692
221,247597,Bremer Straße,51.376156,12.36453
222,138303,Breslauer Straße,51.323414,12.414695
223,8325,Breslauer Straße,51.323875,12.415849
224,149768,Breslauer Straße Li. 4,51.323414,12.414695
225,414740,Breslauer Straße Li. 4,51.323875,12.415849
226,386279,Buchfinkenweg,51.378986,12.328415
227,63641,Buchfinkenweg,51.378944,12.328699
228,273621,Burghausen,51.3557,12.265462
229,410912,Burghausen,51.354725,12.264416
230,103351,Bästlein-/Schwantesstraße,51.35572,12.429149
231,241635,Bästlein-/Schwantesstraße,51.35519,12.427659
232,14000,"Böhlitz-Ehrenberg, Burghausene",51.361195,12.271871
233,200101,"Böhlitz-Ehrenberg, Burghausene",51.361767,12.272658
234,408823,"Böhlitz-Ehrenberg, Burghausene",51.361137,12.270789
235,416941,"Böhlitz-Ehrenberg, Burghausene",51.361706,12.272252
236,138591,"Böhlitz-Ehrenberg, H.-Heine-St",51.357166,12.2883
237,285741,Chausseehaus,51.355778,12.376778
238,448920,Chausseehaus,51.35654,12.376834
239,423464,Chausseehaus SEV,51.355915,12.377004
240,72279,Chausseehaus SEV,51.356045,12.376625
241,345774,Cleudner Straße,51.381584,12.443154
242,372332,Cleudner Straße,51.381275,12.4427
243,134283,Colmbergsiedlung,51.295464,12.464294
244,260,Colmbergsiedlung,51.296093,12.464356
245,15166,Congress Center,51.397594,12.398662
246,192609,Connewitzer Kreuz,51.311604,12.371808
247,231051,Connewitzer Kreuz,51.31097,12.373182
248,25872,Connewitzer Kreuz,51.31143,12.373403
249,270337,Connewitzer Kreuz,51.311615,12.372957
250,273479,Connewitzer Kreuz,51.31181,12.373273
251,294617,Connewitzer Kreuz,51.31183,12.37326
252,306007,Connewitzer Kreuz,51.311615,12.372957
253,88186,Connewitzer Kreuz,51.310932,12.373194
254,105720,Connewitzer Kreuz 01,51.31167,12.37266
255,300638,Connewitzer Kreuz 06,51.311882,12.37335
256,249282,Connewitzer Str.,51.304565,12.416034
257,280551,Connewitzer Straße,51.30447,12.418609
258,340058,Connewitzer Straße,51.3046,12.414445
259,292736,"Cospudener See, Erlebnisachse",51.28193,12.351122
260,434173,"Cospudener See, Erlebnisachse",51.281654,12.351303
261,286392,"Cospudener See, Nordstrand",51.285946,12.345952
262,366978,"Cospudener See, Nordstrand",51.286037,12.346131
263,344775,Cradefelder Straße,51.387306,12.462238
264,401649,Cradefelder Straße,51.387486,12.462208
265,153136,Credéstraße,51.330315,12.314565
266,192040,Credéstraße,51.33025,12.314632
267,260165,Credéstraße,51.33034,12.314897
268,337763,Credéstraße,51.330166,12.31431
269,124491,Cunnersdorfer Straße,51.3421,12.42981
270,314852,Cunnersdorfer Straße,51.342102,12.429667
271,292158,Dachauer Straße,51.390034,12.376558
272,364633,Dachauer Straße,51.39001,12.377461
273,38032,Dachauer Straße,51.390358,12.376941
274,380567,Dachauer Straße,51.389996,12.377316
275,48525,Dachauer Straße,51.38962,12.377504
276,60057,Dankwartstraße,51.299168,12.393171
277,96710,Dankwartstraße,51.299118,12.393082
278,326537,Dantestraße,51.366676,12.347013
279,339064,Dantestraße,51.367012,12.345702
280,443371,Dantestraße,51.36672,12.346844
281,47120,Dantestraße,51.367023,12.345933
282,103444,Delitzscher/Essener Str.,51.37548,12.385427
283,270968,Delitzscher/Essener Str.,51.37613,12.384139
284,271865,Delitzscher/Essener Str.,51.376057,12.384866
285,290852,Delitzscher/Essener Str.,51.37664,12.385499
286,421750,Delitzscher/Essener Str.,51.37679,12.385352
287,371723,Delitzscher/Theresienstr. Sond,51.359516,12.380299
288,224382,Demmeringstraße,51.330982,12.309073
289,80227,Demmeringstraße,51.33131,12.308867
290,113654,Deutsche Nationalbibliothek,51.32325,12.3965
291,211993,Deutsche Nationalbibliothek,51.323357,12.394456
292,335150,Deutsche Nationalbibliothek,51.323467,12.396115
293,395872,Deutsche Nationalbibliothek,51.323242,12.394893
294,447614,Deutsche Nationalbibliothek,51.32343,12.39505
295,86512,Deutsche Nationalbibliothek,51.323006,12.393799
296,288698,Deutscher Platz,51.321133,12.397061
297,213494,Diakonissenhaus,51.343643,12.321055
298,350037,Diakonissenhaus,51.343674,12.320943
299,386145,Diakonissenhaus,51.34337,12.321308
300,77728,Diakonissenhaus,51.343334,12.321435
301,358845,Diezmannstraße,51.31975,12.317591
302,369343,Diezmannstraße,51.320118,12.317661
303,112499,"Dingolfinger Str.,Fa.Magna",51.396957,12.431258
304,192725,Dornbergerstraße,51.342793,12.405958
305,263642,Dornbergerstraße,51.342136,12.405938
306,191718,Dr.-H.-Duncker-Straße,51.333054,12.306352
307,201144,Dr.-H.-Duncker-Straße,51.333145,12.306042
308,30472,Dr.-H.-Duncker-Straße,51.33382,12.305632
309,258649,Dr.-Wilhelm-Külz-Straße,51.331276,12.435504
310,262857,Dr.-Wilhelm-Külz-Straße,51.331345,12.435337
311,112453,Dreiecksweg,51.31057,12.310113
312,34674,Dreiecksweg,51.31039,12.310631
313,319656,"Dölitz, Straßenbahnhof",51.285446,12.394095
314,411742,"Dölitz, Straßenbahnhof",51.28407,12.39481
315,87483,"Dölitz, Straßenbahnhof",51.28407,12.39481
316,168343,Döringstraße,51.372166,12.409835
317,210130,Döringstraße,51.37123,12.408861
318,350804,Dürrstraße,51.29672,12.390251
319,401504,Dürrstraße,51.29658,12.390298
320,147110,Edlichstraße,51.342743,12.414195
321,6999,Edlichstraße,51.343018,12.415522
322,303136,Einertstraße,51.34591,12.399369
323,38934,Einertstraße,51.345905,12.399426
324,451509,Einertstraße,51.345825,12.400023
325,128400,Einfahrt Sachsenpark,51.400368,12.40042
326,318291,Einfahrt Sachsenpark,51.39988,12.402382
327,90262,Einfahrt Sachsenpark,51.399662,12.402107
328,112318,Elisabeth-Schumacher-Str.,51.350784,12.440167
329,187055,Elsastraße,51.342346,12.399105
330,31363,Elsastraße,51.34256,12.398547
331,206108,Elster Passage,51.328957,12.336613
332,271606,Elster Passage,51.329292,12.336881
333,347952,Elster Passage,51.328957,12.336627
334,369040,Elster Passage,51.329292,12.336867
335,49324,Engelsdorf Güterbahnhofstr,51.345886,12.465042
336,267093,Engelsdorf Sabinenstr,51.347157,12.494013
337,360731,"Engelsdorf, Arnoldplatz",51.347725,12.491529
338,125508,"Engelsdorf, Gymnasium",51.3345,12.481522
339,185490,"Engelsdorf, Gymnasium",51.33457,12.481528
340,222084,"Engelsdorf, Gymnasium",51.33386,12.481689
341,53005,"Engelsdorf, Gymnasium",51.334408,12.483123
342,114131,"Engelsdorf, Kirche",51.335827,12.485341
343,162578,"Engelsdorf, Kirche",51.335873,12.485531
344,209632,"Engelsdorf, Kirchweg",51.337337,12.489188
345,86990,"Engelsdorf, Kirchweg",51.33683,12.48757
346,376370,"Engelsdorf, Ärztehaus",51.33895,12.462178
347,455070,"Engelsdorf, Ärztehaus",51.33842,12.463085
348,31236,Erich-Zeigner-Allee,51.327442,12.336847
349,42453,Erich-Zeigner-Allee,51.32717,12.337818
350,363438,Erika-von-Brockdorff-Straße,51.369617,12.34605
351,374652,Erika-von-Brockdorff-Straße,51.369762,12.345098
352,335969,Ernst-Guhr-Straße,51.336647,12.471895
353,401270,Ernst-Guhr-Straße,51.336617,12.471763
354,174991,Ernst-Keil-Straße,51.339367,12.29937
355,53610,Ernst-Keil-Straße,51.3396,12.299401
356,185406,Essener/Friedrichshafner Str.,51.375443,12.405639
357,22477,Essener/Friedrichshafner Str.,51.375065,12.405424
358,345932,Eulengraben,51.271805,12.480431
359,356929,Eulengraben,51.271667,12.480421
360,185,Eutritzscher Markt,51.36803,12.385998
361,422663,Eutritzscher Markt,51.368378,12.386109
362,123013,Eutritzscher Zentrum,51.36497,12.385757
363,196498,Eutritzscher Zentrum,51.36538,12.385515
364,304931,Eutritzscher Zentrum,51.364708,12.384258
365,314601,Eutritzscher Zentrum,51.36501,12.384424
366,91518,Eutritzscher Zentrum,51.364964,12.384464
367,232459,Faradaystraße,51.368847,12.348536
368,366399,Faradaystraße,51.36855,12.349233
369,32743,Feldstraße,51.303123,12.441231
370,432246,Feldstraße,51.3031,12.441029
371,125464,Felsenkeller,51.332348,12.338166
372,169376,Felsenkeller,51.332775,12.338957
373,170717,Felsenkeller,51.33238,12.339618
374,215095,Felsenkeller,51.33237,12.338382
375,221776,Felsenkeller,51.332138,12.338653
376,348737,Felsenkeller,51.332714,12.338881
377,428572,Felsenkeller,51.332115,12.338709
378,126604,Ferag,51.402267,12.459301
379,63170,Ferag,51.402603,12.459139
380,109646,Feuerbachstraße,51.34577,12.357104
381,253702,Feuerbachstraße,51.346268,12.356781
382,405621,Feuerbachstraße,51.34577,12.357104
383,153143,Fliederhof,51.35437,12.395358
384,416558,Fliederhof,51.353977,12.396133
385,213994,Fockestraße,51.320778,12.367302
386,392917,Fockestraße,51.321064,12.366677
387,15390,Forstweg,51.361282,12.276861
388,185736,Forstweg,51.36117,12.2776
389,363448,Forstweg,51.361393,12.277041
390,367270,Forstweg,51.36125,12.277648
391,134314,Fortunabadstraße,51.281425,12.310438
392,256451,Fortunabadstraße,51.280907,12.310401
393,359916,Fortunabadstraße,51.281292,12.310429
394,425029,Fortunabadstraße,51.28096,12.310391
395,298920,Franz-Mehring-Straße,51.376038,12.370196
396,317793,Franz-Mehring-Straße,51.376137,12.369657
397,121220,Franzosenallee,51.300797,12.432838
398,184920,Franzosenallee,51.30082,12.432668
399,379398,Franzosenallee,51.300804,12.430759
400,452625,Franzosenallee,51.300495,12.431152
401,58175,Franzosenallee,51.30043,12.431032
402,24064,Freiberger Straße,51.375015,12.431957
403,248908,Freiberger Straße,51.374966,12.433088
404,128795,Freirodaer Weg,51.385757,12.273869
405,25722,Freirodaer Weg,51.38567,12.274523
406,236764,Freirodaer Weg SEV,51.384727,12.27253
407,271537,Freirodaer Weg SEV,51.38464,12.27307
408,134780,Freizeitpark Belantis,51.25042,12.314341
409,100501,Friederikenstraße,51.29075,12.390528
410,173335,Friederikenstraße,51.29074,12.39047
411,245219,Friederikenstraße,51.290367,12.390615
412,44807,Friederikenstraße,51.290367,12.390572
413,152689,Friedrich-List-Platz,51.34526,12.392889
414,201679,Friedrich-List-Platz,51.345222,12.391996
415,348488,Friedrich-List-Platz,51.345596,12.39277
416,445188,Friedrich-List-Platz,51.34529,12.392101
417,326089,Friedrichshafner Straße,51.3689,12.406532
418,413557,Friedrichshafner Straße,51.36937,12.405849
419,416699,Friedrichshafner Straße,51.36832,12.40603
420,63964,Friedrichshafner Straße,51.36817,12.405904
421,102837,Fritz-Seger-Straße,51.357067,12.368845
422,306984,Fritz-Seger-Straße,51.35672,12.369092
423,443198,Fritz-Seger-Straße,51.35704,12.368943
424,423940,Future Electronics,51.406666,12.459273
425,441201,Future Electronics,51.406162,12.459149
426,131651,G.-Schumann-/Lindenthaler Str.,51.3624,12.366321
427,236483,G.-Schumann-/Lindenthaler Str.,51.363644,12.365665
428,303050,G.-Schumann-/Lindenthaler Str.,51.36259,12.365057
429,32245,G.-Schumann-/Lindenthaler Str.,51.362766,12.365501
430,33555,G.-Schumann-/Lindenthaler Str.,51.362404,12.365948
431,337802,G.-Schumann-/Lindenthaler Str.,51.362602,12.365
432,66875,G.-Schumann-/Lindenthaler Str.,51.362564,12.364724
433,101032,G.-Schumann-/Lützowstr.,51.36124,12.371033
434,114497,G.-Schumann-/Lützowstr.,51.361523,12.370867
435,255652,G.-Schumann-/Lützowstr.,51.36108,12.370404
436,386849,G.-Schumann-/Lützowstr.,51.36115,12.370452
437,455582,G.-Schumann-/Lützowstr.,51.36108,12.37161
438,159844,G.-Schwarz-/Merseburger Str.,51.33824,12.327297
439,178248,G.-Schwarz-/Merseburger Str.,51.33836,12.324764
440,191329,G.-Schwarz-/Merseburger Str.,51.33842,12.327295
441,194044,G.-Schwarz-/Merseburger Str.,51.33771,12.327272
442,268283,G.-Schwarz-/Merseburger Str.,51.338314,12.324747
443,383656,G.-Schwarz-/Merseburger Str.,51.338123,12.327302
444,153933,"GVZ Nord, Deutsche Post AG",51.41358,12.2934
445,30647,"GVZ Nord, Deutsche Post AG",51.41363,12.293447
446,46356,"GVZ Nord, Großmarkt Leipzig",51.411167,12.305606
447,94113,"GVZ Nord, Großmarkt Leipzig",51.410652,12.305727
448,203882,"GVZ Nord, Porschestraße",51.413403,12.296493
449,361086,"GVZ Nord, Porschestraße",51.413303,12.296472
450,379360,"GVZ Nord, Sattlerweg",51.408463,12.302392
451,175169,"GVZ Nord, T&S",51.4131,12.30241
452,60470,"GVZ Nord, T&S",51.413162,12.302788
453,166868,"GVZ Süd, Am Exer",51.394104,12.292718
454,389028,"GVZ Süd, Am Exer",51.39592,12.293783
455,186886,Gefrierzentrum,51.25076,12.273789
456,203894,Gefrierzentrum,51.25077,12.273761
457,274393,Gefrierzentrum,51.250935,12.273658
458,401761,Geithainer Straße,51.341953,12.445147
459,409406,Geithainer Straße,51.341984,12.445365
460,122365,"Geißlerstraße, Bülowviertel",51.344864,12.419421
461,288525,"Geißlerstraße, Bülowviertel",51.34486,12.418976
462,16452,Georg-Herwegh-Straße,51.394966,12.383562
463,63758,Georg-Herwegh-Straße,51.395123,12.384148
464,426934,Gerichtsweg,51.339138,12.395666
465,6702,Gerichtsweg,51.339077,12.394628
466,230182,Geschwister-Scholl-Straße,51.32045,12.256914
467,2702,Geschwister-Scholl-Straße,51.32041,12.25694
468,291814,Goerdelerring (Steig A),51.34431,12.372173
469,131332,Goerdelerring (Steig B),51.344257,12.372169
470,241427,Goerdelerring (Steig C),51.34424,12.373531
471,129857,Goerdelerring (Steig D),51.344185,12.373541
472,150701,Goerdelerring (Steig E),51.344193,12.373556
473,38960,Goetheplatz,51.355312,12.287047
474,110340,"Gohlis, Landsberger Straße",51.381508,12.355381
475,16327,"Gohlis, Landsberger Straße",51.382107,12.355195
476,18607,"Gohlis, Landsberger Straße",51.381584,12.354956
477,15128,Gohlis-Nord,51.375515,12.379022
478,184084,Gohlis-Nord,51.375355,12.377976
479,218277,Gohlis-Nord,51.37524,12.378269
480,335333,Gohlis-Nord,51.374924,12.378289
481,120652,"Gohlis-Nord, Virchowstraße",51.37586,12.378961
482,174450,"Gohlis-Nord, Virchowstraße",51.375782,12.379085
483,431765,Gohlis-Süd,51.36186,12.36328
484,168198,Gottfried-Keller-Straße,51.29529,12.43475
485,246210,Gottschalkstraße,51.32587,12.45291
486,358715,Gottschalkstraße,51.325882,12.453399
487,1311,Gottschallstraße,51.36922,12.376533
488,213414,Gottschallstraße,51.369144,12.376628
489,238643,Gottschallstraße,51.368954,12.376341
490,331183,Gottschallstraße,51.3689,12.376423
491,295555,Gottschedstraße,51.34154,12.368193
492,330401,Gottschedstraße,51.341305,12.367659
493,3693,"Gottscheina, Am Ring",51.425106,12.479308
494,453518,"Gottscheina, Am Ring",51.424934,12.479281
495,149936,"Gottscheina, Siedlung",51.42117,12.476765
496,27047,"Gottscheina, Siedlung",51.421413,12.477129
497,421307,Großer Marktweg,51.344883,12.266774
498,137145,Großmiltitzer Straße,51.31974,12.261469
499,34520,Großmiltitzer Straße,51.319756,12.261499
500,153968,"Großzsch., A.-Zickmantel-Str.",51.302685,12.321752
501,314119,"Großzschocher, A.-Zickmantel-S",51.302677,12.32234
502,253940,"Großzschocher, G.-Ellrodt-Str.",51.299973,12.321901
503,308760,"Großzschocher, G.-Ellrodt-Str.",51.299603,12.3213
504,379129,"Großzschocher, G.-Ellrodt-Str.",51.299995,12.321458
505,429796,Grundstraße,51.39169,12.455685
506,445900,Grundstraße,51.391518,12.45583
507,284588,Gröpplerstraße,51.334705,12.314423
508,287556,Grünau-Süd,51.311497,12.279004
509,328963,Grünau-Süd,51.312065,12.279977
510,170609,Grünauer Allee,51.3258,12.301108
511,274041,Grünauer Allee,51.32612,12.302623
512,417355,Grünauer Allee,51.32573,12.301834
513,6630,Grünauer Allee,51.32583,12.302028
514,180291,"Gundorf, Friedhof",51.35998,12.269974
515,444229,"Gundorf, Friedhof",51.359413,12.269446
516,27209,Gustav-Freytag-Straße,51.312813,12.368741
517,449142,Gustav-Freytag-Straße,51.31223,12.368741
518,347583,Gut Seehausen,51.405766,12.417901
519,455843,Gut Seehausen,51.405735,12.41774
520,340260,Gutenbergplatz,51.334576,12.391711
521,77473,Gutenbergplatz,51.334267,12.392091
522,291252,Gypsbergstraße,51.377144,12.399415
523,412486,Gypsbergstraße,51.376568,12.398266
524,276055,Gärtnerei,51.30143,12.3064
525,286277,Gärtnerei,51.301426,12.306141
526,110926,Gärtnerstraße,51.317112,12.307988
527,319853,Göbschelwitz,51.419773,12.422255
528,400750,Göbschelwitz,51.418926,12.421788
529,114996,Güterbahnhofstraße,51.345856,12.464953
530,92132,Güterbahnhofstraße,51.345894,12.465085
531,269462,H.-Liebmann-/Eisenbahnstraße,51.34532,12.405988
532,39474,H.-Liebmann-/Eisenbahnstraße,51.34572,12.405931
533,426177,H.-Liebmann-/Eisenbahnstraße,51.345543,12.40543
534,61081,H.-Liebmann-/Eisenbahnstraße,51.34552,12.406519
535,76740,H.-Liebmann-/Eisenbahnstraße,51.34579,12.405922
536,281220,Hafentor,51.332695,12.304087
537,62983,Hafentor,51.332706,12.303958
538,103021,Hamburger Straße,51.35858,12.395569
539,333504,Hamburger Straße,51.35905,12.396092
540,250217,Handwerkerhof,51.32586,12.435572
541,458194,Handwerkerhof,51.325844,12.435485
542,213288,Hans-Weigel-Straße,51.342697,12.479861
543,291780,Hans-Weigel-Straße,51.342762,12.480024
544,102936,"Hartmannsdorf, Erikenstraße",51.26192,12.306628
545,301399,"Hartmannsdorf, Erikenstraße",51.2619,12.306712
546,187340,"Hartmannsdorf, Gasthof",51.265396,12.308984
547,62040,"Hartmannsdorf, Gasthof",51.26534,12.308894
548,27969,Hartzstraße,51.362003,12.391269
549,57285,Hartzstraße,51.36171,12.390041
550,33566,Hasenheide,51.334465,12.460548
551,432356,Hasenheide,51.33479,12.460543
552,279901,Hauptbahnhof (Steig A),51.344303,12.379681
553,280212,Hauptbahnhof (Steig B),51.343754,12.380875
554,415011,Hauptbahnhof (Steig C),51.344196,12.379587
555,73655,Hauptbahnhof (Steig D),51.34366,12.380811
556,17547,Hauptbahnhof (Steig K),51.344036,12.380753
557,141202,"Hauptbahnhof,Westseite Steig E",51.345516,12.37878
558,255280,"Hauptbahnhof,Westseite Steig F",51.344868,12.378732
559,19532,"Hbf, Wintergartenstr.(Steig G)",51.343365,12.383818
560,259808,"Hbf, Wintergartenstr.(Steig H)",51.342846,12.383105
561,296702,"Hbf., Ostseite (Steig O)",51.343857,12.382089
562,311731,"Hbf., Ostseite (Steig T)",51.344128,12.383502
563,326820,Heisenbergstraße,51.36438,12.465534
564,383270,Heisenbergstraße,51.36461,12.464761
565,453128,Heisenbergstraße,51.364307,12.465457
566,394328,"Heiterblick, Teslastaße",51.364227,12.452365
567,375478,"Heiterblick, Teslastraße",51.364292,12.452327
568,455581,"Heiterblick, Teslastraße",51.364082,12.451823
569,107977,Heiterblickstraße,51.369305,12.425309
570,141548,Heiterblickstraße,51.36914,12.425067
571,126636,Henriettenstraße,51.333843,12.324853
572,330154,Henriettenstraße,51.333817,12.324808
573,421531,Henriettenstraße,51.333633,12.324293
574,442015,Henriettenstraße,51.333633,12.324293
575,48168,Hermelinstraße,51.358902,12.47345
576,59268,Hermelinstraße,51.358616,12.473946
577,366387,Hermelinstraße SEV,51.35853,12.474456
578,150161,Herrmann-Meyer-Straße,51.315308,12.310053
579,150540,Herrmann-Meyer-Straße,51.315067,12.307697
580,397892,Herrmann-Meyer-Straße,51.31511,12.307886
581,360580,Herzzentrum,51.30759,12.437979
582,423442,Herzzentrum,51.30791,12.437759
583,311106,Hildebrandstraße,51.304543,12.381863
584,328138,Hildebrandstraße,51.30508,12.381601
585,91315,Hildebrandstraße,51.305126,12.381547
586,274246,Hirschfeld,51.323013,12.526016
587,427162,Hirschfeld,51.322975,12.525883
588,229894,Hofmeisterstraße,51.343456,12.386209
589,427796,Hofmeisterstraße,51.343758,12.387351
590,123326,Hohe Straße,51.329502,12.373482
591,151914,Hohe Straße,51.329502,12.373482
592,166285,Hohe Straße,51.329082,12.373365
593,264104,Hohe Straße,51.329082,12.373365
594,160758,"Hohenheida, Am Anger",51.420246,12.45206
595,7799,"Hohenheida, Am Anger",51.420155,12.452541
596,349923,"Hohenheida, Gasthof",51.42003,12.446434
597,415443,"Hohenheida, Gasthof",51.420002,12.446634
598,340867,"Hohenheida, Lindengasse",51.41972,12.442154
599,382599,"Hohenheida, Lindengasse",51.41971,12.441118
600,127267,Hohentichelnstraße,51.35975,12.442706
601,347405,Hohentichelnstraße,51.36016,12.443283
602,446145,Hohentichelnstraße,51.359932,12.443194
603,70697,Hohentichelnstraße,51.36044,12.443261
604,90677,Hohentichelnstraße,51.35979,12.442824
605,10777,Holbeinstraße,51.32785,12.345833
606,294294,Holbeinstraße,51.328636,12.346306
607,155009,Holsteinstraße,51.331066,12.41037
608,295826,Holsteinstraße,51.331135,12.410533
609,188713,"Holzhausen, Hauptstraße",51.309956,12.464698
610,324843,"Holzhausen, Hauptstraße",51.31011,12.464796
611,135486,"Holzhausen, Sophienhöhe",51.313564,12.456132
612,229182,"Holzhausen, Sophienhöhe",51.31369,12.456113
613,27647,"Holzhausen, Sophienhöhe",51.313625,12.455849
614,3030,"Holzhausen, Sächsisches Haus",51.306423,12.46469
615,353034,"Holzhausen, Sächsisches Haus",51.307117,12.464972
616,351652,Horburger Straße,51.328945,12.283035
617,346987,Hornbach Baumarkt,51.37982,12.384354
618,394733,Hornbach Baumarkt,51.380226,12.384226
619,58088,Hornbach Baumarkt,51.379986,12.384467
620,144240,Hugo-Aurig-Straße,51.343063,12.487498
621,336207,Hugo-Aurig-Straße,51.343124,12.487187
622,107773,Huttenstraße,51.30067,12.327143
623,376833,Huttenstraße,51.300358,12.327981
624,378833,Huttenstraße,51.301266,12.328018
625,448990,Huttenstraße,51.300583,12.327754
626,142201,"Hänichen, Bismarckturm",51.386242,12.267566
627,278736,"Hänichen, Bismarckturm",51.386177,12.268237
628,139566,"Hänichen, Bismarckturm SEV",51.38519,12.265996
629,187009,"Hänichen, Bismarckturm SEV",51.38512,12.266121
630,123848,Härtelstraße,51.332653,12.378034
631,279330,Härtelstraße,51.332535,12.377982
632,85450,Härtelstraße,51.332874,12.377476
633,89675,Härtelstraße,51.332455,12.377962
634,221902,Höltystraße,51.295223,12.429496
635,83859,Höltystraße,51.295116,12.42857
636,193972,Johannisallee,51.328293,12.389453
637,302141,Johannisallee,51.326984,12.389328
638,39233,Johannisallee,51.328167,12.389157
639,406888,Johannisallee,51.32748,12.388647
640,200000,Johannishöhe,51.286606,12.406827
641,363819,Johannishöhe,51.286697,12.40682
642,110421,Johannisplatz,51.336906,12.387362
643,182520,Johannisplatz,51.338245,12.385494
644,355078,Johannisplatz,51.337955,12.3853
645,357701,Johannisplatz,51.33815,12.386879
646,222045,Julian-Marchlewski-Straße,51.357502,12.4245
647,98786,Julian-Marchlewski-Straße,51.357445,12.424725
648,140696,Jupiterstraße,51.32192,12.267422
649,152434,Jupiterstraße,51.32155,12.267539
650,340200,Jupiterstraße,51.321552,12.26774
651,282666,K.-Eisner-/A.-Hoffmann-Str.,51.320904,12.378461
652,311665,K.-Eisner-/A.-Hoffmann-Str.,51.320168,12.378507
653,311971,K.-Eisner-/A.-Hoffmann-Str.,51.320736,12.379037
654,380421,K.-Eisner-/A.-Hoffmann-Str.,51.3205,12.37724
655,430830,K.-Eisner-/A.-Hoffmann-Str.,51.320057,12.378514
656,294478,K.-Heine-/Gießerstr.,51.329525,12.326823
657,335599,K.-Heine-/Gießerstr.,51.329483,12.326432
658,443954,K.-Heine-/Gießerstr.,51.329765,12.327572
659,117222,K.-Heine-/Merseburger Str.,51.331165,12.333013
660,388304,K.-Heine-/Merseburger Str.,51.331413,12.333706
661,418675,K.-Heine-/Merseburger Str.,51.3312,12.333058
662,50210,K.-Heine-/Merseburger Str.,51.331413,12.33372
663,214432,"K.-Jungbluth-Str.,S-Bf. Connew",51.298958,12.385812
664,263014,"K.-Jungbluth-Str.,S-Bf. Connew",51.299168,12.387004
665,288690,K.-Liebknecht-/K.-Eisner-Str.,51.32074,12.374187
666,30627,K.-Liebknecht-/K.-Eisner-Str.,51.320988,12.373473
667,424086,K.-Liebknecht-/K.-Eisner-Str.,51.321304,12.373382
668,81009,K.-Liebknecht-/K.-Eisner-Str.,51.32052,12.374372
669,98380,K.-Liebknecht-/K.-Eisner-Str.,51.32032,12.37351
670,199704,Karl-Friedrich-Straße,51.32287,12.452871
671,374373,Karl-Friedrich-Straße,51.32306,12.453158
672,258647,Kietzstraße,51.35441,12.318402
673,440621,Kietzstraße,51.354454,12.31842
674,364357,Kiewer Straße,51.31863,12.275324
675,401109,Kiewer Straße,51.318462,12.274996
676,41940,Kiewer Straße,51.318542,12.274729
677,422063,Kiewer Straße,51.318394,12.275192
678,248721,"Kiewer Straße, Kaufland",51.32305,12.275223
679,265896,"Kiewer Straße, Kaufland",51.323093,12.274953
680,344128,"Kiewer Straße, Kaufland",51.32513,12.275758
681,136952,Kleinpösna,51.310287,12.518338
682,343224,Kleinpösna,51.31028,12.518409
683,109761,"Kleinzschocher,Kötzschauer Str",51.31315,12.325665
684,264707,"Kleinzschocher,Kötzschauer Str",51.312565,12.325666
685,383158,"Kleinzschocher,Kötzschauer Str",51.31278,12.325653
686,69771,"Kleinzschocher,Kötzschauer Str",51.313347,12.325665
687,135553,Kleiststraße,51.366314,12.379378
688,258518,Kleiststraße,51.36636,12.379324
689,156206,Klempererstraße,51.340057,12.489711
690,241852,Klempererstraße,51.3405,12.489012
691,128391,Klingerweg,51.332146,12.350681
692,16939,Klingerweg,51.332584,12.350685
693,120183,Klinikum St. Georg,51.38435,12.381053
694,216710,Klinikum St. Georg,51.38419,12.381271
695,314454,Klinikum St. Georg,51.383244,12.381877
696,53357,Kloßstraße Sonderhaltestelle,51.304806,12.323068
697,356296,Knauthain Am Klucksgraben,51.267105,12.298185
698,223480,Knauthain Am Weiher,51.27286,12.31117
699,92402,Knauthain Schönbergstr,51.275406,12.31065
700,268489,Knauthain Seumestr,51.279034,12.312058
701,209306,"Knauthain, Am Weiher",51.272766,12.310991
702,278979,"Knauthain, Am Weiher",51.27294,12.31119
703,353305,"Knauthain, Schönbergstraße",51.275394,12.310621
704,6412,"Knauthain, Seumestraße",51.279114,12.312078
705,194249,Knautkleeberg,51.276924,12.309656
706,225943,Knautkleeberg,51.27738,12.309101
707,459088,Knautkleeberg,51.277348,12.309586
708,55600,Knautkleeberg,51.27761,12.309863
709,94549,Knautkleeberg,51.276978,12.309072
710,398628,Knautnaundorf Rundkapellenweg,51.254356,12.268987
711,98979,Knautnaundorf Werkstr,51.251434,12.262303
712,45484,"Knautnaundorf, Rundkapellenweg",51.254414,12.268905
713,16195,Koburger Brücke,51.301983,12.37324
714,284642,Koburger Brücke,51.302944,12.373956
715,403507,Koburger Brücke,51.302925,12.373955
716,148759,Kolmstraße,51.320072,12.426257
717,194636,Kolmstraße,51.32007,12.425482
718,264164,Kolmstraße,51.320015,12.426712
719,34643,Kolmstraße,51.319004,12.426191
720,369006,Kolmstraße,51.320087,12.426602
721,5,Kolmstraße,51.319897,12.426086
722,112475,Komarowstraße,51.378727,12.415481
723,246310,Komarowstraße,51.378765,12.414407
724,176766,Kommandant-Prendel-Allee,51.313545,12.42158
725,189409,Kommandant-Prendel-Allee,51.31357,12.421439
726,279561,Krakauer Straße,51.308945,12.271635
727,413417,Krakauer Straße,51.30881,12.270836
728,423108,Krakauer Straße,51.308754,12.271004
729,80255,Krakauer Straße,51.308735,12.270788
730,110218,Krätzbergstraße,51.383404,12.462015
731,115310,Krätzbergstraße,51.38359,12.463193
732,142611,Krätzbergstraße,51.38314,12.463303
733,224190,Krätzbergstraße,51.383247,12.463857
734,254765,Krätzbergstraße,51.38286,12.463296
735,222,Kunzestraße,51.30479,12.32737
736,377276,Kunzestraße,51.30433,12.327437
737,5372,Kunzestraße,51.30479,12.327384
738,359163,Kursdorfer Weg,51.325176,12.28377
739,266036,Kurt-Kresse-Straße,51.314266,12.315444
740,364753,Kurt-Kresse-Straße,51.31436,12.316111
741,158297,Kärrnerstraße,51.312717,12.46505
742,282352,Kärrnerstraße,51.312828,12.464326
743,272034,Körnerstraße,51.32464,12.37875
744,60644,Körnerstraße,51.32431,12.378597
745,82664,Körnerstraße,51.32431,12.378554
746,293575,Landsberger/Bahnhofstraße,51.386906,12.349094
747,332115,Landsberger/Bahnhofstraße,51.386627,12.349936
748,76659,Landsberger/Bahnhofstraße,51.386757,12.350722
749,80915,Landsberger/Bahnhofstraße,51.38721,12.349002
750,167316,Landsberger/M.-Liebermann-Str.,51.375404,12.360595
751,36169,Landsberger/M.-Liebermann-Str.,51.375916,12.360992
752,436404,Landsberger/M.-Liebermann-Str.,51.375565,12.36042
753,454569,Landsberger/M.-Liebermann-Str.,51.375202,12.361716
754,5521,Landsberger/M.-Liebermann-Str.,51.37538,12.361427
755,174291,Lange Trift,51.38604,12.32486
756,272950,Lange Trift,51.386967,12.32602
757,330232,Lange Trift,51.38735,12.32563
758,236160,Lauerscher Weg,51.298748,12.33277
759,320092,Lauerscher Weg,51.298836,12.333522
760,107096,Lausen,51.306034,12.260827
761,145606,Lausen,51.306446,12.259995
762,152744,Lausen,51.306396,12.260063
763,7207,Lausen,51.306362,12.26009
764,262842,"Lausen, Buswendestelle",51.30769,12.260585
765,5742,"Lausen, Buswendestelle",51.307274,12.260613
766,154360,"Lausen, Wolkenweg",51.301666,12.270457
767,332444,"Lausen, Wolkenweg",51.30146,12.269438
768,169950,"Lausen, Ärztehaus",51.304085,12.269883
769,432925,"Lausen, Ärztehaus",51.303974,12.26867
770,307735,Lausener Bogen,51.301052,12.260875
771,322541,Lausener Bogen,51.30019,12.261129
772,156141,Lausner Weg,51.312756,12.306239
773,147624,Leibnizstraße,51.34323,12.365073
774,19294,Leibnizstraße,51.34349,12.366355
775,285318,Leibnizstraße,51.343506,12.366773
776,449010,Leibnizstraße,51.343376,12.36537
777,162213,Leinestraße,51.286694,12.393011
778,174005,Leinestraße,51.287426,12.393796
779,18446,Leinestraße,51.286694,12.393011
780,216169,Leinestraße,51.287373,12.393763
781,274287,Leinestraße,51.28704,12.392778
782,109481,Leipzig (Vergnügungspark BELANTIS),51.2504,12.314438
783,82419,Leipzig Altes Messegelände,51.32083,12.404616
784,79882,Leipzig An den Badeanlagen,51.279243,12.46614
785,2577,Leipzig An der Brauerei,51.284996,12.455518
786,413967,Leipzig Eulengraben,51.27175,12.480427
787,221018,Leipzig GVZ Nord/Sattlerweg,51.40857,12.302385
788,180589,Leipzig GVZ Nord/T&S,51.41322,12.302649
789,271684,Leipzig GVZ Nord/T&S,51.41322,12.302649
790,430492,Leipzig Hbf,51.34547,12.382064
791,102694,Leipzig Hbf Ostseite,51.3438,12.382444
792,103826,Leipzig Klinikum St. Georg,51.383717,12.381438
793,121801,Leipzig Klinikum St. Georg,51.383717,12.381438
794,384558,Leipzig Messe,51.396923,12.396222
795,356618,Leipzig Messeverwaltung,51.39498,12.394299
796,385522,Leipzig Messeverwaltung,51.39498,12.394299
797,197936,Leipzig Meusdorf,51.29404,12.440379
798,447036,Leipzig Monarchenhügel,51.2914,12.444168
799,205093,Leipzig Naunhofer Str,51.31782,12.407951
800,86785,Leipzig Ostplatz,51.331696,12.395776
801,104538,Leipzig Sachsenpark,51.402008,12.395913
802,435970,Leipzig Schwarzes Ross,51.282204,12.461187
803,263325,Leipzig Seehausener Allee/Messe,51.3992,12.397588
804,9897,Leipzig Störmthaler Str,51.27751,12.469594
805,198969,Leipzig Südfriedhof,51.311398,12.416944
806,407727,Leipzig Technisches Rathaus,51.325573,12.400748
807,138203,Leipzig Zur Alten Sandgrube,51.280624,12.463563
808,29730,Leipzig central train station,51.34506,12.384724
809,186122,"Leipzig, Angerbrücke, Straßenbahnhof",51.33779,12.340586
810,235200,"Leipzig, Angerbrücke, Straßenbahnhof",51.33771,12.340795
811,192813,"Leipzig, Bayerischer Bf 01",51.329845,12.379951
812,85857,"Leipzig, Bayerischer Bf 06",51.331577,12.379777
813,203409,"Leipzig, Eisner-/Hoffmann 01",51.321217,12.378527
814,89559,"Leipzig, Eisner-/Hoffmann 06",51.320015,12.378453
815,371889,"Leipzig, G.-Schwarz-/Merseburger Str.",51.337875,12.326524
816,50073,"Leipzig, G.-Schwarz-/Merseburger Str.",51.338398,12.324609
817,277429,"Leipzig, Hbf Ost Q",51.343796,12.382027
818,254347,"Leipzig, Hbf Ost T",51.34404,12.383165
819,178083,"Leipzig, Koburger Brücke 01",51.302963,12.373828
820,376126,"Leipzig, Leopoldstr 06",51.3049,12.373985
821,445719,"Leipzig, Lindenau Friedhof",51.339657,12.319345
822,9926,"Leipzig, Lindenau Friedhof",51.339634,12.319086
823,121086,"Leipzig, Merseburger/Schomburgkstr.",51.342728,12.302339
824,391333,"Leipzig, Merseburger/Schomburgkstr.",51.34272,12.300946
825,185435,"Leipzig, Roßplatz 01",51.334747,12.378073
826,292079,"Leipzig, Roßplatz 06",51.334293,12.378169
827,144155,"Leipzig, Waldplatz",51.34174,12.357182
828,322243,"Leipzig, Waldplatz",51.34162,12.355723
829,260292,"Leipzig, Westplatz / SEV",51.339302,12.363535
830,283604,"Leipzig, Westplatz / SEV",51.3393,12.363894
831,13892,"Leipzig, Zur Kaninchenfarm",51.3434,12.29442
832,186597,"Leipzig, Zur Kaninchenfarm",51.343483,12.294024
833,130278,Leipzig-Knauthain,51.27818,12.309095
834,32360,Leipzig-Miltitz,51.325317,12.25503
835,201083,Leipzig-Plagwitz,51.32804,12.32208
836,142696,Leonhard-Frank-Straße,51.350872,12.430481
837,428099,Leonhard-Frank-Straße,51.35135,12.430114
838,357922,Leonhardtstraße,51.37253,12.404733
839,427908,Leonhardtstraße,51.37195,12.404877
840,161481,Leopoldstraße,51.305298,12.373756
841,200390,Leopoldstraße,51.304874,12.373969
842,407691,Leupoldstraße,51.361744,12.439064
843,455091,Leupoldstraße,51.361748,12.438648
844,193602,"Leutzsch, Straßenbahnhof",51.355713,12.315337
845,316342,"Leutzsch, Straßenbahnhof",51.35605,12.315476
846,373050,"Leutzsch, Straßenbahnhof",51.355713,12.315337
847,378377,"Leutzsch, Straßenbahnhof",51.35605,12.315476
848,296295,Lidicestraße,51.377758,12.43018
849,376873,Lidicestraße,51.377777,12.430066
850,19585,Lidicestraße Li. 70,51.377758,12.43018
851,164320,"Liebertwolkwitz, Störmth. Str.",51.27703,12.470389
852,279780,"Liebertwolkwitz, Störmth. Str.",51.276817,12.469413
853,416943,"Liebertwolkwitz, Störmth. Str.",51.27655,12.46965
854,94360,"Liebertwolkwitz, Störmth. Str.",51.27785,12.469032
855,197319,Liebertwolkwitzer Markt,51.282608,12.46301
856,301692,Liebertwolkwitzer Markt,51.282684,12.463403
857,130946,Liebigstraße,51.330246,12.39221
858,250708,Liebigstraße,51.329895,12.391624
859,182844,Lindenallee,51.3987,12.340915
860,54034,Lindenallee,51.39965,12.341358
861,100566,"Lindenau, Bushof",51.33172,12.319532
862,109553,"Lindenau, Bushof",51.33121,12.319395
863,127879,"Lindenau, Bushof",51.331852,12.319241
864,211499,"Lindenau, Bushof",51.331722,12.319332
865,213395,"Lindenau, Bushof",51.331097,12.319329
866,35172,"Lindenau, Bushof",51.331306,12.319416
867,409732,"Lindenau, Bushof",51.331375,12.31922
868,435547,"Lindenau, Bushof",51.33159,12.318733
869,443623,"Lindenau, Bushof",51.331264,12.319012
870,188652,"Lindenau, Friedhof",51.339645,12.31933
871,409760,"Lindenau, Friedhof",51.33962,12.319099
872,216691,Lindenauer Hafen,51.3306,12.306376
873,418690,Lindenauer Hafen,51.33052,12.306657
874,390625,Lindenauer Markt,51.33674,12.335528
875,186080,"Lindenthal, An der Windmühle",51.392704,12.340622
876,267648,"Lindenthal, An der Windmühle",51.393314,12.339948
877,299855,"Lindenthal, An der Windmühle",51.392456,12.338865
878,223971,"Lindenthal, Gemeindeamt",51.39219,12.327707
879,31074,"Lindenthal, Gemeindeamt",51.392174,12.327964
880,185109,Lindenthaler Hauptstraße,51.39168,12.328158
881,425299,Lindenthaler Hauptstraße,51.390854,12.327638
882,181796,Lintacherstraße,51.32419,12.465959
883,195706,Lintacherstraße,51.3242,12.466218
884,118298,Lipsiusstraße,51.330513,12.413644
885,436622,Lipsiusstraße,51.330406,12.41322
886,327147,Lise-Meitner-Straße,51.355377,12.306424
887,71784,Lise-Meitner-Straße,51.355133,12.305516
888,252338,Lortzingstraße,51.345547,12.371459
889,7744,Lortzingstraße,51.345806,12.37145
890,386742,Lortzingstraße Li. 12,51.345825,12.371451
891,406382,Lortzingstraße Li. 12,51.345547,12.371459
892,198967,Louis-Fürnberg-Straße,51.348495,12.430217
893,423976,Louis-Fürnberg-Straße,51.348576,12.430295
894,104535,Ludwig-Jahn-Straße,51.360367,12.285125
895,19787,Ludwig-Jahn-Straße,51.36044,12.28513
896,221116,Ludwig-Jahn-Straße,51.360344,12.284937
897,340893,Ludwig-Jahn-Straße,51.360237,12.28559
898,184762,Löbauer Straße,51.356506,12.415851
899,282623,Löbauer Straße,51.357014,12.416349
900,342320,Löbauer Straße,51.35688,12.417143
901,47,Löbauer Straße,51.35642,12.415802
902,163550,Löbauer Straße Li. 1,51.35712,12.416428
903,109343,Löwen Center,51.345577,12.26925
904,144196,Löwen Center,51.345646,12.269728
905,40937,Löwen Center,51.345165,12.267899
906,136628,Lößnig,51.29633,12.396175
907,308078,Lößnig,51.295704,12.396702
908,408518,Lößnig,51.295727,12.396517
909,201218,Lößniger Straße,51.32067,12.382204
910,331001,Lößniger Straße,51.320415,12.382271
911,167936,Lützner/Merseburger Str.,51.33565,12.329836
912,330930,Lützner/Merseburger Str.,51.3359,12.331232
913,458568,Lützner/Merseburger Str.,51.335762,12.330418
914,55932,Lützner/Merseburger Str.,51.33565,12.329836
915,164009,Lützschena,51.383682,12.280316
916,448835,Lützschena,51.383545,12.280708
917,197318,Lützschena Li. 11,51.38355,12.280608
918,285746,Lützschena Li. 11,51.38365,12.280457
919,5430,Mariannenpark,51.352272,12.399769
920,57067,Mariannenpark,51.35206,12.399997
921,226052,Markkleeberg Forsthaus Raschwitz,51.288578,12.368198
922,194626,"Markkleeberg, Forsthaus Raschw",51.288624,12.368244
923,180127,Markranstädter Straße,51.325245,12.334334
924,33740,Markranstädter Straße,51.324722,12.333406
925,369084,Markranstädter Straße,51.324825,12.333931
926,411761,Markranstädter Straße,51.324776,12.333554
927,2277,Marschnerstraße,51.336266,12.357198
928,98655,Marschnerstraße,51.336,12.356776
929,197605,Martin-Herrmann-Straße,51.3073,12.322617
930,10926,Martinshöhe,51.389553,12.372038
931,9554,Martinshöhe,51.389523,12.37159
932,185807,Martinstraße,51.334568,12.41241
933,388976,Martinstraße,51.33423,12.413203
934,207665,Mathiesenstraße,51.35302,12.322337
935,266512,Mathiesenstraße,51.353397,12.322063
936,414686,Mathildenstr,51.307007,12.373436
937,284312,Mathildenstraße,51.306915,12.37343
938,297808,Mathildenstraße,51.30728,12.373514
939,301201,Matzelstraße,51.289356,12.390167
940,307896,Matzelstraße,51.289406,12.389712
941,232907,Max-Lingner-Straße,51.354954,12.423074
942,276264,Max-Lingner-Straße,51.354973,12.423363
943,454931,Melissenweg,51.38758,12.35495
944,455176,Melissenweg,51.38748,12.354396
945,228474,Melker Weg,51.38291,12.468602
946,243092,Melker Weg,51.382904,12.469392
947,363397,Menckestraße,51.359398,12.362295
948,443966,Menckestraße,51.360104,12.362059
949,212325,Merseburger/Schomburgkstr.,51.342236,12.301586
950,282985,Merseburger/Schomburgkstr.,51.343163,12.301897
951,314791,Merseburger/Schomburgkstr.,51.342743,12.302341
952,370516,Merseburger/Schomburgkstr.,51.342644,12.301042
953,228938,"Messe-Allee, DB Schenker",51.393436,12.407825
954,432403,"Messe-Allee, DB Schenker",51.39366,12.407195
955,178182,Messegelände,51.396873,12.396251
956,206341,Messegelände,51.396713,12.395635
957,283131,Messegelände,51.39776,12.395828
958,322991,Messegelände,51.39772,12.394934
959,325372,Messegelände,51.397614,12.397743
960,438598,Messegelände,51.39691,12.395621
961,457721,Messegelände,51.397438,12.396365
962,112528,Messeverwaltung,51.39485,12.394405
963,453273,Messeverwaltung,51.395107,12.394539
964,15233,Meusdorf,51.29446,12.441027
965,194398,Meusdorf,51.29455,12.439499
966,196853,Meusdorf,51.29412,12.440414
967,282243,Meusdorf,51.294113,12.440341
968,50537,Meusdorf,51.294456,12.440023
969,53894,Meusdorf,51.29392,12.4408
970,55957,Meusdorf,51.294567,12.439558
971,271089,Meusdorfer Straße,51.309345,12.386692
972,273013,Meusdorfer Straße,51.30926,12.386887
973,397038,Meusdorfer Straße,51.30935,12.386922
974,73066,Meusdorfer Straße,51.309284,12.387018
975,228676,Michael-Kazmierczak-Straße,51.36715,12.372861
976,409629,Michael-Kazmierczak-Straße,51.3671,12.37303
977,129397,Miltitz,51.324593,12.262862
978,437696,Miltitz,51.324764,12.262816
979,456313,Miltitz,51.32445,12.262435
980,32797,"Miltitz, Friedhof",51.31935,12.250522
981,331681,"Miltitz, Friedhof",51.31929,12.250446
982,130772,Miltitzer Straße,51.348045,12.262734
983,287888,Miltitzer Straße,51.348404,12.263033
984,182224,"Mockau, Kirche",51.377693,12.421267
985,184093,"Mockau, Kirche",51.377632,12.421248
986,239551,"Mockau, Kirche",51.377167,12.420811
987,449176,"Mockau, Kirche",51.377125,12.420807
988,10851,"Mockau, Post",51.375046,12.413196
989,12035,"Mockau, Post",51.37496,12.41329
990,219546,"Mockau, Post",51.37514,12.412039
991,233339,"Mockau, Post",51.375244,12.411846
992,252730,"Mockau, Post",51.374844,12.412678
993,65581,"Mockau, Post",51.37544,12.413598
994,285670,Mockau-West,51.380787,12.402545
995,84447,Mockau-West,51.380695,12.401977
996,110217,Mockauer/Volbedingstraße,51.364975,12.402664
997,1127,Mockauer/Volbedingstraße,51.363976,12.402963
998,170740,Mockauer/Volbedingstraße,51.363995,12.402347
999,256512,Mockauer/Volbedingstraße,51.36508,12.402672
1000,63316,Mockauer/Volbedingstraße,51.363693,12.401564
1001,177420,Monarchenhügel,51.291412,12.444155
1002,68430,Monarchenhügel,51.29186,12.443299
1003,415894,Morgensternstraße,51.33523,12.312279
1004,302146,Moritz Hof,51.301373,12.396275
1005,370806,Moritz Hof,51.301056,12.396323
1006,457162,Moritz Hof,51.301365,12.396145
1007,376519,Moritz Hof SEV,51.300945,12.396429
1008,351837,Mosenthinstraße,51.372486,12.385724
1009,376901,Mosenthinstraße,51.37208,12.385737
1010,237199,Mozartstraße,51.331257,12.36596
1011,329383,Mozartstraße,51.331303,12.367729
1012,260996,"Möckern, Slevogtstraße",51.370808,12.339744
1013,351219,"Möckern, Slevogtstraße",51.370865,12.341213
1014,444681,"Möckern, Slevogtstraße",51.37095,12.340674
1015,106069,Möckernscher Markt,51.36951,12.338543
1016,130779,Möckernscher Markt,51.369484,12.33847
1017,157120,Möckernscher Markt,51.369366,12.338519
1018,379524,Möckernscher Markt,51.370113,12.338487
1019,406381,Möckernscher Markt,51.370014,12.338537
1020,415347,Möckernscher Markt,51.369312,12.338859
1021,260405,"Mölkau, Gemeindeamt",51.3308,12.441023
1022,348254,"Mölkau, Gemeindeamt",51.331177,12.441927
1023,4831,"Mölkau, Gemeindeamt",51.330437,12.440766
1024,73868,"Mölkau, Gemeindeamt",51.33132,12.442225
1025,205546,Mölkau-Süd,51.325333,12.452884
1026,196064,Mölkauer Dorfplatz,51.332527,12.444842
1027,382128,Mölkauer Dorfplatz,51.332123,12.443964
1028,398583,Mölkauer Straße,51.309914,12.452242
1029,41293,Mölkauer Straße,51.309654,12.452136
1030,313981,Mölkauer Straße Sonderhalteste,51.310204,12.452421
1031,279504,Mühlweg,51.336853,12.466183
1032,363735,Mühlweg,51.336693,12.466372
1033,158846,"Münzgasse, LVZ",51.33263,12.373726
1034,295001,"Münzgasse, LVZ",51.332428,12.373668
1035,321234,"Münzgasse, LVZ",51.33263,12.373726
1036,74182,"Münzgasse, LVZ",51.33242,12.373624
1037,158490,Naumburger Straße,51.32631,12.327666
1038,296444,Naumburger Straße,51.32566,12.327375
1039,117233,Naunhofer Straße,51.318176,12.408624
1040,130148,Naunhofer Straße,51.31778,12.408135
1041,214385,Naunhofer Straße,51.318237,12.407193
1042,234428,Naunhofer Straße,51.31793,12.408189
1043,350459,Naunhofer Straße,51.318104,12.4078
1044,417686,Naunhofer Straße,51.3183,12.408245
1045,456965,Naunhofer Straße,51.318085,12.407124
1046,457497,Naunhofer Straße,51.31823,12.407192
1047,5137,Naunhofer Straße,51.317738,12.408003
1048,150150,Neues Rathaus,51.334915,12.369056
1049,201710,Neues Rathaus,51.33613,12.371026
1050,204454,Neues Rathaus,51.33508,12.370303
1051,218081,Neues Rathaus,51.334858,12.369497
1052,252046,Neues Rathaus,51.33559,12.370929
1053,261431,Neues Rathaus,51.336143,12.371027
1054,290974,Neues Rathaus,51.3349,12.369026
1055,44411,Neues Rathaus,51.335636,12.370918
1056,423160,Neues Rathaus Li. 2,51.335068,12.370331
1057,223692,Neutzscher Straße,51.379547,12.433518
1058,29264,Neutzscher Straße,51.3795,12.433543
1059,315299,Neutzscher Straße,51.379818,12.43384
1060,412374,Neutzscher Straße,51.379715,12.43366
1061,170604,Nonnenstraße,51.332146,12.348399
1062,85325,Nonnenstraße,51.332184,12.348948
1063,226900,Nonnenweg,51.31931,12.352012
1064,159781,Nordplatz,51.352486,12.373448
1065,164209,Nordplatz,51.352596,12.373342
1066,257806,Nordplatz,51.35264,12.373374
1067,238361,Nordplatz Li. 12,51.3524,12.373471
1068,172957,Oberdorfstraße,51.321186,12.429109
1069,297999,Oberdorfstraße,51.321545,12.430055
1070,109775,Odermannstraße,51.33598,12.334123
1071,223976,Odermannstraße,51.336014,12.333307
1072,24954,Odermannstraße,51.33757,12.332602
1073,298882,Odermannstraße,51.337536,12.332514
1074,286268,Olbrichtstraße,51.37489,12.355428
1075,389159,Olbrichtstraße,51.37482,12.355251
1076,161084,Opalstraße,51.341576,12.478197
1077,457215,Opalstraße,51.341644,12.478374
1078,234200,Ossietzky-/Gorkistraße,51.359352,12.416236
1079,414318,Ossietzky-/Gorkistraße,51.359325,12.416234
1080,57541,Ossietzky-/Gorkistraße,51.359333,12.415459
1081,444030,Ossietzky-/Gorkistraße Li. 1,51.35935,12.415446
1082,16902,Ostfriedhof,51.33235,12.422709
1083,212481,Ostfriedhof,51.332546,12.422221
1084,189208,Ostheimstraße,51.345703,12.437733
1085,443319,Ostheimstraße,51.345608,12.437037
1086,136626,Ostplatz,51.331814,12.394522
1087,200527,Ostplatz,51.33154,12.396008
1088,25805,Ostplatz,51.332176,12.396271
1089,314771,Ostplatz,51.331882,12.395546
1090,258743,Otto-Michael-Straße,51.376972,12.405925
1091,233398,Otto-Schmiedt-Straße,51.35006,12.321534
1092,293598,Otto-Schmiedt-Straße,51.350353,12.321986
1093,77577,Otto-Schmiedt-Straße,51.350018,12.321459
1094,304153,Pahlenweg,51.291424,12.428151
1095,384819,Pahlenweg,51.292286,12.428115
1096,76872,Pahlenweg,51.29239,12.428037
1097,17587,Parkallee,51.324768,12.295336
1098,350716,Parkallee,51.32495,12.294574
1099,361441,Parkallee,51.32471,12.29483
1100,377926,Parkallee,51.32492,12.295979
1101,100135,Paul-Michael-Straße,51.349697,12.316468
1102,391023,Paul-Michael-Straße,51.34977,12.316846
1103,168855,Paunsdorf Center,51.348637,12.479063
1104,170807,Paunsdorf Center,51.348473,12.478849
1105,212427,Paunsdorf Center,51.348812,12.478832
1106,30553,Paunsdorf Center,51.34901,12.479149
1107,453547,Paunsdorf Center,51.349483,12.479357
1108,250535,Paunsdorf Th-Heuss-Str,51.346252,12.446288
1109,136204,"Paunsdorf, Buswendestelle",51.345863,12.457057
1110,162569,"Paunsdorf, Buswendestelle",51.345856,12.456956
1111,345794,"Paunsdorf, Buswendestelle",51.34601,12.457642
1112,295496,"Paunsdorf, Friedhof",51.3562,12.44435
1113,59357,"Paunsdorf, Friedhof",51.355877,12.444312
1114,294251,"Paunsdorf, Straßenbahnhof",51.345478,12.455764
1115,364414,"Paunsdorf, Straßenbahnhof",51.34549,12.454487
1116,373269,"Paunsdorf, Straßenbahnhof",51.34606,12.457919
1117,379818,"Paunsdorf, Straßenbahnhof",51.34546,12.455547
1118,418803,"Paunsdorf, Straßenbahnhof",51.346485,12.457936
1119,113730,Paunsdorf-Nord,51.3611,12.470342
1120,161078,Paunsdorf-Nord,51.3614,12.46979
1121,216480,Paunsdorf-Nord,51.360622,12.469645
1122,242296,Paunsdorf-Nord,51.360645,12.469489
1123,399847,Paunsdorf-Nord,51.359974,12.468777
1124,408085,Paunsdorf-Nord,51.360012,12.468751
1125,65371,Paunsdorf-Nord SEV,51.361237,12.470481
1126,403972,Paunsdorfer Allee/Permoserstr.,51.351097,12.47912
1127,421732,Paunsdorfer Allee/Permoserstr.,51.351475,12.479192
1128,69902,Paunsdorfer Allee/Permoserstr.,51.351456,12.479478
1129,141228,Paunsdorfer Straße,51.333225,12.441004
1130,405849,Paunsdorfer Straße,51.332733,12.44058
1131,181020,Pelzgasse,51.402054,12.39225
1132,351593,Permoser-/Hohentichelnstraße,51.351112,12.446725
1133,400565,Permoser-/Hohentichelnstraße,51.35087,12.44685
1134,158882,Permoser-/Torgauer Straße,51.352142,12.425722
1135,283216,Permoser-/Torgauer Straße,51.35169,12.425932
1136,396233,Permoser-/Torgauer Straße,51.35202,12.426532
1137,445945,Permoser-/Torgauer Straße,51.351917,12.425734
1138,117160,Pfingstweide,51.349052,12.311108
1139,154632,Pfingstweide,51.349705,12.309576
1140,259483,Pfingstweide,51.348816,12.311723
1141,5467,Pfingstweide,51.349396,12.310114
1142,109185,Philipp-Reis-Straße,51.351353,12.306335
1143,130334,Philipp-Reis-Straße,51.35172,12.305787
1144,160551,Philipp-Reis-Straße,51.35152,12.306146
1145,411819,Philipp-Reis-Straße,51.351353,12.306349
1146,174347,Pittlerstraße,51.376614,12.313228
1147,19182,Pittlerstraße,51.376694,12.312904
1148,131034,Pittlerstraße SEV,51.376526,12.314357
1149,274882,Pittlerstraße SEV,51.376675,12.312945
1150,36715,Plaut-/Schomburgkstraße,51.336006,12.300808
1151,57588,Plaut-/Schomburgkstraße,51.33627,12.300497
1152,274941,Plautstraße,51.33109,12.309081
1153,4692,Plautstraße,51.330868,12.308964
1154,120723,"Plaußig, Fuchsberg",51.39556,12.437478
1155,4151,"Plaußig, Fuchsberg",51.395935,12.437923
1156,456980,"Plaußig, Fuchsberg",51.395355,12.437448
1157,330876,"Plaußig, Gewerbegebiet",51.396107,12.45563
1158,444490,"Plaußig, Gewerbegebiet",51.396404,12.455652
1159,157383,Plaußiger Dorfstraße,51.392155,12.454929
1160,432944,Plaußiger Dorfstraße,51.39208,12.455024
1161,116023,Pleißenburgwerkstätten,51.371113,12.42961
1162,186019,Pleißenburgwerkstätten,51.37116,12.429571
1163,19701,Plovdiver Straße,51.31814,12.267927
1164,286140,Plovdiver Straße,51.317997,12.267803
1165,31350,Plovdiver Straße,51.317635,12.26792
1166,320613,Plovdiver Straße,51.31705,12.26785
1167,265853,Podelwitz Gewerbegebiet,51.410347,12.394605
1168,353193,Podelwitz Gewerbegebiet,51.410347,12.394605
1169,320851,Pommernstraße,51.331085,12.429433
1170,89086,Pommernstraße,51.331066,12.429115
1171,114700,Porsche Tor 1,51.41034,12.295424
1172,53581,Porsche Tor 1,51.410393,12.295428
1173,12629,Porsche Tor 2,51.39883,12.295071
1174,313822,Porsche Tor 2,51.399223,12.295458
1175,322,Porsche Tor 3,51.401028,12.28439
1176,453799,Porsche Tor 3,51.401066,12.284335
1177,55964,"Portitz, Schule",51.386047,12.455288
1178,6174,"Portitz, Schule",51.386066,12.455548
1179,404420,"Portitz, Teichsiedlung",51.378513,12.465525
1180,169976,"Portitzer A., S-Bf.Heiterblick",51.367134,12.461145
1181,200589,"Portitzer A., S-Bf.Heiterblick",51.367653,12.461285
1182,248863,"Portitzer A., S-Bf.Heiterblick",51.367054,12.459947
1183,5610,"Portitzer A., S-Bf.Heiterblick",51.367268,12.460293
1184,320671,Portitzmühlweg,51.391888,12.443469
1185,333079,Portitzmühlweg,51.391872,12.44466
1186,117995,Prager/Russenstraße,51.306377,12.422639
1187,212181,Prager/Russenstraße,51.306778,12.422425
1188,342987,Prager/Russenstraße,51.306778,12.422425
1189,397595,Prager/Russenstraße,51.306377,12.422639
1190,428104,Prager/Russenstraße,51.30671,12.422291
1191,186692,Probstheida,51.304176,12.425559
1192,227616,Probstheida,51.304474,12.425323
1193,251062,Probstheida,51.30441,12.425017
1194,252076,Probstheida,51.304134,12.425728
1195,315982,Probstheida,51.30414,12.425685
1196,331154,Probstheida,51.304176,12.425531
1197,440664,Probstheida,51.30426,12.425207
1198,75945,Probstheida,51.30441,12.425017
1199,212091,Probstheida WS,51.303806,12.4247
1200,311730,"Probstheida, Buswendestelle",51.30378,12.424726
1201,84910,"Probstheida, Buswendestelle",51.30422,12.424156
1202,137280,Probstheidaer/W.-Bredel-Str.,51.303444,12.400114
1203,247147,Probstheidaer/W.-Bredel-Str.,51.30339,12.400139
1204,100383,R.-Lehmann-/Zwickauer Straße,51.313995,12.394424
1205,181920,R.-Lehmann-/Zwickauer Straße,51.313828,12.394613
1206,44676,R.-Lehmann-/Zwickauer Straße,51.313915,12.394777
1207,70510,R.-Lehmann-/Zwickauer Straße,51.314236,12.394471
1208,111689,Rackwitzer Straße,51.358303,12.39832
1209,456640,Rackwitzer Straße,51.357826,12.397725
1210,281823,Raiffeisenstraße,51.298786,12.288224
1211,458617,Raiffeisenstraße,51.298954,12.288307
1212,115409,Raschwitzer Straße,51.29534,12.386163
1213,158992,Raschwitzer Straße,51.296055,12.38742
1214,267856,Raschwitzer Straße,51.29525,12.386242
1215,313034,Raschwitzer Straße,51.295948,12.38734
1216,438177,Raschwitzer Straße,51.29573,12.386119
1217,149209,Rathaus Leutzsch,51.34765,12.313922
1218,265223,Rathaus Leutzsch,51.347546,12.314044
1219,7656,Rathaus Leutzsch,51.347366,12.314418
1220,85285,Rathaus Leutzsch,51.347523,12.3142
1221,170905,Rathaus Schönefeld,51.359695,12.410746
1222,449374,Rathaus Schönefeld,51.35966,12.411548
1223,454610,Rathaus Schönefeld,51.35968,12.411521
1224,174973,Rathaus Schönefeld Li. 1,51.359695,12.410717
1225,124713,Rathaus Stötteritz,51.3192,12.41982
1226,162049,Rathaus Stötteritz,51.31942,12.41932
1227,196925,Rathaus Stötteritz,51.3192,12.41982
1228,256430,Rathaus Stötteritz,51.318516,12.419827
1229,262701,Rathaus Stötteritz,51.319458,12.419309
1230,303579,Rathaus Stötteritz,51.31917,12.419187
1231,309592,Rathaus Stötteritz,51.316227,12.416902
1232,244932,Rathenaustraße,51.35503,12.315231
1233,54369,Rathenaustraße,51.354935,12.315137
1234,103115,Ratzelbogen,51.31228,12.281011
1235,349863,Ratzelbogen,51.31155,12.281935
1236,438152,Ratzelbogen,51.311287,12.279821
1237,442766,Ratzelbogen,51.311657,12.282617
1238,419481,Regenbogen,51.30159,12.265804
1239,455434,Regenbogen,51.301197,12.265977
1240,248748,Rehbach,51.272636,12.275832
1241,120510,Reinhardtstraße,51.347195,12.430105
1242,254420,Reinhardtstraße,51.34679,12.430133
1243,10567,Rennbahn,51.321102,12.359677
1244,180140,Rennbahn,51.321,12.359928
1245,159450,"Reudnitz, Koehlerstraße",51.3383,12.404146
1246,243732,"Reudnitz, Koehlerstraße",51.338776,12.403176
1247,267598,"Reudnitz, Koehlerstraße",51.33833,12.404206
1248,285603,"Reudnitz, Koehlerstraße",51.33876,12.403046
1249,214710,"Richard-Lehmann-Straße, HTWK",51.31496,12.37382
1250,328578,"Richard-Lehmann-Straße, HTWK",51.31482,12.374613
1251,333383,"Richard-Lehmann-Straße, HTWK",51.31497,12.374179
1252,372803,"Richard-Lehmann-Straße, HTWK",51.314766,12.374609
1253,391400,"Richard-Lehmann-Straße, HTWK",51.315613,12.373365
1254,422387,"Richard-Lehmann-Straße, HTWK",51.31522,12.373322
1255,109303,Riebeck-/Oststraße,51.330845,12.405344
1256,155982,Riebeck-/Oststraße,51.331852,12.405261
1257,426801,Riebeck-/Oststraße,51.331146,12.405481
1258,427816,Riebeck-/Oststraße,51.331753,12.40623
1259,453947,Riebeck-/Oststraße,51.330853,12.405359
1260,89895,Riebeck-/Oststraße,51.331146,12.405496
1261,246190,Riebeck-/Stötteritzer Straße,51.32677,12.403133
1262,295143,Riebeck-/Stötteritzer Straße,51.326878,12.403844
1263,320250,Riebeck-/Stötteritzer Straße,51.327415,12.403296
1264,44926,Riebeck-/Stötteritzer Straße,51.32671,12.4031
1265,84821,Riebeck-/Stötteritzer Straße,51.327297,12.403273
1266,116902,Rietzschkegrund,51.389896,12.367062
1267,123410,Rietzschkegrund,51.389893,12.36686
1268,248215,Ringstraße,51.317654,12.297035
1269,390861,Ringstraße,51.318096,12.296292
1270,263160,Robert-Koch-Klinikum,51.31748,12.3017
1271,162224,Robert-Schumann-Straße,51.329052,12.366875
1272,250322,Robert-Schumann-Straße,51.32878,12.368764
1273,136350,Rochlitzstraße,51.318817,12.348159
1274,315325,Rochlitzstraße,51.3187,12.347907
1275,184053,Roseggerstraße,51.297695,12.435002
1276,258379,Roseggerstraße,51.2975,12.43546
1277,61491,Roseggerstraße,51.29779,12.435095
1278,178069,Rosenowstraße,51.3766,12.401156
1279,23552,Rosenowstraße,51.37604,12.402422
1280,440168,Rosenowstraße,51.376358,12.400463
1281,322007,Rosmarinweg,51.34609,12.428644
1282,67189,Rosmarinweg,51.34614,12.427988
1283,113141,Roßplatz,51.33482,12.378294
1284,12462,Roßplatz,51.334328,12.378186
1285,235983,Roßplatz,51.3347,12.378027
1286,328768,Roßplatz,51.335636,12.378641
1287,368759,Roßplatz,51.33562,12.378554
1288,14614,Roßstraße,51.286037,12.465692
1289,273367,Roßstraße,51.286434,12.465607
1290,174820,Rudolf-Breitscheid-Straße,51.389446,12.320408
1291,355114,Rudolf-Breitscheid-Straße,51.389282,12.320813
1292,125449,Russenstraße,51.304607,12.440281
1293,22684,Russenstraße,51.304695,12.440101
1294,140918,Rödelstraße,51.318676,12.340874
1295,153479,Rödelstraße,51.318657,12.342738
1296,205256,Rödelstraße,51.318672,12.341936
1297,377343,Rödelstraße,51.31941,12.341358
1298,132246,Rödelstraße Li. 1,51.319393,12.341299
1299,227726,"Rückmarsdorf, Einkaufspassage",51.345303,12.262999
1300,299112,"Rückmarsdorf, Einkaufspassage",51.345287,12.263012
1301,395658,"Rückmarsdorf, Einkaufspassage",51.344,12.262935
1302,395877,"Rückmarsdorf, Friedhof",51.34434,12.254876
1303,259654,"Rückmarsdorf, Löwen Center",51.34564,12.269728
1304,275174,"Rückmarsdorf, Löwen Center",51.34562,12.269152
1305,111031,"Rückmarsdorf, Sandberg",51.346504,12.260514
1306,21421,"Rückmarsdorf, Sandberg",51.346527,12.258463
1307,262619,"Rückmarsdorf, Sandberg",51.346535,12.258492
1308,96128,"Rückmarsdorf, Sandberg",51.346535,12.260502
1309,110329,"Rückmarsdorf, Zum Bahnhof",51.344746,12.278795
1310,200,"Rückmarsdorf, Zum Bahnhof",51.344757,12.279299
1311,235432,"Rückmarsdorf, Zum Bahnhof",51.344776,12.2793
1312,414184,"Rückmarsdorf, Zum Bahnhof",51.344772,12.27874
1313,118070,S-Bf. Allee-Center,51.319885,12.292848
1314,169060,S-Bf. Allee-Center,51.32019,12.29287
1315,263831,S-Bf. Anger-Crottendorf,51.33301,12.419758
1316,362611,S-Bf. Anger-Crottendorf,51.33301,12.419443
1317,131398,S-Bf. Connewitz,51.30126,12.384619
1318,16453,S-Bf. Connewitz,51.302162,12.383839
1319,227865,S-Bf. Connewitz,51.301456,12.384017
1320,316751,S-Bf. Connewitz,51.301556,12.384053
1321,392484,S-Bf. Connewitz,51.300972,12.384584
1322,96496,S-Bf. Connewitz,51.300964,12.384626
1323,133744,S-Bf. Coppiplatz,51.367683,12.366551
1324,190830,S-Bf. Coppiplatz,51.367184,12.367994
1325,400531,S-Bf. Coppiplatz,51.36804,12.366376
1326,401141,S-Bf. Coppiplatz,51.36724,12.367811
1327,193184,S-Bf. Gohlis,51.36338,12.373891
1328,91150,S-Bf. Gohlis,51.363182,12.373546
1329,398085,S-Bf. Karlsruher Straße,51.317707,12.278472
1330,408664,S-Bf. Karlsruher Straße,51.316574,12.278793
1331,302341,S-Bf. Leipzig Nord,51.36339,12.398941
1332,83211,S-Bf. Leipzig Nord,51.36348,12.398675
1333,196130,S-Bf. Leutzsch,51.35266,12.303945
1334,313656,S-Bf. Leutzsch,51.352722,12.302039
1335,341680,S-Bf. Leutzsch,51.35304,12.303326
1336,379073,S-Bf. Leutzsch,51.35304,12.303326
1337,56792,S-Bf. Leutzsch,51.35255,12.301438
1338,77786,S-Bf. Leutzsch,51.352737,12.303792
1339,212622,S-Bf. MDR,51.320816,12.386778
1340,249968,S-Bf. MDR,51.320946,12.386443
1341,195996,S-Bf. Messe,51.396145,12.389499
1342,220650,S-Bf. Messe,51.396427,12.39031
1343,24094,S-Bf. Messe,51.396328,12.390547
1344,25683,S-Bf. Messe,51.396065,12.38886
1345,127989,S-Bf. Möckern,51.365715,12.351439
1346,340205,S-Bf. Möckern,51.365574,12.351702
1347,407076,S-Bf. Möckern,51.365627,12.351691
1348,9891,S-Bf. Möckern,51.366005,12.350412
1349,234293,S-Bf. Möckern Li. 10,51.366028,12.350227
1350,30390,S-Bf. Plagwitz,51.3275,12.322758
1351,319179,S-Bf. Plagwitz,51.32731,12.322557
1352,394421,S-Bf. Plagwitz,51.32817,12.322548
1353,74263,S-Bf. Plagwitz,51.32774,12.322531
1354,331357,S-Bf. Slevogtstraße,51.372604,12.342878
1355,449482,S-Bf. Slevogtstraße,51.37267,12.343112
1356,114231,S-Bf. Stötteritz,51.325447,12.409393
1357,396097,S-Bf. Stötteritz,51.325447,12.409393
1358,424629,S-Bf. Stötteritz,51.32518,12.410851
1359,80805,S-Bf. Stötteritz,51.32518,12.410851
1360,251576,S-Bf. Thekla,51.372234,12.428042
1361,318118,S-Bf. Thekla,51.372196,12.428197
1362,125857,S-Bf. Wahren,51.37985,12.322198
1363,163878,S-Bf. Wahren,51.38004,12.324569
1364,197771,S-Bf. Wahren,51.380096,12.321972
1365,208092,S-Bf. Wahren,51.378925,12.323697
1366,378275,S-Bf. Wahren,51.380768,12.323342
1367,174776,Saarländer Straße,51.32799,12.308843
1368,265100,Saarländer Straße,51.327736,12.308064
1369,375021,Saarländer Straße,51.327736,12.308064
1370,40786,Saarländer Straße,51.32799,12.308843
1371,37008,Sabinenstraße,51.34707,12.494293
1372,75729,Sabinenstraße,51.34714,12.493968
1373,49763,Sachsenpark,51.40203,12.395771
1374,1725,Samuel-Lampel-Straße,51.375813,12.41923
1375,235197,Samuel-Lampel-Straße,51.375748,12.418363
1376,266772,Samuel-Lampel-Straße,51.37572,12.418303
1377,424841,Samuel-Lampel-Straße,51.37586,12.419434
1378,220967,Saturnstraße,51.32335,12.264165
1379,240937,Saturnstraße,51.323402,12.264801
1380,94621,Saturnstraße,51.323254,12.264747
1381,369740,Schenkendorfstraße,51.32462,12.369392
1382,77949,Schenkendorfstraße,51.324753,12.369803
1383,314805,Schildberger Weg,51.380104,12.406532
1384,179213,"Schleußig, Karlbrücke",51.326176,12.340472
1385,18328,"Schleußig, Karlbrücke",51.32604,12.340606
1386,337377,Schongauerstr,51.34578,12.470576
1387,339889,Schongauerstraße,51.34578,12.470547
1388,387108,Schongauerstraße,51.34572,12.470758
1389,186003,Schulstraße,51.325867,12.448432
1390,334542,Schulstraße,51.325947,12.448209
1391,247411,Schulze-Boysen-Straße,51.332283,12.399408
1392,293973,Schulze-Boysen-Straße,51.33227,12.400211
1393,153076,Schwantesstraße,51.354053,12.430877
1394,178794,Schwantesstraße,51.3538,12.43047
1395,309285,Schwantesstraße,51.35376,12.430151
1396,20209,Schwartzestraße,51.31671,12.326884
1397,304378,Schwartzestraße,51.315884,12.326265
1398,396457,Schwartzestraße,51.31594,12.326169
1399,400451,Schwartzestraße,51.316628,12.326864
1400,287346,Schwarzenbergweg,51.28665,12.429488
1401,307805,Schwarzenbergweg,51.28708,12.429433
1402,437526,Schwarzenbergweg,51.287113,12.429421
1403,357520,Schwarzes Ross,51.282536,12.460911
1404,402837,Schwarzes Ross,51.281845,12.461476
1405,142723,Schweizerbogen,51.301823,12.4363
1406,363534,Schweizerbogen,51.301765,12.43631
1407,337742,Schwimmhalle Südost,51.31628,12.426132
1408,88628,Schwimmhalle Südost,51.316097,12.425616
1409,159742,"Schönau, Kirche",51.327065,12.289172
1410,359035,"Schönau, Kirche",51.3278,12.289282
1411,386264,"Schönau, Weißdornstraße",51.324062,12.292616
1412,193218,Schönauer Ring,51.3232,12.288192
1413,255545,Schönauer Ring,51.323135,12.28879
1414,352742,Schönauer Ring,51.323074,12.288413
1415,36384,Schönauer Ring,51.3227,12.287711
1416,46484,Schönauer Ring Li. 61,51.3232,12.288192
1417,311773,Schönauer/Lützner Straße,51.322933,12.291545
1418,106533,Schönauer/Ratzelstraße,51.31499,12.302124
1419,277238,Schönauer/Ratzelstraße,51.314285,12.302676
1420,284784,Schönauer/Ratzelstraße,51.314045,12.30131
1421,305895,Schönauer/Ratzelstraße,51.31391,12.303812
1422,262554,Schönbachstraße,51.3199,12.413358
1423,411951,Schönbachstraße,51.320026,12.414228
1424,185819,"Schönefeld, Volbedingstr.",51.361553,12.407164
1425,286870,"Schönefeld, Volbedingstr.",51.36124,12.407084
1426,303039,"Schönefeld, Volbedingstr.",51.361206,12.407325
1427,311298,"Schönefeld, Volbedingstr. Li 1",51.361465,12.407086
1428,372060,"Schönefeld, Volbedingstr. Li 1",51.36134,12.407321
1429,198632,"Schönefeld-Ost, VNG AG",51.36219,12.430523
1430,293762,"Schönefeld-Ost, VNG AG",51.36211,12.430847
1431,305804,Schönefelder Straße,51.363266,12.395226
1432,348697,Schönefelder Straße,51.36316,12.395161
1433,125062,"Seehausen, Alte Mühle",51.410473,12.419618
1434,229044,"Seehausen, Alte Mühle",51.409756,12.419493
1435,25909,"Seehausen, Dingolfinger Straße",51.405727,12.419206
1436,241808,"Seehausen, Schule",51.402817,12.411427
1437,288421,"Seehausen, Schule",51.403522,12.412874
1438,408031,Seehausener Allee,51.399162,12.3977
1439,94370,Seelenbinderstraße,51.36656,12.349878
1440,113580,"Sellerhausen, Emmausstraße",51.3437,12.427619
1441,295577,"Sellerhausen, Emmausstraße",51.343735,12.42765
1442,318359,"Sellerhausen, Emmausstraße",51.34391,12.42841
1443,85196,"Sellerhausen, Emmausstraße",51.343864,12.428378
1444,208732,"Selliner Str., Gesundheitszent",51.31357,12.264073
1445,151541,Seumestraße,51.286644,12.313209
1446,364105,Seumestraße,51.2858,12.312087
1447,374645,Seumestraße,51.28708,12.314072
1448,404859,Seumestraße,51.287037,12.314212
1449,129405,Siedlerweg,51.388573,12.360253
1450,335039,Siedlerweg,51.388634,12.360286
1451,409953,Siedlung Florian Geyer,51.296947,12.289368
1452,107324,Siedlung Waldfrieden,51.31229,12.445031
1453,191425,Siedlung Waldfrieden,51.31235,12.444878
1454,311237,Siemensstraße,51.322582,12.326535
1455,443078,Siemensstraße,51.32178,12.32619
1456,179521,Simon-Bolivar-Straße,51.37922,12.42082
1457,370534,Simon-Bolivar-Straße,51.379154,12.419608
1458,121498,Siriusweg,51.32629,12.266441
1459,431546,Siriusweg,51.3264,12.267984
1460,212110,Sommerfeld,51.346695,12.479045
1461,34042,Sommerfeld,51.34659,12.478678
1462,383477,Sommerfeld,51.34668,12.478957
1463,443609,Sommerfeld,51.346397,12.478218
1464,247738,Sommerfeld (Riesaer Straße),51.34569,12.478567
1465,262613,Sommerfeld (Riesaer Straße),51.345818,12.478318
1466,431203,Sommerfeld Li. 90,51.346516,12.479304
1467,136557,Sommerfeld Riesaer Str,51.345825,12.478361
1468,314515,"Sommerfeld, Buswendestelle",51.34659,12.478678
1469,403771,Sophienstraße,51.391243,12.321774
1470,50031,Sophienstraße,51.39122,12.321873
1471,31506,Sosaer Straße,51.37573,12.436866
1472,363805,Sosaer Straße,51.375706,12.436966
1473,63155,Sportforum Ost,51.344604,12.354865
1474,144158,Sportforum Süd,51.340176,12.349617
1475,191526,Sportforum Süd,51.3403,12.350932
1476,199439,Sportforum Süd,51.34064,12.351015
1477,356643,Sportforum Süd,51.340176,12.349617
1478,379708,Sportforum Süd,51.34042,12.350812
1479,131328,Springerstraße,51.354942,12.371159
1480,342689,Springerstraße,51.35475,12.371274
1481,51758,Springerstraße,51.354942,12.371159
1482,275717,Stahmeln,51.378323,12.304904
1483,89179,Stahmeln,51.378456,12.304324
1484,198608,Stahmeln SEV,51.378414,12.304149
1485,417932,Stahmeln SEV,51.378277,12.304685
1486,3883,Stahmelner Allee,51.38092,12.29282
1487,417551,Stahmelner Allee,51.380684,12.293306
1488,175465,Stahmelner Allee SEV,51.380833,12.291176
1489,6070,Stahmelner Allee SEV,51.380657,12.292312
1490,149017,Stallbaumstraße,51.357533,12.359314
1491,403524,Stallbaumstraße,51.35776,12.359446
1492,131058,Stannebeinplatz,51.3514,12.407171
1493,282278,Stannebeinplatz,51.351376,12.406825
1494,377842,Stannebeinplatz,51.350887,12.406229
1495,402598,Stannebeinplatz,51.351162,12.407269
1496,84987,Stannebeinplatz,51.35087,12.406227
1497,163795,Steinplatz,51.31729,12.378439
1498,209799,Steinplatz,51.317394,12.378346
1499,454408,Steinplatz,51.317463,12.378409
1500,52078,Steinplatz,51.317593,12.378332
1501,360713,Steinstraße (Ärztehaus Süd),51.31805,12.368924
1502,74518,Steinstraße (Ärztehaus Süd),51.317562,12.368443
1503,29243,Sternenstraße,51.346485,12.487615
1504,385157,Sternenstraße,51.346428,12.488013
1505,429026,Sternsiedlung Nord,51.37528,12.345659
1506,44241,Sternsiedlung Nord,51.374863,12.345054
1507,447510,Sternsiedlung Nord,51.375492,12.34497
1508,385189,Stieglitzstraße,51.325012,12.344363
1509,437400,Stieglitzstraße,51.32363,12.343617
1510,251315,Stieglitzstraße Li. 1,51.32384,12.343819
1511,369099,Stieglitzstraße Li. 1,51.323715,12.34358
1512,202929,Stockartstraße,51.307823,12.378374
1513,450049,Stockartstraße,51.308056,12.377817
1514,335939,Straße am Park,51.31601,12.304608
1515,264775,Straße am See,51.316265,12.262787
1516,84644,Straße am See,51.316734,12.261758
1517,177146,Strümpellstraße,51.305855,12.43729
1518,395061,Strümpellstraße,51.305912,12.437251
1519,156870,Stuttgarter Allee,51.313255,12.292875
1520,174216,Stuttgarter Allee,51.3133,12.293194
1521,154314,Stöckelstraße,51.354053,12.412093
1522,179975,Stöckelstraße,51.354046,12.412035
1523,248254,Stöckelstraße,51.353775,12.411455
1524,303167,Stöckelstraße,51.35373,12.411451
1525,37000,Stöhrer-/Braunstraße,51.366158,12.430849
1526,417747,Stöhrer-/Braunstraße,51.364887,12.430524
1527,428535,Stöhrer-/Braunstraße,51.36566,12.431731
1528,454149,Stöhrer-/Braunstraße,51.36575,12.42964
1529,125994,"Stötteritz, Holzhäuser Straße",51.31912,12.429931
1530,247380,"Stötteritz, Holzhäuser Straße",51.31951,12.429142
1531,430165,"Stötteritz, Holzhäuser Straße",51.31951,12.429142
1532,431948,"Stötteritz, Holzhäuser Straße",51.31912,12.429931
1533,321071,Stünz,51.339764,12.433024
1534,111748,Südfriedhof,51.31146,12.416719
1535,297300,Südfriedhof,51.3115,12.416765
1536,349511,Südfriedhof,51.31156,12.418133
1537,370720,Südfriedhof,51.31172,12.418546
1538,396805,Südfriedhof,51.31117,12.417142
1539,459223,Südfriedhof,51.31117,12.417142
1540,28628,Südplatz,51.324585,12.373723
1541,345122,Südplatz,51.324467,12.373456
1542,407602,Südplatz,51.324455,12.37357
1543,419794,Südplatz,51.32483,12.373641
1544,113689,Südstraße,51.35937,12.29268
1545,186784,Südstraße,51.359394,12.292481
1546,359542,Südstraße,51.359447,12.292485
1547,447772,Südstraße,51.359497,12.292043
1548,102444,Taubestraße,51.35734,12.411591
1549,166839,Taubestraße,51.35751,12.411029
1550,125435,Technisches Rathaus,51.324944,12.402065
1551,163452,Technisches Rathaus,51.324024,12.40115
1552,202511,Technisches Rathaus,51.32507,12.40206
1553,247427,Technisches Rathaus,51.32537,12.400891
1554,250612,Technisches Rathaus,51.324955,12.402181
1555,30355,Technisches Rathaus,51.324997,12.40105
1556,58143,Technisches Rathaus,51.324104,12.400812
1557,158919,Telemannstraße,51.327217,12.367257
1558,448873,Telemannstraße,51.32745,12.367547
1559,61308,Telemannstraße,51.3271,12.366631
1560,18711,Teschstraße,51.38952,12.433575
1561,4261,Teschstraße,51.389503,12.433516
1562,82270,Thekla (Steig A),51.379265,12.425651
1563,433170,Thekla (Steig C),51.379883,12.425827
1564,155847,Thekla (Steig D),51.37993,12.425672
1565,212462,Thekla (Steig D),51.37993,12.425672
1566,270046,Thekla (Steig E),51.379696,12.42633
1567,320264,Thekla (Steig F),51.379765,12.426364
1568,133111,Thekla (Steig G),51.37987,12.426085
1569,151477,Theodor-Heuss-Straße,51.346226,12.445109
1570,191957,Theodor-Heuss-Straße,51.347187,12.44567
1571,35591,Theodor-Heuss-Straße,51.34699,12.445425
1572,457391,Theodor-Heuss-Straße,51.34624,12.445469
1573,277126,Theresienstraße,51.3611,12.38619
1574,331788,Theresienstraße,51.361248,12.386301
1575,168233,Thomas-Müntzer-Siedlung,51.26893,12.300538
1576,423916,Thomas-Müntzer-Siedlung,51.26897,12.300612
1577,63162,Thomas-Müntzer-Siedlung,51.269176,12.300957
1578,226158,Thomaskirche,51.340023,12.371212
1579,260883,Thomaskirche,51.33943,12.371168
1580,353521,Thomaskirche,51.3394,12.371252
1581,383671,Thomaskirche,51.340023,12.371212
1582,137435,Torgauer Platz,51.345078,12.414943
1583,22040,Torgauer Platz,51.345505,12.415104
1584,242059,Torgauer Platz,51.34512,12.413496
1585,254274,Torgauer Platz,51.344852,12.414065
1586,175709,Triftweg,51.310654,12.3962
1587,23785,Triftweg,51.30958,12.396322
1588,34676,Triftweg,51.30995,12.395316
1589,400838,Triftweg,51.30912,12.396317
1590,56944,Triftweg,51.309097,12.396214
1591,57552,Triftweg,51.30916,12.39652
1592,206599,Tucholskystraße,51.344334,12.274186
1593,158648,Uhlandweg,51.33696,12.443409
1594,8437,Uhlandweg,51.337208,12.443499
1595,250144,Uranusstraße,51.325176,12.272447
1596,295746,Uranusstraße,51.324703,12.27326
1597,255533,Versorgungszentrum BMW-Allee,51.40393,12.432399
1598,330997,Versorgungszentrum BMW-Allee,51.40394,12.432414
1599,158402,Viertelsweg,51.371243,12.364313
1600,181684,Viertelsweg,51.37258,12.363506
1601,280088,Viertelsweg,51.37266,12.363512
1602,332411,Viertelsweg,51.371223,12.364412
1603,143412,Virchow-/Coppistraße,51.3668,12.376326
1604,194299,Virchow-/Coppistraße,51.367016,12.37535
1605,399345,Virchow-/Coppistraße,51.366707,12.375802
1606,423839,Virchow-/Coppistraße,51.36708,12.375858
1607,181053,Volksgarten,51.348305,12.419821
1608,424979,Volksgarten,51.34852,12.420297
1609,325871,Volksgartenstraße,51.353466,12.421068
1610,422422,Volksgartenstraße,51.353336,12.420986
1611,146454,Völkerschlachtdenkmal,51.314945,12.41121
1612,155799,Völkerschlachtdenkmal,51.31424,12.412621
1613,240630,Völkerschlachtdenkmal,51.314854,12.411562
1614,295356,Völkerschlachtdenkmal,51.314358,12.412229
1615,217923,Wachbergallee,51.340984,12.263424
1616,1184,Wahren,51.372868,12.325126
1617,123988,Wahren,51.374527,12.32493
1618,219247,Wahren,51.37367,12.32448
1619,25155,Wahren,51.374313,12.324541
1620,260859,Wahren,51.374435,12.324377
1621,276309,Wahren,51.374584,12.323842
1622,323305,Wahren,51.37449,12.323476
1623,429877,Wahren,51.37457,12.323468
1624,445692,Wahren,51.374355,12.324415
1625,136689,Waldemar-Götze-Straße,51.383488,12.433511
1626,70103,Waldemar-Götze-Straße,51.383427,12.433435
1627,161600,Waldplatz,51.341835,12.357304
1628,24367,Waldplatz,51.342262,12.359632
1629,332214,Waldplatz,51.341908,12.35728
1630,351953,Waldplatz,51.3417,12.357294
1631,393954,Waldplatz,51.341686,12.355599
1632,418824,Waldplatz,51.34165,12.356041
1633,89957,Waldplatz,51.342587,12.359067
1634,40740,Waldplatz SEV,51.3423,12.358601
1635,68709,Waldplatz SEV,51.341736,12.358976
1636,38096,Walter-Heise-Straße,51.30278,12.46443
1637,451946,Walter-Heise-Straße,51.30302,12.464462
1638,157299,Wasserturmweg,51.301228,12.313901
1639,230619,Wasserturmweg,51.300926,12.312431
1640,2567,Wasserturmweg,51.300766,12.313337
1641,169492,Wasserwerk Windorf,51.294106,12.319583
1642,284398,Wasserwerk Windorf,51.29363,12.320481
1643,296608,Wasserwerk Windorf,51.294514,12.319785
1644,86652,Wasserwerk Windorf,51.293945,12.320719
1645,152113,Weidenweg,51.304085,12.314222
1646,178678,Weidenweg,51.30352,12.314167
1647,114832,Weimarer Straße,51.326763,12.281616
1648,79692,Weimarer Straße,51.32725,12.281277
1649,114576,Weinbrennerstraße,51.350285,12.446792
1650,142162,Weißestraße,51.321747,12.418876
1651,230722,Weißestraße,51.321903,12.417697
1652,358734,Weißestraße,51.321747,12.418876
1653,72681,Weißestraße,51.321903,12.417697
1654,197718,Westplatz,51.339264,12.36326
1655,224040,Westplatz,51.339138,12.363538
1656,272769,Westplatz,51.338146,12.363666
1657,316871,Westplatz,51.339085,12.362902
1658,327168,Westplatz,51.338184,12.363856
1659,352778,Westplatz,51.338753,12.362878
1660,3844,Westplatz,51.33817,12.36351
1661,75080,Westplatz,51.33908,12.364022
1662,109749,Wiebelstraße,51.34054,12.408949
1663,224702,Wiebelstraße,51.340324,12.408603
1664,219370,Wiedebachplatz,51.309273,12.376759
1665,458174,Wiedebachplatz,51.309734,12.378615
1666,196715,Wiederitzsch Dachauer Straße,51.390217,12.377146
1667,252837,Wiederitzsch Dachauer Straße,51.390217,12.377146
1668,323107,"Wiederitzsch, Bürgeramt",51.39364,12.374164
1669,432721,"Wiederitzsch, Bürgeramt",51.393875,12.373765
1670,362236,"Wiederitzsch, Schule",51.3919,12.372973
1671,245426,Wiederitzsch-Mitte,51.39336,12.375983
1672,364614,Wiederitzsch-Mitte,51.393497,12.376597
1673,355950,"Wiederitzsch-Nord, Salzhandels",51.403557,12.367233
1674,90543,"Wiederitzsch-Nord, Salzhandels",51.403927,12.36726
1675,65944,Wiederitzscher Landstraße,51.395824,12.371278
1676,8571,Wiederitzscher Landstraße,51.395885,12.37111
1677,306223,Wiederitzscher Straße,51.364132,12.35806
1678,417600,Wiederitzscher Straße,51.364403,12.35739
1679,75685,Wiederitzscher Straße,51.364395,12.357289
1680,97814,Wiederitzscher Straße,51.36416,12.358119
1681,260571,Wielandstraße,51.3414,12.324008
1682,340087,Wielandstraße,51.341324,12.324232
1683,376209,Wielandstraße,51.341446,12.324055
1684,44821,Wielandstraße,51.341614,12.32388
1685,108475,Wildpark,51.300426,12.372337
1686,221950,Wildpark,51.3002,12.372335
1687,87888,Wildpark,51.300266,12.372368
1688,146800,Wilhelm-Leuschner-Platz,51.33507,12.374006
1689,162584,Wilhelm-Leuschner-Platz,51.33583,12.375425
1690,277733,Wilhelm-Leuschner-Platz,51.33596,12.376799
1691,315978,Wilhelm-Leuschner-Platz,51.33596,12.376799
1692,380500,Wilhelm-Leuschner-Platz,51.33585,12.375412
1693,385055,Wilhelm-Leuschner-Platz,51.335297,12.374252
1694,39865,Wilhelm-Leuschner-Platz,51.334877,12.374121
1695,149582,Wilhelm-Liebknecht-Platz,51.350067,12.378067
1696,163906,Wilhelm-Liebknecht-Platz,51.350117,12.376663
1697,226729,Wilhelm-Liebknecht-Platz,51.349545,12.377238
1698,288520,Wilhelm-Liebknecht-Platz,51.349865,12.377664
1699,229897,Wilhelm-Pfennig-Straße,51.387047,12.322001
1700,447319,Wilhelm-Pfennig-Straße,51.387344,12.321966
1701,371298,Wilhelm-Winkler-Straße,51.354294,12.289358
1702,116395,Wilhelminenstraße,51.36134,12.380965
1703,328968,Wilhelminenstraße,51.361053,12.380585
1704,42201,Wilhelminenstraße,51.361027,12.380655
1705,119473,Wilhelmstraße,51.38343,12.323334
1706,152114,Wilhelmstraße,51.384293,12.322664
1707,286217,Wilhelmstraße,51.384453,12.323983
1708,160139,Willi-Bredel-Str,51.303024,12.401016
1709,180022,Wittenberger Straße,51.353203,12.387517
1710,420301,Wittestraße,51.347366,12.301324
1711,65481,Wittestraße,51.34776,12.301409
1712,206513,Witzgallstraße,51.3281,12.399615
1713,441479,Witzgallstraße,51.328316,12.399487
1714,286792,Wodanstraße,51.38297,12.448015
1715,44589,Wodanstraße,51.383038,12.44812
1716,212686,Wächterstraße,51.33321,12.365171
1717,420383,Wächterstraße,51.333195,12.366935
1718,257411,Zaucheweg,51.32182,12.49306
1719,46028,Zaucheweg,51.321014,12.49386
1720,105358,Zeisigweg,51.380447,12.33184
1721,420043,Zeisigweg,51.38024,12.331724
1722,160432,Zittauer Straße,51.355965,12.409176
1723,381513,Zittauer Straße,51.35628,12.409113
1724,229337,Zollschuppenstraße,51.32709,12.323891
1725,433026,Zollschuppenstraße,51.326992,12.324228
1726,239745,Zoo,51.348564,12.371624
1727,265443,Zoo,51.348625,12.3717
1728,52426,Zoo,51.34864,12.371687
1729,98632,Zoo,51.348583,12.37151
1730,300969,Zschampertaue,51.30717,12.265914
1731,316516,Zschampertaue,51.30713,12.264806
1732,335974,Zschampertaue,51.30709,12.265277
1733,91397,Zschampertaue,51.30712,12.265093
1734,115110,Zschortauer Straße,51.37636,12.394127
1735,338992,Zschortauer Straße,51.376453,12.393818
1736,311039,Zuckelhausen,51.305573,12.45269
1737,48946,Zuckelhausen,51.305305,12.45267
1738,145099,Zum Dölitzer Schacht,51.286945,12.402293
1739,153312,Zum Dölitzer Schacht,51.28686,12.402372
1740,30456,Zur Kaninchenfarm,51.343327,12.294472
1741,411278,Zur Kaninchenfarm,51.343483,12.293966
1742,40906,Zur Lindenhöhe,51.39134,12.334831
1743,412246,Zur Lindenhöhe,51.391365,12.335221
1744,195530,Zur alten Sandgrube,51.280624,12.46352
1745,241368,Zweenfurther Straße,51.340275,12.430938
1746,311738,Äußerer Zeisigweg,51.386066,12.331214
1747,438320,Äußerer Zeisigweg,51.385796,12.331194
