node_id,stop_id,stop_name,stop_lat,stop_lon
0,248584,Achatweg,53.867607,10.740632
1,379711,Achatweg,53.868225,10.74011
2,404985,Adlerstraße,53.869995,10.669927
3,448569,Adlerstraße,53.87092,10.668793
4,334372,Adolfstraße,53.880085,10.697303
5,388054,Adolfstraße,53.88034,10.698227
6,195169,Alexander-Fleming-Str.,53.831577,10.691497
7,349462,Alexander-Fleming-Str.,53.831543,10.691571
8,265864,Am Behnckenhof,53.897984,10.681926
9,419067,Am Behnckenhof,53.897606,10.682641
10,36463,Am Bertramshof,53.86407,10.716502
11,438065,Am Bertramshof,53.86392,10.714579
12,162371,Am Dreworp,53.89058,10.677824
13,218563,Am Dreworp,53.890587,10.678007
14,397077,Am Dreworp,53.890186,10.678767
15,417690,Am Dreworp,53.890133,10.678826
16,196929,Am Grenzwall,53.878407,10.649374
17,58117,Am Grenzwall,53.878223,10.64885
18,114906,Am Lotsenberg,53.9595,10.874757
19,142116,Am Mailand,53.876373,10.640365
20,410208,Am Mailand,53.87627,10.63998
21,40771,Am Rittbrook,53.87338,10.725584
22,419646,Am Rittbrook,53.873386,10.726284
23,267527,Am Schwarzen Berg,53.888313,10.674051
24,46966,Am Schwarzen Berg,53.88856,10.674213
25,138102,Am Stau,53.898983,10.763261
26,452143,Am Stau,53.89869,10.763507
27,265457,Am Teufelsmoor,53.840183,10.744616
28,180607,Amselweg,53.849075,10.705915
29,6123,Amselweg,53.84921,10.706012
30,13039,An den Schießständen,53.861893,10.747892
31,373031,An den Schießständen,53.861786,10.747842
32,254672,An der Falkenwiese,53.86907,10.698956
33,370227,An der Falkenwiese,53.869156,10.699066
34,311915,An der Hansehalle,53.87971,10.671273
35,377727,An der Hansehalle,53.879837,10.671263
36,2616,An der Hülshorst,53.894447,10.70685
37,307797,An der Hülshorst,53.894802,10.706697
38,15225,An der Hülshorst Mitte,53.895195,10.712481
39,357950,An der Hülshorst Mitte,53.895195,10.712481
40,326014,An der Stadtfreiheit,53.870327,10.66559
41,275579,Andersenring,53.842243,10.624939
42,37703,Andersenring,53.841915,10.625185
43,189668,Artlenburger Straße,53.87356,10.658539
44,421121,Artlenburger Straße,53.873234,10.659499
45,166753,Aschenputtelweg,53.844563,10.62889
46,352307,Aschenputtelweg,53.844677,10.628469
47,293114,Auf der Heide,53.853264,10.635629
48,180310,Auf der Reihe,53.877247,10.645571
49,294210,Auf der Reihe,53.87731,10.645817
50,105867,August-Bebel-Straße,53.844154,10.641643
51,187690,August-Bebel-Straße,53.8443,10.641618
52,213823,Aussenallee,53.9634,10.879232
53,391174,Aussenallee,53.961693,10.877569
54,114221,Bahnhof Kücknitz,53.925034,10.819798
55,255021,Bahnhof Kücknitz,53.925053,10.819753
56,227932,Bartelsholz,53.820576,10.57342
57,347675,Bartelsholz,53.8202,10.571051
58,224233,Bauernweg,53.870785,10.622228
59,270393,Bauernweg,53.870804,10.622198
60,410553,Bauernweg,53.870693,10.622346
61,297802,Beckergrube,53.86925,10.679966
62,96784,Beckergrube,53.869244,10.680057
63,120460,Beethovenstraße,53.871166,10.651478
64,93090,Beethovenstraße,53.87105,10.650849
65,26677,Bei der Gasanstalt,53.84911,10.678734
66,312740,Bei der Gasanstalt,53.84887,10.678496
67,458075,Bei der Gasanstalt,53.849083,10.677927
68,107428,Beidendorf,53.787926,10.677519
69,288081,Beidendorf,53.78769,10.677525
70,250875,Beim Meilenstein,53.88804,10.79013
71,429564,Beim Meilenstein,53.888077,10.789538
72,310545,Berliner Allee,53.84595,10.684034
73,335074,Berliner Allee,53.8463,10.6842
74,384133,Berliner Platz,53.851704,10.68349
75,391766,Berliner Platz,53.85164,10.683548
76,389256,Bessemer Straße,53.834927,10.696388
77,95552,Bessemer Straße,53.83497,10.696557
78,102468,Blanckstraße,53.86377,10.697266
79,89427,Blanckstraße,53.863537,10.697242
80,412793,Blankenseer Dorfplatz,53.79623,10.714428
81,449145,Blankenseer Dorfplatz,53.79626,10.714338
82,266705,Bogenstraße,53.89435,10.684565
83,407640,Bogenstraße,53.895287,10.68442
84,298726,Bornhövedstraße,53.884583,10.659066
85,405380,Bornhövedstraße,53.884933,10.659111
86,132500,Bornkamp,53.825424,10.683545
87,293824,Bornkamp,53.825424,10.683545
88,128842,Brandenbaumer Tannen,53.849045,10.743525
89,177166,Brandenbaumer Tannen,53.849,10.74363
90,101558,Breite Straße,53.87065,10.688069
91,376758,Breite Straße,53.870613,10.688219
92,112199,Brinkweg,53.88613,10.7916
93,37007,Brinkweg,53.885815,10.790537
94,372401,Brodten,53.987682,10.862066
95,93689,Brodten,53.98739,10.861824
96,232586,Brodtener Kirchsteig,53.962917,10.86305
97,37091,Brodtener Kirchsteig,53.962753,10.862159
98,134080,Bruchweg,53.844006,10.634843
99,143118,Bruchweg,53.844395,10.63469
100,448543,Brunshorster Weg,53.844196,10.745741
101,323690,Buchenstücken,53.82882,10.604317
102,83534,Buchenstücken,53.828224,10.603792
103,122705,Buchenweg,53.897232,10.737845
104,367572,Buchenweg,53.897568,10.738057
105,384616,Bunsenweg,53.89234,10.710964
106,442134,Bunsenweg,53.893196,10.71071
107,301551,Buntekuh,53.856056,10.639676
108,47309,Buntekuh,53.85579,10.640715
109,66260,Buntekuh,53.85592,10.640705
110,6709,Buntekuh,53.856045,10.63998
111,161336,Burckhardt-Gymnasium,53.86684,10.656874
112,24698,Burckhardt-Gymnasium,53.866146,10.655827
113,15752,Burgtorfriedhof,53.882744,10.703862
114,23327,Burgtorfriedhof,53.883087,10.704241
115,152190,Butenhof,53.81655,10.639637
116,22738,Butenhof,53.81707,10.640311
117,10366,Buurdiekstraße,53.912407,10.820832
118,120186,Buurdiekstraße,53.91242,10.820574
119,173312,Campingplatz,53.953655,10.889111
120,400421,Campingplatz,53.95365,10.889309
121,266272,Carl-Gauß-Straße,53.838078,10.687214
122,401923,Carl-Gauß-Straße,53.838238,10.687099
123,266758,Citti-Park Herrenholz,53.858036,10.626372
124,329390,Citti-Park Herrenholz,53.85927,10.627089
125,334229,Clara-Schumann-Straße,53.872288,10.654533
126,38521,Clara-Schumann-Straße,53.872517,10.655486
127,20099,Dieselstraße,53.85475,10.735795
128,449695,Dieselstraße,53.855347,10.735485
129,219590,Distelkrog,53.97232,10.868304
130,339745,Distelkrog,53.97244,10.868263
131,145006,Dorfstraße,53.84595,10.692365
132,16167,Dornestraße,53.863594,10.673869
133,145883,Dorothea-Erxleben-Str.,53.831764,10.695653
134,275768,Dorothea-Erxleben-Str.,53.83159,10.695874
135,142263,Drechslerstraße,53.861065,10.609656
136,261144,Drechslerstraße,53.860996,10.609608
137,193641,Dreeblöcken,53.97449,10.874256
138,233334,Dreeblöcken,53.974483,10.874225
139,227792,Dreifelderweg,53.859253,10.730948
140,254785,Dreifelderweg,53.858826,10.731889
141,283095,Drägerpark,53.87179,10.710977
142,306675,Drägerpark,53.870712,10.711587
143,282418,Drägerwerk,53.85775,10.670184
144,377416,Drägerwerk,53.85782,10.6704
145,106173,Drögeneck,53.87938,10.619366
146,113118,Drögeneck,53.879246,10.618706
147,299589,Drögestraße,53.87624,10.67801
148,310923,Drögestraße,53.875572,10.677421
149,103613,Dummersdorfer Scheide,53.912766,10.811895
150,226497,Dummersdorfer Scheide,53.912815,10.811745
151,319964,Dummersdorfer Straße,53.912537,10.816986
152,412157,Dummersdorfer Straße,53.91258,10.816698
153,227169,Dänemarkstraße,53.96597,10.865656
154,11562,Ehrenfriedhof,53.88434,10.707959
155,155166,Ehrenfriedhof,53.88523,10.708285
156,439320,Ehrenfriedhof,53.884644,10.707926
157,115996,Eichenweg,53.900726,10.742968
158,162959,Eichenweg,53.900803,10.743214
159,151324,Eichholz,53.84693,10.747953
160,390734,Eichholz,53.846703,10.748399
161,44314,Eichholz Teich,53.84913,10.742723
162,68953,Eichholz Teich,53.849506,10.741523
163,188264,Einsiedelstraße,53.87961,10.683896
164,258752,Einsiedelstraße,53.87995,10.684427
165,191086,Eisenstraße,53.9049,10.802938
166,203959,Eisenstraße,53.905514,10.803543
167,395037,Eisenstraße,53.90584,10.803253
168,246121,Elbingstraße,53.924297,10.822035
169,60851,Elbingstraße,53.924427,10.821858
170,159293,Eric-Warburg-Brücke,53.883198,10.688681
171,35469,Eric-Warburg-Brücke,53.883423,10.689299
172,215077,Ernst-Deecke-Weg,53.898685,10.747388
173,404399,Ernst-Deecke-Weg,53.898724,10.7471
174,149348,Ernst-Ruska-Straße,53.838707,10.706755
175,382535,Ernst-Ruska-Straße,53.838745,10.70668
176,125611,Eutiner Straße,53.888374,10.66194
177,241100,Eutiner Straße,53.888134,10.661566
178,206241,Fabrikstraße,53.88812,10.785994
179,225710,Fabrikstraße,53.888115,10.785127
180,260034,Fackenburger Allee,53.869526,10.672098
181,276991,Fahlenkampsweg,53.85157,10.702444
182,296732,Fahlenkampsweg,53.85138,10.70239
183,51437,Fahlenkampsweg,53.850613,10.703347
184,328432,Falkendamm,53.871887,10.697854
185,443789,Falkendamm,53.872044,10.697647
186,149160,Fasanenweg,53.838833,10.63651
187,337815,Fasanenweg,53.838726,10.635002
188,225733,Fegefeuer,53.86288,10.686996
189,72916,Fegefeuer,53.86271,10.687065
190,177490,Feldstraße,53.843906,10.680912
191,269129,Feldstraße,53.84434,10.681431
192,411576,Fleischhauerstraße,53.867348,10.687662
193,213555,Flughafen,53.80672,10.702433
194,413572,Flughafen,53.80668,10.702401
195,17172,Forstmeisterweg,53.893906,10.720236
196,210603,Forstmeisterweg,53.893887,10.720478
197,324305,Fregattenstraße,53.86103,10.648569
198,327301,Fregattenstraße,53.86101,10.648736
199,291690,Friedenstraße,53.874165,10.675782
200,81615,Friedenstraße,53.87403,10.675853
201,389535,Friedhof Waldhusen,53.9133,10.800909
202,59326,Friedhof Waldhusen,53.91386,10.80072
203,277604,Friedrichstraße,53.846287,10.685735
204,203656,Försterei,53.873505,10.75586
205,8547,Försterei,53.87334,10.754971
206,19795,G.-Kerschensteiner-Str.,53.883373,10.678889
207,245170,G.-Kerschensteiner-Str.,53.882835,10.678777
208,24651,Genin,53.841766,10.649864
209,59902,Genin,53.84198,10.649568
210,135962,Germanenweg,53.903076,10.750738
211,444287,Germanenweg,53.90254,10.750456
212,184153,Geschwister-Scholl-Weg,53.881924,10.708971
213,375287,Geschwister-Scholl-Weg,53.882217,10.70912
214,106160,Gewerbeg. Gneversd. Weg,53.96282,10.857863
215,20029,Gewerbeg. Gneversd. Weg,53.96283,10.857818
216,167578,Ginsterweg,53.852814,10.640264
217,181436,Ginsterweg,53.853203,10.640051
218,309667,Glashüttenweg,53.892418,10.707391
219,58304,Glashüttenweg,53.892582,10.707306
220,119440,Gleisdreieck,53.86388,10.744112
221,199567,Gleisdreieck,53.863914,10.744174
222,126273,Gneisenaustraße,53.86742,10.713688
223,138088,Gneisenaustraße,53.86697,10.714233
224,227494,Gneversdorf,53.968903,10.856136
225,97946,Gneversdorf,53.968903,10.856136
226,322669,Goebenstraße,53.868008,10.721515
227,34616,Goebenstraße,53.86804,10.721333
228,296213,Grace-Hopper-Straße,53.835068,10.690254
229,58508,Grace-Hopper-Straße,53.83583,10.689601
230,292000,Grapengießerstr. Mitte,53.861168,10.634766
231,395570,Grapengießerstr. Mitte,53.86064,10.635081
232,226446,Grapengießerstraße,53.858776,10.637973
233,370549,Grapengießerstraße,53.85867,10.638045
234,250260,Grenzweg,53.913616,10.738526
235,383294,Grenzweg,53.91345,10.738991
236,220473,Grillenweg,53.827488,10.731933
237,313013,Grillenweg,53.827488,10.731933
238,11301,Grootkoppel 1,53.87034,10.742586
239,164600,Grootkoppel 1,53.869644,10.74277
240,330367,Grootkoppel 2,53.86588,10.743921
241,380305,Grootkoppel 2,53.867104,10.743744
242,247450,Grote Bleeken,53.82078,10.591658
243,56364,Grote Bleeken,53.820564,10.591224
244,361027,"Groß Grönau, Waldschule",53.8129,10.746375
245,348508,"Groß Steinrade, Bauernweg",53.87018,10.622255
246,252775,"Groß Steinrade, Breden",53.87285,10.596976
247,85063,"Groß Steinrade, Drögeneck",53.879276,10.618895
248,230412,"Groß Steinrade, Morier Straße",53.882576,10.627869
249,232962,"Groß Steinrade, Morierhof",53.883034,10.632684
250,445137,"Groß Steinrade, Steinrader Damm",53.87575,10.614996
251,322187,"Groß Steinrade, Steinrader Teich",53.880947,10.62239
252,269942,"Groß Steinrade, Suterland",53.876526,10.612472
253,114268,Groß Steinrade/Teich,53.88096,10.622378
254,82079,Groß Steinrade/Teich,53.880905,10.622407
255,425177,Große Burgstraße,53.873283,10.690761
256,912,Große Burgstraße,53.872578,10.690474
257,145586,Grönauer Baum,53.83434,10.714784
258,211278,Grönauer Baum,53.83453,10.714761
259,378246,Grüner Jäger,53.9414,10.844432
260,405763,Grüner Jäger,53.94161,10.844685
261,231773,Guerickestraße,53.85129,10.738678
262,260018,Guerickestraße,53.85145,10.738334
263,223105,Gustav-Adolf-Straße,53.87817,10.708605
264,238299,Gustav-Adolf-Straße,53.877537,10.708473
265,133717,Gustav-Falke-Straße,53.843487,10.708181
266,425601,Gustav-Falke-Straße,53.84331,10.70793
267,111900,Gustav-Radbruch-Platz,53.876003,10.693457
268,133970,Gustav-Radbruch-Platz,53.876163,10.693509
269,232421,Gustav-Radbruch-Platz,53.876175,10.693388
270,309956,Gustav-Radbruch-Platz,53.87599,10.694338
271,385485,Gustav-Radbruch-Platz,53.875923,10.693347
272,392243,Gustav-Radbruch-Platz,53.87617,10.693722
273,54238,Gustav-Radbruch-Platz,53.875854,10.693162
274,334171,H. d. Kirschkaten Mitte,53.845486,10.67304
275,65160,H. d. Kirschkaten Mitte,53.84551,10.673178
276,325063,Hafenbahnhof,53.958344,10.86466
277,43453,Hagebuttenweg,53.86566,10.748977
278,447313,Hagebuttenweg,53.865303,10.748825
279,128807,Hagelsteinstraße,53.972954,10.880088
280,93485,Hagelsteinstraße,53.972973,10.880165
281,222047,Hagenstraße,53.83185,10.721916
282,389173,Hagenstraße,53.83168,10.722243
283,247160,Hahnenkamp,53.872852,10.616999
284,63019,Hahnenkamp,53.873066,10.616475
285,260668,Hamburger Straße,53.84999,10.636915
286,331985,Hamburger Straße,53.849945,10.63699
287,423960,Hanse Residenz,53.88637,10.706673
288,447061,Hanse Residenz,53.886326,10.706686
289,387842,Hansemuseum,53.87396,10.687928
290,420862,Hansemuseum,53.874317,10.689905
291,181618,Hansering,53.855774,10.668053
292,447333,Hansering,53.855312,10.66697
293,303648,Haselnußweg,53.868584,10.748825
294,308564,Haselnußweg,53.868217,10.748825
295,283116,Heinrichstraße,53.87453,10.711682
296,411983,Heinrichstraße,53.874565,10.712307
297,111150,Heiweg,53.861267,10.741433
298,39029,Heiweg,53.861267,10.741433
299,25802,Hellkamp,53.82441,10.598177
300,428200,Hellkamp,53.824574,10.598609
301,288563,Helmholtzstraße,53.846256,10.687832
302,14996,Herbartweg,53.865158,10.729032
303,246166,Herbartweg,53.865013,10.727353
304,196191,Herrenwyk,53.902866,10.802576
305,236919,Herrenwyk,53.902874,10.802653
306,131269,Herrnburger Weg,53.8463,10.747105
307,245093,Hinter den Kirschkaten,53.843266,10.659211
308,286443,Hinter den Kirschkaten,53.84318,10.658918
309,139511,Hirtenbergweg,53.911816,10.823669
310,376660,Hirtenbergweg,53.91197,10.8236
311,18113,Hochschulstadtteil,53.83019,10.699586
312,42001,Hochschulstadtteil,53.830143,10.69966
313,297236,Hochstraße,53.88692,10.684129
314,367817,Hochstraße,53.887157,10.684534
315,110966,Hofland,53.868874,10.618093
316,124844,Hofland,53.868607,10.617657
317,164058,Holderbusch,53.822094,10.593759
318,237244,Holderbusch,53.822598,10.59437
319,125695,Holstentorplatz,53.866497,10.67835
320,352739,Holstentorplatz,53.866016,10.679259
321,149670,Holzkoppel,53.825676,10.600975
322,189332,Holzkoppel,53.825684,10.60093
323,322632,Howingsbrook,53.969524,10.859
324,441532,Howingsbrook,53.96945,10.858997
325,424735,Hudekamp,53.85192,10.633889
326,45225,Hudekamp,53.85255,10.634355
327,55485,Hudekamp,53.852657,10.633218
328,383430,Hugo-Distler-Straße,53.869762,10.646585
329,75645,Hugo-Distler-Straße,53.869762,10.645764
330,448884,Hutmacherring,53.86514,10.602969
331,87215,Hutmacherring,53.865116,10.602451
332,407522,Hüxtertorallee,53.86133,10.6944
333,437493,Hüxtertorallee,53.86118,10.694074
334,212603,IKEA LUV SHOPPING,53.91408,10.735119
335,355757,IKEA LUV SHOPPING,53.91408,10.735119
336,310657,Ilsebillweg,53.84248,10.633263
337,78060,Ilsebillweg,53.842545,10.63325
338,125201,Im Block,53.832073,10.609714
339,128814,Im Block,53.8325,10.609624
340,24397,Im Gleisdreieck,53.871994,10.74305
341,329812,Im Gleisdreieck,53.872032,10.742763
342,65023,Im Schlag,53.83624,10.614965
343,90962,Im Schlag,53.836098,10.614701
344,415078,Israelsdorf,53.893387,10.737138
345,66990,Israelsdorf,53.893524,10.736839
346,237201,Ivendorfer Landstraße,53.933857,10.836589
347,48202,Ivendorfer Landstraße,53.934017,10.83684
348,260427,Josephinenstraße,53.88352,10.680615
349,32022,Josephinenstraße,53.884556,10.681584
350,108377,Jungborn,53.890266,10.726538
351,135178,Jungborn,53.890297,10.726159
352,221601,Kahlhorststraße,53.85054,10.700167
353,319835,Kahlhorststraße,53.849922,10.698728
354,387082,Kalkbrennerstraße,53.847878,10.698964
355,412281,Kalkbrennerstraße,53.84755,10.698845
356,189583,Kalkhorster Weg,53.842793,10.744694
357,329254,Karavellenstraße,53.85491,10.648526
358,380856,Karavellenstraße,53.854794,10.648613
359,22927,Karlstraße,53.879925,10.678629
360,348225,Karlstraße,53.87912,10.678217
361,368907,Karlstraße,53.880726,10.677992
362,396946,Karlstraße,53.880264,10.67738
363,168664,Kastanienallee,53.844364,10.699597
364,425891,Kastanienallee,53.843903,10.700339
365,50341,Katharineum,53.869144,10.688966
366,258864,Kaufhof,53.86442,10.720242
367,65484,Kaufhof,53.86432,10.719356
368,101264,Kieselgrund,53.905476,10.780173
369,130043,Kieselgrund,53.905476,10.780173
370,165230,Kirchplatz,53.913494,10.805273
371,72843,Kirchplatz,53.913425,10.805666
372,158021,Kirchweg,53.90786,10.77079
373,213151,Kirchweg,53.90805,10.770676
374,381457,Kirschenallee,53.872364,10.746716
375,46811,Kirschenallee,53.872578,10.747501
376,449904,Koberg,53.870853,10.689583
377,96211,Kohlmarkt,53.866222,10.684423
378,332650,Kolberger Platz,53.855618,10.660535
379,94885,Kolberger Platz,53.8555,10.661124
380,344872,Kornweg,53.915184,10.811893
381,76873,Kornweg,53.915028,10.810288
382,180588,Korvettenstraße,53.85407,10.653495
383,265498,Korvettenstraße,53.853996,10.653553
384,198519,Kowitzberg,53.97483,10.877901
385,288509,Kowitzberg,53.97484,10.877901
386,124700,Kreuzwegbrücke,53.897186,10.75008
387,153166,Kreuzwegbrücke,53.89754,10.748649
388,264287,Kreuzwegbrücke,53.897396,10.750043
389,294902,Kreuzwegbrücke,53.89624,10.749584
390,111752,"Kronsforde, Forstamt Stadtwald",53.790054,10.619668
391,122316,"Kronsforde, Forstamt Stadtwald",53.790054,10.619641
392,12222,"Kronsforde, Kirche",53.802624,10.622569
393,371581,"Kronsforde, Kirche",53.802624,10.622569
394,132258,"Kronsforde, Kronsforder Koppel",53.804413,10.623827
395,413798,"Kronsforde, Kronsforder Koppel",53.804424,10.623836
396,381147,Krummesse/Moorweg,53.78391,10.64096
397,113120,Krummesser Baum,53.807495,10.635958
398,171824,Krummesser Baum,53.80595,10.635806
399,150775,Kruppstraße,53.842678,10.667259
400,242456,Kruppstraße,53.842457,10.667007
401,111160,Krähenstraße,53.864613,10.69105
402,126624,Krähenstraße,53.864483,10.691227
403,158435,Krämerwende,53.867092,10.607241
404,353050,Krämerwende,53.866817,10.606364
405,74987,Kurgartenstraße,53.958103,10.870198
406,111439,Kurzer Weg,53.880424,10.658917
407,123087,Kurzer Weg,53.880516,10.658631
408,403135,Königsberg,53.888645,10.777845
409,423612,Königsberg,53.888676,10.778105
410,168819,Königstraße,53.86516,10.68654
411,159184,Kücknitzer Scheide,53.91169,10.791522
412,213756,Kücknitzer Scheide,53.91169,10.791522
413,64290,Kücknitzer Scheide,53.911316,10.791171
414,169981,Labradorweg,53.96709,10.860599
415,406396,Labradorweg,53.966972,10.860609
416,160322,Lachswehrallee,53.860245,10.672473
417,164268,Lachswehrallee,53.861164,10.672784
418,47020,Langenreem,53.91225,10.748457
419,94969,Langenreem,53.912228,10.748837
420,130191,Langer Bogen,53.958466,10.845749
421,232571,Lauerhofstraße,53.8744,10.717031
422,390617,Lauerhofstraße,53.874332,10.717546
423,110121,Leegerwall,53.96986,10.874491
424,298208,Leegerwall,53.969135,10.875266
425,452320,Lehmannkai,53.909103,10.767448
426,57357,Lehmannkai,53.90918,10.767344
427,134293,Leinweberstraße,53.862408,10.632017
428,290850,Leinweberstraße,53.862404,10.631758
429,41231,Lembkestraße,53.971275,10.87986
430,445963,Lembkestraße,53.971134,10.879778
431,421126,Lenardweg,53.896976,10.706085
432,360516,Libellenweg,53.83033,10.725561
433,392444,Libellenweg,53.830803,10.724517
434,363122,LindenArcaden,53.867615,10.673102
435,98738,LindenArcaden,53.867218,10.671839
436,324765,Lohgerberstraße,53.86152,10.629351
437,90050,Lohgerberstraße,53.861557,10.629231
438,115716,Lohmühlenplatz,53.8778,10.668473
439,286237,Lohmühlenplatz,53.877773,10.668503
440,161748,Luisenstraße,53.88748,10.707418
441,250892,Luisenstraße,53.88784,10.708209
442,66552,Lutherkirche,53.85362,10.662798
443,78723,Lutherkirche,53.85354,10.662749
444,407756,Lübeck Breite Str./Theater,53.869633,10.686147
445,276596,Lübeck G.-Radbruch-Platz,53.875874,10.692816
446,319271,Lübeck Kirschenallee,53.872475,10.746885
447,64613,Lübeck Untertrave,53.86667,10.680905
448,93263,Lübeck ZOB,53.866188,10.670958
449,359347,Lübeck central train station,53.86618,10.669183
450,30132,"Lübeck, Adlerstraße",53.87095,10.668626
451,61062,"Lübeck, Adlerstraße, Mast 1l",53.86997,10.670048
452,317291,"Lübeck, Adlerstraße, Mast 6r",53.870735,10.668953
453,302481,"Lübeck, Buntekuh",53.856075,10.639925
454,74219,"Lübeck, Burckhardt-Gymnasium",53.86687,10.656804
455,4460,"Lübeck, Drägerwerke",53.857784,10.670396
456,198237,"Lübeck, Fackenburger Allee, Mast 1r",53.869347,10.671924
457,277338,"Lübeck, Fackenburger Allee, Mast 6l",53.869846,10.672187
458,183648,"Lübeck, Fahlenkampsweg",53.851376,10.702385
459,209957,"Lübeck, Fegefeuer",53.86269,10.687158
460,160122,"Lübeck, Friedenstraße, Mast 1r",53.87405,10.675823
461,315687,"Lübeck, Friedenstraße, Mast 6l",53.874153,10.675934
462,235339,"Lübeck, Hohenstiege",53.850376,10.628381
463,103353,"Lübeck, Josephinenstraße, Mast 1r",53.88359,10.680602
464,62738,"Lübeck, Josephinenstraße, Mast 6l",53.88459,10.681753
465,447543,"Lübeck, Karavellenstraße",53.854828,10.648665
466,150915,"Lübeck, Kohlmarkt",53.86622,10.68431
467,392733,"Lübeck, Kurzer Weg",53.880074,10.659149
468,423846,"Lübeck, Königstraße",53.8651,10.686511
469,67624,"Lübeck, Lutherkirche",53.853535,10.662751
470,161351,"Lübeck, Malmöstraße",53.836903,10.66903
471,8917,"Lübeck, Moislinger Baum",53.849968,10.641623
472,83114,"Lübeck, Oderstraße, Mast 1r",53.891716,10.687213
473,144254,"Lübeck, Oderstraße, Mast 6l",53.891277,10.686952
474,291191,"Lübeck, Reinsbeker Straße",53.88534,10.653292
475,800,"Lübeck, Reinsbeker Straße, Mast 1l",53.885338,10.653269
476,92660,"Lübeck, Reinsbeker Straße, Mast 6r",53.885468,10.653091
477,453125,"Lübeck, Sana Kliniken",53.84885,10.686089
478,197660,"Lübeck, Sandstraße",53.864468,10.685469
479,67570,"Lübeck, St. Hubertus",53.82458,10.721384
480,117113,"Lübeck, Stresemannstraße",53.857964,10.692791
481,425707,"Lübeck, Tremser Teich, Mast 1r",53.898922,10.69
482,82339,"Lübeck, Tremser Teich, Mast 6l",53.898552,10.690015
483,33922,"Lübeck, Universitätsstraße",53.839233,10.709445
484,154431,"Lübeck, Verwaltungszentrum Mühlentor",53.856056,10.689296
485,187597,"Lübeck, Vorrader Straße",53.841774,10.678507
486,64772,"Lübeck, Waisenhofstraße",53.874157,10.665365
487,241173,"Lübeck, Waisenhofstraße, Mast 1l",53.87423,10.665441
488,121108,"Lübeck, Waisenhofstraße, Mast 6r",53.87364,10.665995
489,385954,"Lübeck, ZOB/Hauptbahnhof",53.86609,10.672174
490,353841,"Lübeck, ZOB/Hauptbahnhof, Mast 13",53.866375,10.670513
491,191573,Lübecker Nachrichten,53.855034,10.630407
492,376516,Lübecker Nachrichten,53.854477,10.631009
493,262929,Malmöstraße,53.836643,10.668706
494,365977,Malmöstraße,53.837494,10.667797
495,458859,Malmöstraße,53.83703,10.669436
496,113309,Maria-Goeppert-Straße,53.834038,10.69383
497,455064,Maria-Goeppert-Straße,53.83383,10.693031
498,106002,Marliring,53.864708,10.724193
499,149659,Marliring,53.865208,10.723164
500,195813,Max-Reger-Straße,53.863453,10.652968
501,451979,Max-Reger-Straße,53.86381,10.653773
502,104469,Mecklenburger Landstraße,53.953697,10.885806
503,200882,Mecklenburger Straße,53.887608,10.795544
504,238929,Mecklenburger Straße,53.887363,10.794955
505,141194,Medenbreite,53.872486,10.625382
506,62636,Medenbreite,53.87263,10.625935
507,185825,Meesenring,53.86563,10.716642
508,229070,Meesenring,53.865677,10.716689
509,120918,Meierstraße,53.864117,10.668141
510,371972,Meierstraße,53.864174,10.668296
511,345455,Mittschiffs,53.968403,10.876377
512,358549,Mittschiffs,53.96824,10.87643
513,14347,Moislinger Baum,53.849464,10.642413
514,320883,Moislinger Baum,53.851234,10.641859
515,75376,Moislinger Baum,53.85007,10.643608
516,189414,Mollwostraße,53.958218,10.850098
517,436568,Mollwostraße,53.958088,10.851037
518,201347,Moltkeplatz,53.863113,10.706608
519,391909,Moltkeplatz,53.863075,10.706956
520,108718,Moltkestraße,53.86304,10.697982
521,11642,Moltkestraße,53.86313,10.698624
522,322793,Moorgarten,53.809666,10.577066
523,330488,Moorgarten,53.809666,10.577066
524,396048,Morier Straße,53.88258,10.62801
525,407034,Morier Straße,53.882523,10.627673
526,106392,Morierhof,53.883106,10.632427
527,408423,Morierhof,53.88299,10.632788
528,146273,Mozartstraße,53.868298,10.660277
529,376896,Mozartstraße,53.868465,10.660406
530,202933,Märkische Straße,53.858547,10.659298
531,250012,Märkische Straße,53.859158,10.658638
532,314132,Möllerung,53.9014,10.803731
533,36896,Möllerung,53.901848,10.803339
534,423697,Mühlenberg,53.960114,10.861172
535,428263,Mühlenberg,53.95996,10.861242
536,218983,Mühlenweg,53.842113,10.639131
537,350375,Mühlenweg,53.841995,10.638473
538,120762,Neptunstraße,53.831165,10.717298
539,147075,Neptunstraße,53.831337,10.717397
540,102884,Neue Hafenstraße,53.883595,10.695605
541,427540,Neue Hafenstraße,53.883446,10.694944
542,118015,Neuer Faulenhoop,53.894318,10.72669
543,202555,Neuer Faulenhoop,53.89434,10.726417
544,272803,Niels-Bohr-Ring,53.899666,10.706743
545,303573,Niels-Bohr-Ring,53.899666,10.706743
546,308612,Niels-Bohr-Ring 1,53.899635,10.706924
547,353432,Niels-Bohr-Ring 1,53.899635,10.706924
548,131327,Niels-Bohr-Ring 2,53.896603,10.709099
549,44075,Niels-Bohr-Ring 2,53.896587,10.709479
550,261740,Niels-Bohr-Ring 3,53.896652,10.706635
551,302365,Niels-Bohr-Ring 3,53.896698,10.706622
552,117093,Niemarker Weg,53.802135,10.636007
553,417927,Niemarker Weg,53.800854,10.635881
554,321506,Nienhüsen,53.81542,10.588751
555,68751,Nienhüsen,53.815483,10.58848
556,250043,Norderneystraße,53.887108,10.678522
557,415337,Norderneystraße,53.887325,10.67853
558,440209,Nordlandring,53.96511,10.869521
559,96206,Nordlandring,53.96521,10.869434
560,112917,Nordmeerstraße,53.968826,10.86461
561,367947,Nordmeerstraße,53.968777,10.864364
562,18800,Normannenweg,53.90487,10.751741
563,69136,Normannenweg,53.90487,10.751741
564,401175,Norwegenstraße,53.96693,10.869236
565,198994,Nuelsenstraße,53.874023,10.630613
566,353912,Nuelsenstraße,53.874348,10.63201
567,130831,Oberbüssauer Weg,53.840256,10.631717
568,19373,Oberbüssauer Weg,53.84032,10.631598
569,347451,Oberbüssauer Weg,53.840256,10.631717
570,9356,Oberbüssauer Weg,53.84032,10.631598
571,243001,Obstgut,53.82237,10.646549
572,309442,Obstgut,53.822327,10.646578
573,196981,Oderstraße,53.89174,10.687397
574,304964,Oderstraße,53.890896,10.686632
575,444288,Orkneyweg,53.963223,10.861326
576,80811,Orkneyweg,53.963856,10.860516
577,375797,Ostpreußenring,53.91717,10.813532
578,399977,Ostpreußenring,53.916714,10.813147
579,272703,Ostseestraße,53.948296,10.851777
580,318514,Ostseestraße,53.948353,10.851596
581,388783,Ovendorfer Straße,53.93854,10.842508
582,455264,Ovendorfer Straße,53.93823,10.842235
583,238533,Overbeckstraße,53.852734,10.688093
584,6590,Overbeckstraße,53.852394,10.687881
585,22554,Palinger Weg,53.883247,10.799267
586,369458,Palinger Weg,53.883736,10.799699
587,105822,Passathafen,53.95405,10.876799
588,98525,Passathafen,53.953953,10.87716
589,427633,Paul-Brümmer-Straße,53.959595,10.870463
590,309804,Peenestieg,53.893726,10.688512
591,31341,Peenestieg,53.89313,10.687986
592,147738,Pennmoor,53.838554,10.623185
593,214287,Pennmoor,53.838745,10.624409
594,381329,Pensebusch,53.86089,10.727138
595,52355,Pensebusch,53.86048,10.728003
596,267973,Percevalstraße,53.867035,10.698919
597,275384,Percevalstraße,53.867325,10.69884
598,117776,Pommernring,53.91818,10.821358
599,254510,Pommernring,53.91795,10.821134
600,166284,Pommernzentrum,53.950024,10.849887
601,318653,Postillionweg,53.880707,10.654562
602,409389,Postillionweg,53.880634,10.654011
603,109116,Prassekstraße,53.872578,10.731362
604,450113,Prassekstraße,53.872585,10.730845
605,181135,Priwall/Priwallfähre,53.95487,10.871425
606,225925,Priwall/Priwallfähre,53.95485,10.871455
607,256536,Pötenitzer Weg,53.95353,10.881256
608,117348,Rapsacker,53.869427,10.633689
609,276709,Rapsacker,53.869465,10.633417
610,43936,Rastattstraße,53.881985,10.781503
611,60039,Rastattstraße,53.88227,10.78226
612,370219,Ratekauer Weg,53.898247,10.675787
613,94568,Ratekauer Weg,53.89776,10.674915
614,167109,Rehsprung,53.910408,10.804302
615,74080,Rehsprung,53.910965,10.804311
616,180576,Reinsbeker Straße,53.885284,10.65319
617,93530,Reinsbeker Straße,53.885582,10.653126
618,245594,Reußkamp,53.837673,10.618014
619,72197,Reußkamp,53.8376,10.617905
620,291642,Revalstraße,53.841,10.660094
621,65905,Revalstraße,53.841,10.659866
622,304786,Richard-Wagner-Straße,53.86995,10.66232
623,361442,Richard-Wagner-Straße,53.870247,10.66218
624,261397,Rigastraße,53.83865,10.665503
625,53777,Rigastraße,53.838455,10.665738
626,292892,Ringstedtenweg,53.83941,10.674136
627,364735,Ringstedtenweg,53.83945,10.67432
628,352550,Ritterspornweg,53.85892,10.747038
629,405377,Ritterspornweg,53.859573,10.747248
630,135182,Roeckstraße,53.875084,10.704464
631,270066,Roeckstraße,53.87483,10.705259
632,123654,Roggenhorster Straße,53.8625,10.607415
633,423415,Roggenhorster Straße,53.862473,10.607398
634,26363,Rose,53.963696,10.865037
635,353379,Rose,53.963463,10.864325
636,337523,Rotenhauser Feld,53.85881,10.644695
637,424506,Rotenhauser Feld,53.859062,10.645359
638,284233,Roter Hahn,53.923225,10.819826
639,93527,Roter Hahn,53.923115,10.819547
640,294423,Roter Löwe,53.851715,10.659332
641,343543,Roter Löwe,53.85071,10.658943
642,41785,Rönnauer Ring,53.95509,10.854181
643,92694,Rönnauer Ring,53.954594,10.853702
644,1573,Rönnauer Weg,53.9525,10.853091
645,380530,Rönnauer Weg,53.952084,10.85321
646,12429,Sana Kliniken Lübeck,53.84862,10.685859
647,45314,Sana Kliniken Lübeck,53.84929,10.686388
648,418889,Sandstraße,53.864857,10.685174
649,158484,Schaluppenweg,53.850044,10.648137
650,182613,Schaluppenweg,53.85023,10.646898
651,182922,Schanzenbergweg,53.79432,10.701536
652,198184,Schanzenbergweg,53.79431,10.701581
653,144412,Schenkendorfstraße,53.871346,10.720161
654,432459,Schenkendorfstraße,53.871624,10.720081
655,25529,Schiereichenkoppel,53.830006,10.658747
656,344026,Schiereichenkoppel,53.83067,10.659943
657,399616,Schildfarneck,53.85695,10.746469
658,40213,Schildfarneck,53.85637,10.746263
659,21259,Schleusenstraße,53.81303,10.637312
660,220930,Schleusenstraße,53.81241,10.636757
661,336785,Schlutup Markt,53.887615,10.799903
662,190025,Schlutup/Markt,53.8878,10.799569
663,97546,Schlutup/Markt,53.88755,10.799878
664,168522,Schlutuper Tannen,53.879242,10.775545
665,311419,Schlutuper Tannen,53.879753,10.776783
666,80504,Schlutuper Tannen,53.879353,10.775792
667,378940,Schneidemühlstraße,53.917187,10.818695
668,74281,Schneidemühlstraße,53.917202,10.817006
669,198663,Schulstraße,53.87576,10.698634
670,382804,Schulstraße,53.875687,10.69997
671,134323,Schulzentrum,53.90785,10.803552
672,135102,Schulzentrum,53.908436,10.803882
673,159770,Schärenweg,53.828957,10.686954
674,159917,Schärenweg,53.82893,10.686725
675,333185,Schönböckener Hauptstr.,53.869366,10.630265
676,451529,Schönböckener Hauptstr.,53.86948,10.628794
677,162216,Schönböckener Straße,53.869385,10.642494
678,408951,Schönböckener Straße,53.869442,10.642314
679,61664,Schüsselbuden,53.867184,10.683944
680,227108,Sedanstraße,53.87663,10.662874
681,307710,Sedanstraße,53.877743,10.661762
682,279053,Seekamp,53.801582,10.727995
683,408831,Seekamp,53.801582,10.727995
684,11861,Seelandstraße,53.900623,10.787745
685,155590,Seelandstraße,53.900867,10.787116
686,149911,Sereetz/Am Rugenberg,53.9222,10.756746
687,65798,Sereetz/Am Rugenberg,53.922215,10.756777
688,160045,Sereetzer Weg,53.900112,10.677384
689,384925,Sereetzer Weg,53.90064,10.676629
690,17774,Siebenberg,53.958534,10.843054
691,450117,Siebenberg,53.95856,10.843559
692,183446,Siemensstraße,53.84393,10.670409
693,4198,Siemensstraße,53.843925,10.670151
694,322802,Siems,53.90447,10.778212
695,446625,Siemser Landstraße,53.911213,10.757412
696,65906,Siemser Landstraße,53.911263,10.757048
697,371725,Silberstraße,53.90491,10.810048
698,138332,Skandinavienkai Bahnhof,53.95172,10.85455
699,156321,Skandinavienkai Bahnhof,53.951427,10.854461
700,398789,Skandinavienkai Terminal,53.940582,10.852334
701,453805,Skandinavienkai Terminal,53.940517,10.852026
702,137724,Solmitzstraße,53.914497,10.804996
703,138094,Solmitzstraße,53.914543,10.804846
704,19864,Spenglerstraße,53.855553,10.599257
705,304823,Spenglerstraße,53.855553,10.599242
706,192804,Sportshuus,53.780308,10.650062
707,213908,Sportshuus,53.780487,10.650631
708,259107,St. Hubertus,53.824474,10.721309
709,356593,St. Hubertus,53.825245,10.721113
710,148560,Stadthalle,53.860146,10.690201
711,213500,Stadthalle,53.859882,10.690479
712,2214,Stadttheater,53.86962,10.686293
713,232849,Stadttheater,53.869556,10.686443
714,181614,Stadtweide,53.840645,10.701271
715,305930,Stadtweide,53.84035,10.701107
716,162596,Stadtwerke,53.848225,10.673682
717,321986,Stadtwerke,53.848206,10.673286
718,113106,Steenkamp,53.96834,10.870916
719,173185,Steenkamp,53.96931,10.870517
720,289066,Steinmetzstraße,53.863487,10.616896
721,326504,Steinmetzstraße,53.8635,10.616699
722,183159,Steinrader Damm,53.876305,10.614911
723,456324,Steinrader Damm,53.876186,10.614861
724,36944,Stellmacherstraße,53.859634,10.605891
725,55376,Stellmacherstraße,53.859806,10.60573
726,447655,Stephensonstraße,53.83624,10.699542
727,88641,Stephensonstraße,53.83629,10.699285
728,37009,Sterntalerweg,53.84138,10.629572
729,96238,Sterntalerweg,53.84141,10.629406
730,225363,Strandbahnhof,53.964542,10.877027
731,376449,Strandbahnhof,53.964687,10.876987
732,402869,Strandbahnhof,53.964638,10.876619
733,88216,Strandbahnhof,53.96475,10.877127
734,292423,Strecknitzer Tannen,53.819073,10.71688
735,61134,Strecknitzer Tannen,53.818798,10.716732
736,247343,Stresemannstraße,53.857853,10.6928
737,285851,Stresemannstraße,53.857933,10.693061
738,127162,Sudetenstraße,53.84337,10.692337
739,258890,Sudetenstraße,53.84337,10.692337
740,310096,Sundweg,53.828,10.6826
741,382708,Sundweg,53.82799,10.68263
742,437805,Surenfeld,53.929432,10.82788
743,86578,Surenfeld,53.929787,10.828794
744,351072,Söllbrock,53.79512,10.709721
745,431885,Söllbrock,53.795334,10.709912
746,125121,Süderstraße,53.885593,10.674444
747,153720,Süderstraße,53.88613,10.67442
748,203029,Talweg,53.850628,10.653375
749,34236,Talweg,53.850365,10.654368
750,75973,Talweg,53.850254,10.653147
751,108690,Tannenschlag,53.881,10.797878
752,257182,Tannenschlag,53.88077,10.797716
753,339676,Taschenmacherstraße,53.86735,10.612057
754,61106,Taschenmacherstraße,53.86744,10.611589
755,193870,Technische Hochschule,53.837658,10.700131
756,386407,Technische Hochschule,53.83805,10.700406
757,143984,Teutenbrink,53.957542,10.855449
758,278173,Teutenbrink,53.957645,10.854706
759,114677,Teutendorf Bollbrügg,53.96321,10.838276
760,435519,Teutendorf Bollbrügg,53.963066,10.838269
761,304311,Teutendorf Raiffeisen,53.968105,10.841479
762,456570,Teutendorf Raiffeisen,53.968006,10.841429
763,270421,Teutendorf Teich,53.965137,10.838665
764,316923,Teutendorf Teich,53.964985,10.838506
765,207741,Teutendorfer Weg,53.956963,10.859355
766,354524,Teutendorfer Weg,53.957146,10.859623
767,52641,Teutendorfer Weg,53.957134,10.858677
768,25837,Theodor-Heuss-Straße,53.8536,10.686577
769,292719,Theodor-Heuss-Straße,53.85347,10.686237
770,292367,Tilsitstraße,53.921196,10.823865
771,415272,Tilsitstraße,53.921017,10.823903
772,138716,Torneiweg,53.890186,10.711469
773,339538,Torneiweg,53.890347,10.711476
774,339586,Torstraße,53.957203,10.865234
775,61151,Torstraße,53.95694,10.863561
776,234031,Trave-Park,53.884865,10.804069
777,371419,Trave-Park,53.88476,10.804338
778,150025,Travehaus,53.88936,10.77401
779,402353,Travehaus,53.889202,10.774855
780,22348,Travemünde/Priwallfähre,53.95567,10.86608
781,233858,Travemünde/Priwallfähre,53.955853,10.866622
782,443299,Travemünde/Priwallfähre,53.95615,10.866452
783,283681,Travemünder Landstraße,53.936977,10.847787
784,29940,Travemünder Landstraße,53.937447,10.847731
785,120341,Traveweg,53.898823,10.795873
786,176943,Traveweg,53.898743,10.796295
787,152079,Trelleborgallee,53.960777,10.878793
788,263849,Tremser Teich,53.89891,10.690121
789,34452,Tremser Teich,53.8985,10.689922
790,69054,Trendelenburgstraße,53.84728,10.68614
791,35100,Triftstraße,53.885014,10.679092
792,39034,Triftstraße,53.884727,10.679081
793,199812,Töpferweg,53.862453,10.664897
794,425815,Töpferweg,53.862637,10.665208
795,381533,Türkisweg,53.865288,10.741904
796,433522,Türkisweg,53.864693,10.741895
797,330330,UKSH,53.8362,10.70989
798,335110,UKSH,53.83678,10.709382
799,102152,UKSH West,53.835777,10.705526
800,382513,UKSH West,53.835777,10.705526
801,109297,Uhlenhörn,53.87545,10.636921
802,2819,Uhlenhörn,53.875507,10.637136
803,186438,Ulmenweg,53.905464,10.806038
804,34657,Ulmenweg,53.905434,10.805853
805,359006,Universität,53.83786,10.702404
806,37916,Universität,53.83801,10.702805
807,104142,Universitätsstraße,53.83919,10.709343
808,220276,Universitätsstraße,53.839207,10.709572
809,178210,Untertrave,53.867115,10.680565
810,204930,Untertrave,53.867435,10.680639
811,95903,Utechter Weg,53.842148,10.746309
812,206881,Verbindungsstraße,53.85623,10.603434
813,993,Verbindungsstraße,53.85778,10.602581
814,18211,Verwaltungsz. Mühlentor,53.8563,10.689453
815,58444,Verwaltungsz. Mühlentor,53.85607,10.68923
816,12142,Virchowstraße,53.843204,10.687998
817,343108,Vorrade,53.815773,10.674986
818,99940,Vorrade,53.815666,10.675498
819,371750,Vorrader Straße,53.841827,10.678549
820,51303,Vorrader Straße,53.84186,10.678672
821,442135,Vorwerker Diakonie,53.891693,10.681643
822,75082,Vorwerker Diakonie,53.89192,10.680921
823,193927,Vorwerker Friedhof/E 1,53.89085,10.6628
824,88804,Vorwerker Friedhof/E 1,53.890488,10.663013
825,332936,Vorwerker Friedhof/E 2,53.892223,10.663569
826,361969,Vorwerker Friedhof/E 2,53.892426,10.664597
827,423346,Vorwerker Friedhof/E 3,53.893612,10.66854
828,449938,Vorwerker Friedhof/E 3,53.893635,10.668739
829,37499,Wahmstraße,53.865524,10.686205
830,328367,Waisenhofstraße,53.874157,10.665362
831,397884,Waisenhofstraße,53.873646,10.666087
832,257994,Waldstraße,53.9009,10.738926
833,327671,Waldstraße,53.90098,10.738823
834,44431,Wasserkunst,53.85522,10.697194
835,450262,Wasserkunst,53.855026,10.697749
836,14750,Weinbergstraße,53.846516,10.708137
837,299305,Weinbergstraße,53.845917,10.707976
838,120450,Wellenschlag,53.95399,10.896991
839,295824,Wellenschlag,53.953945,10.89705
840,138577,Welsbachstraße,53.853264,10.68112
841,306443,Welsbachstraße,53.852985,10.681763
842,250136,Wendische Straße,53.861305,10.662129
843,268267,Wendische Straße,53.86156,10.662961
844,380301,Werkstraße,53.899704,10.796337
845,456199,Werkstraße,53.89983,10.796479
846,136984,Wesloer Brücke,53.871246,10.73698
847,145512,Wesloer Brücke,53.871044,10.737869
848,297194,Wesloer Brücke,53.871246,10.73698
849,53332,Wesloer Brücke,53.871044,10.737869
850,314835,Wesloer Straße,53.888004,10.795393
851,401095,Wesloer Straße,53.887985,10.79489
852,105905,Westphalstraße,53.884586,10.787137
853,146036,Westphalstraße,53.8846,10.787366
854,295266,Wickedestraße,53.87219,10.673984
855,59995,Wickedestraße,53.871887,10.673592
856,336740,Wiekstraße,53.952084,10.883279
857,123000,Wielandstraße,53.859547,10.675289
858,1444,Wielandstraße,53.859898,10.674817
859,261678,Wilhelm-Wisser-Weg,53.90034,10.749086
860,75558,Wilhelm-Wisser-Weg,53.90107,10.749542
861,325076,Wisbystraße,53.867687,10.663903
862,340507,Wisbystraße,53.867954,10.66364
863,413530,Wulfsdorf,53.809193,10.682834
864,79970,Wulfsdorf,53.80918,10.682803
865,102996,ZOB/Hauptbahnhof,53.865498,10.670143
866,136460,ZOB/Hauptbahnhof,53.86573,10.671004
867,143215,ZOB/Hauptbahnhof,53.86601,10.671608
868,173917,ZOB/Hauptbahnhof,53.865692,10.670425
869,180773,ZOB/Hauptbahnhof,53.86599,10.671045
870,298531,ZOB/Hauptbahnhof,53.86626,10.671558
871,299434,ZOB/Hauptbahnhof,53.865658,10.670925
872,311429,ZOB/Hauptbahnhof,53.866013,10.670696
873,345866,ZOB/Hauptbahnhof,53.86579,10.670277
874,346509,ZOB/Hauptbahnhof,53.86622,10.67186
875,41129,ZOB/Hauptbahnhof,53.86586,10.670705
876,49698,ZOB/Hauptbahnhof,53.86542,10.670475
877,89401,ZOB/Hauptbahnhof,53.865887,10.67133
878,17472,Zarnewenzweg,53.878384,10.793262
879,317771,Zarnewenzweg,53.878384,10.793262
880,23421,Zeißstraße,53.847275,10.670269
881,86358,Zeißstraße,53.847366,10.67082
882,161106,Zeppelinstraße,53.888054,10.717789
883,9173,Zeppelinstraße,53.88674,10.715148
884,104420,Zinngießerstraße,53.86284,10.601603
885,433387,Zinngießerstraße,53.86235,10.603729
