node_id,stop_id,stop_name,stop_lat,stop_lon
0,317913,Aberlestraße,48.122562,11.545391
1,330338,Aberlestraße,48.122272,11.543522
2,139827,Abtstraße,48.184177,11.578574
3,227849,Abtstraße,48.184284,11.578934
4,379244,Achatstraße,48.216694,11.489156
5,126037,Ackermannbogen,48.164993,11.555524
6,46842,Ackermannbogen,48.165005,11.556287
7,211921,Ackermannstraße,48.16752,11.564839
8,364475,Ackermannstraße,48.16778,11.56545
9,454278,Ackermannstraße,48.16829,11.565019
10,72282,Ackermannstraße,48.167923,11.56545
11,103231,Adilostraße,48.10638,11.62128
12,440275,Adilostraße,48.106255,11.621119
13,414696,Adunistraße,48.109295,11.534359
14,45800,Adunistraße,48.10967,11.534117
15,286950,Agnes-Bernauer-Platz,48.139954,11.495534
16,341584,Agnes-Bernauer-Platz,48.13977,11.496558
17,111285,Agnes-Bernauer-Straße,48.13932,11.511533
18,127539,Agnes-Bernauer-Straße,48.139145,11.511722
19,280445,Agnes-Bernauer-Straße,48.139374,11.510734
20,41125,Agnes-Bernauer-Straße,48.139385,11.51165
21,311752,Aichacher Straße,48.104496,11.517273
22,391877,Aichacher Straße,48.104862,11.518432
23,119764,Aidenbachstraße,48.09756,11.524307
24,220598,Aidenbachstraße,48.09784,11.523508
25,309248,Aidenbachstraße,48.098095,11.524271
26,312984,Aidenbachstraße,48.09761,11.524038
27,343425,Aidenbachstraße,48.097996,11.523858
28,449693,Aidenbachstraße,48.09791,11.525169
29,64351,Aidenbachstraße,48.09797,11.524361
30,85352,Aidenbachstraße,48.09785,11.525143
31,334249,Aindorferstraße,48.13132,11.502658
32,55794,Aindorferstraße,48.13137,11.503062
33,120316,Albrechtstraße,48.155598,11.540207
34,200790,Albrechtstraße,48.155663,11.540558
35,252980,Allach,48.19021,11.467381
36,269946,Allach,48.190052,11.466923
37,27153,Allach,48.190224,11.467605
38,396668,Allach,48.189842,11.467498
39,331151,Allach Bahnhof Ost,48.19277,11.468387
40,449048,Allach Bf. Ost,48.19277,11.468387
41,13565,Allacher Forstweg,48.210773,11.481278
42,244357,Allescherstraße,48.082375,11.520121
43,435978,Allescherstraße,48.082718,11.519771
44,152983,Allgäuer Straße,48.081684,11.485724
45,352764,Allgäuer Straße,48.08208,11.48515
46,190177,Allinger Straße,48.167576,11.410913
47,210880,Allinger Straße,48.16761,11.411039
48,223600,Alois-Hahn-Weg,48.10502,11.661651
49,393017,Alois-Hahn-Weg,48.105083,11.661866
50,169603,Alte Allee,48.163868,11.442722
51,295929,Alte Allee,48.163876,11.443764
52,31915,Alte Allee,48.16309,11.443576
53,16631,Alte Heide,48.179886,11.604158
54,185998,Alte Heide,48.179653,11.604347
55,283253,Alte Heide,48.17859,11.602694
56,306897,Alte Heide,48.17863,11.602595
57,327204,Alte Heide,48.179737,11.603233
58,39175,Alte Heide,48.179787,11.603503
59,154615,Altenburgstraße,48.14757,11.421773
60,182273,Altenburgstraße,48.147507,11.42198
61,82275,Altenburgstraße,48.147064,11.421513
62,252933,Alter Messeplatz,48.134476,11.546361
63,402676,Alter Messeplatz,48.134636,11.546253
64,113291,Altöttinger Straße,48.126705,11.621981
65,260162,Altöttinger Straße,48.12629,11.621631
66,186113,Am Blütenanger,48.201687,11.506691
67,297256,Am Blütenanger,48.201847,11.506251
68,150900,Am Durchblick,48.16094,11.478179
69,85034,Am Durchblick,48.161057,11.478295
70,196497,Am Hain,48.08317,11.680291
71,243317,Am Hain,48.08333,11.680201
72,333819,Am Harras,48.11746,11.540207
73,344942,Am Harras,48.116924,11.539264
74,431576,Am Harras,48.116177,11.540037
75,53335,Am Harras,48.1172,11.540189
76,11008,Am Hart,48.19719,11.571765
77,145921,Am Hart,48.196915,11.571864
78,162317,Am Hart,48.19595,11.571765
79,212556,Am Hart,48.19676,11.57172
80,348679,Am Hart,48.196915,11.571864
81,364244,Am Hart,48.19676,11.57172
82,389183,Am Hart,48.19595,11.571864
83,72525,Am Hart,48.19704,11.57172
84,199389,Am Hart Süd,48.1951,11.572205
85,201006,Am Hart Süd,48.194973,11.572071
86,269540,Am Hedernfeld,48.11988,11.46907
87,337997,Am Hedernfeld Nord,48.121853,11.472196
88,195150,Am Hochacker,48.10546,11.66828
89,240834,Am Hochacker,48.10591,11.668361
90,25687,Am Hochacker,48.105766,11.667606
91,280417,Am Hochacker,48.105038,11.66731
92,119911,Am Knie,48.14544,11.471019
93,204179,Am Knie,48.14535,11.471046
94,352286,Am Knie,48.145493,11.470723
95,416065,Am Knie,48.145588,11.470363
96,124895,Am Lokschuppen,48.140823,11.524801
97,284431,Am Lokschuppen,48.140644,11.524918
98,352849,Am Lokschuppen,48.140728,11.52287
99,397421,Am Lokschuppen,48.14082,11.52357
100,117261,Am Messesee,48.135822,11.690334
101,217758,Am Messesee,48.13518,11.690181
102,225617,Am Messesee,48.135822,11.690334
103,340006,Am Messesee,48.13518,11.690181
104,431234,Am Messesee,48.135532,11.689669
105,149723,Am Münchner Tor,48.176125,11.58824
106,396028,Am Münchner Tor,48.176155,11.588366
107,127733,Am Neubruch,48.194553,11.492264
108,154224,Am Tucherpark,48.1523,11.598858
109,16785,Am Tucherpark,48.153194,11.599388
110,115290,Am Ährenfeld,48.120182,11.478197
111,156651,Am Ährenfeld,48.119747,11.478673
112,334121,Am Ährenfeld,48.120037,11.478538
113,106198,Amalienburgstraße,48.165787,11.494097
114,158430,Amalienburgstraße,48.16573,11.494061
115,164322,Amalienburgstraße,48.16541,11.494402
116,338263,Amalienburgstraße,48.165356,11.494402
117,50060,Amalienburgstraße,48.165745,11.4931
118,353141,Amalienstraße,48.147747,11.576454
119,140537,Ammerseestraße,48.125824,11.502586
120,364156,Ammerseestraße,48.126205,11.503287
121,4547,Ammerseestraße,48.125835,11.503062
122,90994,Ammerseestraße,48.126087,11.502316
123,140860,Ampfingstraße,48.130398,11.615235
124,240141,Ampfingstraße,48.130394,11.615801
125,358831,Ampfingstraße,48.130817,11.616429
126,458065,Ampfingstraße,48.13108,11.615253
127,385802,Amphionpark,48.173485,11.51474
128,418349,Amphionpark,48.173405,11.515324
129,56238,Amsterdamer Straße,48.16956,11.59937
130,103784,An der Point,48.140865,11.685204
131,257202,An der Point,48.140873,11.685627
132,222608,Andernacher Straße,48.18563,11.524514
133,390945,Andernacher Straße,48.18525,11.524325
134,209401,Andreas-Vöst-Straße,48.121758,11.502766
135,457794,Andreas-Vöst-Straße,48.121696,11.502388
136,304934,Angererstraße,48.167408,11.571891
137,69351,Angererstraße,48.167427,11.569924
138,287225,Angerlohstraße,48.189034,11.472376
139,376639,Angerlohstraße,48.1891,11.472717
140,165486,Anhalter Platz,48.186733,11.561982
141,221934,Anhalter Platz,48.186974,11.561767
142,32407,Anhalter Platz,48.186428,11.56227
143,442530,Anhalter Platz,48.186596,11.562486
144,100321,Anni-Albers-Straße,48.179718,11.589139
145,266093,Anni-Albers-Straße,48.17979,11.589291
146,100758,Anton-Ditt-Bogen,48.191555,11.582159
147,374176,Anton-Ditt-Bogen,48.191547,11.582329
148,153315,Anton-Will-Straße,48.20532,11.585958
149,214405,Anton-Will-Straße,48.205967,11.586506
150,299307,Anton-Will-Straße,48.20532,11.585958
151,384828,Anton-Will-Straße,48.205967,11.586506
152,275662,Anzinger Straße,48.121273,11.605641
153,441239,Anzinger Straße,48.121147,11.605614
154,359013,Appenzeller Straße,48.093044,11.475412
155,115007,Arabellapark,48.153515,11.622062
156,203048,Arabellapark,48.153214,11.620804
157,214932,Arabellapark,48.153316,11.620786
158,269051,Arabellapark,48.15331,11.620184
159,321043,Arabellapark,48.15358,11.622035
160,439755,Arabellapark,48.153217,11.619897
161,5395,Arabellapark,48.153214,11.62049
162,369889,Arabellapark Nord,48.153816,11.620948
163,38687,Arabellapark Nord,48.15355,11.620598
164,207971,Arabellapark/Klinikum Bogenh.,48.15371,11.623742
165,453492,Arabellapark/Klinikum Bogenh.,48.15379,11.623742
166,57709,Arabellapark/Klinikum Bogenh.,48.15361,11.623571
167,95971,Arabellapark/Klinikum Bogenh.,48.15389,11.62296
168,10562,Arabellastraße,48.15359,11.617022
169,156709,Arabellastraße,48.153496,11.618585
170,180352,Arabellastraße,48.15397,11.616887
171,62754,Arabellastraße,48.153584,11.618576
172,155589,Arcisstraße,48.151733,11.57093
173,229054,Arcisstraße,48.151768,11.570516
174,104734,Aschenbrennerstraße,48.219963,11.560716
175,7538,Aschenbrennerstraße,48.220028,11.560662
176,166591,Aschheimer Straße,48.120396,11.612612
177,439321,Aschheimer Straße,48.121494,11.613124
178,343327,Asmarstraße,48.172997,11.407194
179,358247,Asmarstraße,48.171974,11.407113
180,200632,Astallerstraße,48.135483,11.530649
181,453068,Astallerstraße,48.135586,11.530335
182,146446,Aubing,48.153854,11.413751
183,266906,Aubing,48.153793,11.413805
184,120290,Auenbruggerstraße,48.18104,11.449415
185,380302,Auenbruggerstraße,48.181313,11.449594
186,174357,Auerfeldstraße,48.123833,11.596478
187,26877,Auerfeldstraße,48.12351,11.596038
188,158894,August-Everding-Straße,48.1258,11.609755
189,398056,August-Everding-Straße,48.12532,11.61024
190,97049,Augustenfelder Straße,48.20062,11.443998
191,239751,Augustenstraße,48.153206,11.565872
192,458181,Augustenstraße,48.153046,11.565953
193,309579,Augustin-Rösch-Straße,48.201218,11.563608
194,325890,Augustin-Rösch-Straße,48.20154,11.564022
195,379111,Augustin-Rösch-Straße,48.201344,11.563492
196,43409,Augustin-Rösch-Straße,48.20155,11.56439
197,342972,Aurbacherstraße,48.122543,11.590594
198,35665,Aurbacherstraße,48.122345,11.59063
199,10542,Aurikelstraße,48.108036,11.491043
200,392911,Aurikelstraße,48.10834,11.491025
201,369908,Authariplatz,48.09224,11.562692
202,418185,Authariplatz,48.09179,11.562414
203,448166,Autharistraße,48.09038,11.563617
204,67138,Autharistraße,48.09044,11.56412
205,313588,Avenariusplatz,48.142063,11.450286
206,359418,Avenariusplatz,48.142555,11.450807
207,355200,BMW-FIZ,48.193478,11.570777
208,36858,BMW-FIZ,48.19356,11.570525
209,77643,Baaderstraße,48.129917,11.578386
210,85657,Baaderstraße,48.13007,11.57844
211,146743,Bad Forstenried,48.08695,11.499801
212,34405,Bad Forstenried,48.087055,11.499271
213,387245,Bad Maria Einsiedel,48.096764,11.547097
214,274238,Bad-Schachener-Straße,48.11992,11.624676
215,287373,Bad-Schachener-Straße,48.11985,11.624173
216,162391,Bahnstraße,48.115833,11.694834
217,309601,Bahnstraße,48.11516,11.695724
218,157540,Baierbrunner Straße,48.09323,11.530488
219,51530,Baierbrunner Straße,48.093525,11.530371
220,106051,Bajuwarenstraße,48.123264,11.666232
221,245042,Bajuwarenstraße,48.123245,11.666394
222,242095,Balanstraße,48.109074,11.604149
223,397232,Balanstraße,48.10854,11.603314
224,426797,Balanstraße,48.10821,11.603934
225,96090,Balanstraße,48.108536,11.604814
226,129697,Baldeplatz,48.122814,11.56695
227,190866,Baldeplatz,48.12378,11.567022
228,300591,Baldeplatz,48.123238,11.567022
229,72747,Baldeplatz,48.123425,11.567076
230,202152,Barbarastraße,48.16138,11.557599
231,409934,Barbarastraße,48.161472,11.557599
232,121644,Barlachstraße,48.17752,11.575736
233,29733,Barthstraße,48.140274,11.530011
234,7952,Barthstraße,48.14032,11.530443
235,200684,Basler Straße,48.09122,11.49115
236,365913,Basler Straße,48.091244,11.491096
237,358054,Bastian-Schmid-Platz,48.08514,11.513321
238,39634,Bastian-Schmid-Platz,48.085052,11.513168
239,359185,Batschkastraße,48.114147,11.667166
240,372958,Batschkastraße,48.114883,11.667535
241,218110,Baubergerstraße,48.177097,11.506008
242,191257,Baumgartnerstraße,48.125732,11.536165
243,230457,Baumgartnerstraße,48.126682,11.535761
244,402556,Baumgartnerstraße,48.12594,11.535554
245,40023,Baumkirchner Platz,48.13092,11.632051
246,92367,Baumkirchner Platz,48.130962,11.631862
247,142606,Baumkirchner Straße,48.128407,11.629994
248,452228,Baumkirchner Straße,48.12808,11.630937
249,69307,Baumkirchner Straße,48.12833,11.631045
250,98100,Baumkirchner Straße,48.128506,11.629985
251,316870,Bauseweinallee,48.174854,11.47278
252,169209,Bayerischer Rundfunk,48.19011,11.627443
253,353479,Bayerwaldstraße,48.088604,11.628296
254,373386,Bayerwaldstraße,48.088303,11.628134
255,223250,Beethovenplatz,48.133217,11.558075
256,447359,Beethovenplatz,48.1324,11.558398
257,329148,Bellinzonastraße,48.093235,11.481278
258,411902,Bellinzonastraße,48.093582,11.481152
259,360554,Benderstraße,48.172382,11.46456
260,101901,Benedikterstraße,48.14038,11.468845
261,44909,Benedikterstraße,48.140404,11.467866
262,249272,Berduxstraße,48.15159,11.479814
263,260223,Berg am Laim,48.1361,11.634144
264,261339,Berg am Laim,48.13566,11.6333
265,449713,Berg am Laim,48.13584,11.633641
266,180308,Berg am Laim Bf. (Süd),48.132774,11.632545
267,233835,Berg am Laim Bf. (Süd),48.132996,11.633632
268,256694,Berg am Laim Bf. (Süd),48.13312,11.633722
269,301003,Berg am Laim Bf. (Süd),48.133007,11.632437
270,405230,Berger-Kreuz-Straße,48.113194,11.626293
271,437723,Berger-Kreuz-Straße,48.112648,11.626347
272,130463,Bergerwaldstraße,48.111023,11.656647
273,30010,Bergerwaldstraße,48.11117,11.656413
274,245862,Bergmannstraße,48.135,11.537405
275,256392,Bergmannstraße,48.134857,11.537396
276,116735,Bergsonstraße,48.160057,11.41465
277,133,Bergsonstraße,48.15986,11.41518
278,371525,Bergsonstraße,48.1601,11.415395
279,420907,Bergsonstraße,48.159798,11.415054
280,138542,Bergwachtstraße,48.211475,11.530461
281,284457,Bergwachtstraße,48.211224,11.530559
282,177321,Bernheimerstraße,48.173645,11.62844
283,34924,Bernheimerstraße,48.17354,11.628557
284,272992,Bernsteinweg,48.20066,11.611596
285,44596,Bernsteinweg,48.201183,11.611956
286,227607,Bertha-von-Suttner-Weg,48.165024,11.452981
287,298197,Bertha-von-Suttner-Weg,48.16514,11.452954
288,105600,Betschartstraße,48.146442,11.44654
289,185631,Betschartstraße,48.146023,11.446172
290,34883,Betschartstraße,48.146076,11.447663
291,288658,Bichlhofweg,48.169014,11.643352
292,171025,Bildungscampus Freiham,48.14124,11.403583
293,301151,Bildungscampus Freiham,48.14122,11.403412
294,138748,Bingener Straße,48.181892,11.521873
295,306215,Bingener Straße,48.18269,11.521001
296,382620,Bingener Straße,48.182297,11.52137
297,178235,Birkhahnweg,48.10853,11.694448
298,432883,Birkhahnweg,48.108498,11.694259
299,8767,Bismarckstraße,48.162437,11.582195
300,178298,Bleibtreustraße,48.076084,11.514533
301,361425,Bleibtreustraße,48.076218,11.514084
302,221969,Blumenau,48.12779,11.47499
303,369675,Blumenau,48.128258,11.474253
304,408599,Blumenau,48.128098,11.474918
305,110422,Blumenstraße,48.133114,11.573858
306,284587,Blumenstraße,48.13328,11.574002
307,127156,Blutenburg,48.164516,11.456305
308,211543,Blutenburg,48.16563,11.45573
309,278976,Blutenburg,48.165646,11.457248
310,63225,Blutenburg,48.164917,11.457194
311,102575,Bonner Platz,48.166664,11.578143
312,351710,Bonner Platz,48.166744,11.57817
313,413147,Borstei,48.16958,11.53329
314,420366,Borstei,48.169487,11.533281
315,3336,Boschbrücke,48.13111,11.582545
316,445883,Boschbrücke,48.13065,11.582024
317,170468,Botanischer Garten,48.164467,11.502927
318,216373,Botanischer Garten,48.164455,11.502379
319,376860,Botanischer Garten,48.164635,11.5022
320,419422,Botanischer Garten,48.164307,11.502981
321,46354,Bremer Straße,48.189182,11.569888
322,180397,Briefzentrum,48.149025,11.524397
323,69666,Briefzentrum,48.14909,11.524433
324,337211,Brudermühlstraße,48.112595,11.548795
325,35390,Brudermühlstraße,48.112206,11.549217
326,426397,Brudermühlstraße,48.112137,11.548256
327,57614,Brudermühlstraße,48.1126,11.548678
328,16394,Bruno-Walter-Ring,48.162758,11.640684
329,243048,Bundesfinanzhof,48.14843,11.605596
330,379533,Bundesfinanzhof,48.148155,11.605506
331,138287,Bunzlauer Platz,48.179073,11.507122
332,404847,Bunzlauer Platz,48.17927,11.507131
333,340178,Burgauerstraße,48.139797,11.654823
334,85445,Burgauerstraße,48.140003,11.655264
335,237010,Burghausener Straße,48.147213,11.529652
336,258323,Burghausener Straße,48.147285,11.529661
337,160419,Böhmerwaldplatz,48.14354,11.615468
338,225182,Böhmerwaldplatz,48.142693,11.615396
339,351980,Böhmerwaldplatz,48.143085,11.615441
340,404788,Böhmerwaldplatz,48.143486,11.615594
341,109885,Bürgerpark Oberföhring,48.165707,11.623059
342,184368,Bürgerpark Oberföhring,48.166588,11.623634
343,306383,Campingplatz Obermenzing,48.175232,11.446315
344,78013,Campingplatz Obermenzing,48.174934,11.4468
345,280544,Campingplatz Thalkirchen,48.09162,11.544007
346,124077,Candidplatz,48.111744,11.570561
347,127011,Candidplatz,48.111546,11.570328
348,156716,Candidplatz,48.112995,11.571559
349,334884,Candidplatz,48.111767,11.569843
350,397161,Candidplatz,48.11298,11.571648
351,401723,Candidplatz,48.111137,11.570076
352,117396,Caracciolastraße,48.20703,11.563249
353,229821,Caracciolastraße,48.20727,11.562494
354,429723,Caracciolastraße,48.20738,11.563555
355,318579,Carola-Neher-Straße,48.09053,11.532841
356,360708,Carola-Neher-Straße,48.090687,11.53285
357,112699,Chiemgaustraße,48.10644,11.596388
358,116514,Chiemgaustraße,48.10699,11.59602
359,184132,Chiemgaustraße,48.107243,11.596163
360,245792,Chiemgaustraße,48.107315,11.596253
361,249725,Chiemgaustraße,48.10679,11.596702
362,280422,Chiemgaustraße,48.107315,11.596253
363,313470,Chiemgaustraße,48.1063,11.596235
364,408380,Chiemgaustraße,48.10699,11.59602
365,220415,Chinesischer Turm,48.152565,11.593415
366,312782,Chinesischer Turm,48.15293,11.593477
367,174530,Cincinnatistraße,48.092617,11.601508
368,247567,Cincinnatistraße,48.092815,11.60194
369,194964,Clarita-Bernhard-Straße,48.13844,11.409125
370,96099,Clarita-Bernhard-Straße,48.13794,11.409134
371,123164,Claude-Lorrain-Straße,48.12102,11.571828
372,433024,Claude-Lorrain-Straße,48.121117,11.57102
373,124666,Claudiusplatz,48.182056,11.525565
374,290545,Claudiusplatz,48.181965,11.525313
375,277911,Clemensstraße,48.163666,11.574442
376,341418,Clemensstraße,48.16327,11.574685
377,128977,Corinthstraße,48.1127,11.649829
378,321991,Corinthstraße,48.11226,11.649496
379,376739,Corneliusbrücke,48.129494,11.579428
380,401126,Corneliusbrücke,48.129093,11.579068
381,362718,Cosimabad,48.153057,11.629123
382,363584,Cosimabad,48.153496,11.628826
383,438201,Cosimabad,48.153603,11.628566
384,77579,Cosimabad,48.153656,11.628997
385,281032,Curd-Jürgens-Straße,48.084953,11.643046
386,408789,Curd-Jürgens-Straße,48.085674,11.642939
387,245794,Curt-Mezger-Platz,48.181335,11.567004
388,430567,Curt-Mezger-Platz,48.181217,11.566806
389,20853,Dachstraße,48.137924,11.443315
390,25935,Dachstraße,48.13801,11.44318
391,210601,Daglfing Bahnhof Ost,48.14886,11.649972
392,292258,Daglfing Bahnhof Ost,48.14883,11.650413
393,312861,Daglfing Bahnhof West,48.14852,11.648697
394,361863,Daglfing Bahnhof West,48.14846,11.648194
395,197309,Dall'Armistraße,48.161053,11.511353
396,6773,Dall'Armistraße,48.161194,11.511443
397,105750,Dankwartstraße,48.151432,11.523714
398,390381,Dankwartstraße,48.151306,11.523669
399,288492,Daphnestraße,48.148228,11.624847
400,310531,Daphnestraße,48.14786,11.625871
401,347639,Daphnestraße,48.148273,11.62561
402,225300,Deidesheimer Straße,48.16855,11.559422
403,97372,Deidesheimer Straße,48.16869,11.559422
404,20216,Denninger Straße,48.148376,11.622771
405,280450,Denninger Straße,48.14862,11.622125
406,377058,Deroystraße,48.144264,11.545786
407,412738,Deroystraße,48.144306,11.545103
408,98739,Dessauerstraße,48.180733,11.531601
409,13459,Detmoldstraße,48.19241,11.565162
410,34599,Detmoldstraße,48.192253,11.565585
411,289056,Diakon-Kerolt-Weg,48.111454,11.617867
412,295112,Diakon-Kerolt-Weg,48.11208,11.617355
413,12355,Diefenbachstraße,48.08072,11.523427
414,281553,Diefenbachstraße,48.080353,11.523777
415,372688,Dientzenhoferstraße,48.20334,11.577263
416,106510,Dietlindenstraße,48.167168,11.590863
417,263432,Dietlindenstraße,48.167133,11.590935
418,287393,Dietlindenstraße,48.166348,11.590648
419,69154,Dietlindenstraße,48.166344,11.591034
420,393207,Dillinger Straße,48.18193,11.495822
421,440958,Dillinger Straße,48.18229,11.495633
422,449391,Dom-Pedro-Straße,48.159798,11.535877
423,455774,Dom-Pedro-Straße,48.159374,11.537692
424,220454,Domagkstraße,48.184067,11.591232
425,321310,Domagkstraße,48.183792,11.590208
426,360733,Domagkstraße,48.184254,11.590827
427,453187,Domagkstraße,48.183784,11.590333
428,225086,Domagkstraße West,48.184265,11.585159
429,31420,Domagkstraße West,48.184357,11.584198
430,377445,Domagkstraße West,48.18463,11.584809
431,451519,Domagkstraße West,48.18402,11.584503
432,156365,Donauwörther Straße,48.184086,11.495965
433,36566,Donauwörther Straße,48.184097,11.497034
434,313105,Donnersbergerbrücke,48.14267,11.534422
435,56356,Donnersbergerbrücke,48.142532,11.534898
436,233377,Donnersbergerstraße,48.14616,11.536605
437,277327,Donnersbergerstraße,48.14673,11.536614
438,318979,Donnersbergerstraße,48.14637,11.535159
439,452576,Donnersbergerstraße,48.14607,11.535329
440,291537,Dorfstraße,48.16493,11.466977
441,365689,Dorfstraße,48.164684,11.468109
442,415693,Dorfstraße,48.1641,11.467228
443,450519,Dorfstraße,48.16485,11.466096
444,31873,Drachenseestraße,48.116947,11.531296
445,355585,Drachenseestraße,48.116745,11.532572
446,312340,Drosselweg,48.117332,11.690963
447,74339,Drosselweg,48.117504,11.691106
448,66013,Drozzaweg,48.120926,11.475852
449,105140,Drygalski-Allee,48.098698,11.508937
450,333007,Drygalski-Allee,48.098576,11.507715
451,368395,Drygalski-Allee,48.097843,11.509081
452,74608,Drygalski-Allee,48.09739,11.507607
453,103466,Dülferstraße,48.212223,11.562881
454,201330,Dülferstraße,48.212215,11.562333
455,336526,Dülferstraße,48.21262,11.562827
456,61489,Dülferstraße,48.21235,11.563258
457,74587,Dülferstraße,48.21242,11.563303
458,87238,Dülferstraße,48.213036,11.562153
459,314645,Eberlestraße,48.07836,11.507922
460,433164,Eberlestraße,48.07843,11.508137
461,45478,Edeltraudstraße,48.114628,11.687001
462,60060,Edeltraudstraße,48.114628,11.686866
463,194279,Eduard-Schmid-Straße,48.12613,11.578476
464,446653,Eduard-Schmid-Straße,48.126358,11.578386
465,130115,Effnerplatz,48.152027,11.613204
466,13766,Effnerplatz,48.1522,11.612809
467,230809,Effnerplatz,48.15208,11.614749
468,261553,Effnerplatz,48.152115,11.612944
469,31899,Effnerplatz,48.152718,11.614705
470,373473,Effnerplatz,48.151997,11.61342
471,49819,Effnerplatz,48.15184,11.613097
472,219905,Effnerstraße,48.163208,11.624011
473,320836,Ehrenbreitsteiner Straße,48.18723,11.52923
474,322427,Ehrenbreitsteiner Straße,48.187397,11.527846
475,141704,Ehrenbürgstraße,48.141567,11.41491
476,392209,Ehrenmal,48.09951,11.478942
477,419517,Ehrenmal,48.09923,11.478924
478,328724,Eichelhäherstraße,48.173992,11.390638
479,154766,Eininger Straße,48.185894,11.504068
480,185361,Eininger Straße,48.186096,11.504158
481,258667,Eininger Straße,48.186096,11.504158
482,290511,Eininger Straße,48.185894,11.504068
483,201360,Einsteinstraße,48.137226,11.614929
484,261683,Einsteinstraße,48.136856,11.614004
485,423198,Einsteinstraße,48.13646,11.614767
486,74161,Einsteinstraße,48.136806,11.61439
487,102105,Elektrastraße,48.151398,11.626257
488,53787,Elektrastraße,48.150906,11.626499
489,4220,Elisabeth-Jost-Straße,48.155796,11.420525
490,59507,Elisabeth-Jost-Straße,48.15588,11.420444
491,104004,Elisabethplatz,48.157875,11.574855
492,188687,Elisabethplatz,48.15745,11.57508
493,190584,Elisenstraße,48.142376,11.561794
494,404208,Ellis-Kaut-Straße,48.145523,11.410356
495,431169,Ellis-Kaut-Straße,48.14552,11.410535
496,273376,Elsenheimerstraße,48.136154,11.523759
497,85956,Elsenheimerstraße,48.136047,11.524217
498,304287,Emdenstraße,48.10706,11.627838
499,103233,Emmerigweg,48.194763,11.623814
500,222748,Emmerigweg,48.195583,11.624299
501,234054,Emmerigweg,48.19541,11.623715
502,387189,Emmerigweg,48.19565,11.62411
503,106092,Engelbertstraße,48.143803,11.45794
504,22665,Engelbertstraße,48.143887,11.458155
505,340222,Engelbertstraße,48.143803,11.45794
506,345444,Engelbertstraße,48.143696,11.458029
507,133663,Englburgstraße,48.15672,11.435248
508,227036,Englburgstraße,48.15672,11.435095
509,204972,Englschalkinger Straße,48.15643,11.641654
510,375075,Englschalkinger Straße,48.156727,11.641169
511,404644,Englschalkinger Straße,48.157097,11.642022
512,74922,Englschalkinger Straße,48.15572,11.641699
513,429783,Erlbachstraße,48.17464,11.394743
514,357358,Erna-Eckstein-Straße,48.1502,11.476355
515,241891,Eschenrieder Straße,48.17979,11.407832
516,452735,Eschenrieder Straße,48.179737,11.407912
517,360856,Esmarchstraße,48.184425,11.460284
518,51666,Esmarchstraße,48.185055,11.460042
519,288124,Ettalstraße,48.11336,11.514156
520,90908,Ettalstraße,48.113213,11.513446
521,72879,Eulenspiegelstraße,48.088047,11.669241
522,88701,Eulenspiegelstraße,48.087963,11.669151
523,117645,Euro-Industriepark Nord,48.201077,11.602326
524,14154,Euro-Industriepark Nord,48.20071,11.603044
525,371611,Euro-Industriepark West,48.192764,11.583847
526,69643,Euro-Industriepark West,48.192524,11.584171
527,387008,Eversbuschstraße,48.191315,11.459619
528,4265,Eversbuschstraße,48.190865,11.4597
529,216922,Fachnerstraße,48.12984,11.516896
530,264333,Fachnerstraße,48.12985,11.517058
531,317026,Fasanenstraße,48.167225,11.487252
532,321063,Fasanenstraße,48.167072,11.487629
533,249925,Fasanerie,48.196392,11.524469
534,350605,Fasanerie,48.197517,11.523903
535,173989,Fasaneriestraße,48.1572,11.543298
536,245631,Fasaneriestraße,48.15752,11.543765
537,147998,Fasangarten,48.09316,11.603853
538,188325,Fasangartenstraße,48.08986,11.611255
539,454844,Fasangartenstraße,48.089787,11.611093
540,128719,Federseestraße,48.17541,11.398013
541,369541,Federseestraße,48.175285,11.396037
542,147252,Feldbergstraße,48.107944,11.663393
543,151643,Feldbergstraße,48.10848,11.664004
544,154966,Feldbergstraße,48.108536,11.663456
545,182479,Feldbergstraße,48.108856,11.663133
546,294065,Feldbergstraße,48.10869,11.664049
547,50406,Feldbergstraße,48.107742,11.66342
548,239923,Feldmoching,48.21361,11.540773
549,246589,Feldmoching,48.213882,11.540827
550,287694,Feldmoching,48.213844,11.54063
551,345238,Feldmoching,48.21379,11.540827
552,419756,Feldmoching,48.21354,11.540495
553,60693,Feldmoching,48.21393,11.539022
554,135139,Feldmoching Bf. Ost,48.213573,11.543145
555,278313,Feldmoching Bf. Ost,48.21406,11.543289
556,351000,Feldmochinger Anger,48.209152,11.543872
557,386914,Feldmochinger Anger,48.209045,11.543819
558,144558,Feldmochinger See,48.218166,11.51748
559,228450,Feldmochinger See,48.218384,11.518297
560,203311,Ferchenbachstraße,48.20301,11.493917
561,204269,Ferchenbachstraße,48.20301,11.493917
562,205286,Ferchenbachstraße,48.20241,11.494196
563,293678,Ferchenbachstraße,48.20241,11.494196
564,116722,Fernpaßstraße,48.115185,11.522879
565,418214,Fernpaßstraße,48.114826,11.522771
566,216814,Fertigstraße,48.088806,11.509179
567,225511,Fertigstraße,48.088905,11.509162
568,249867,Finsterwalderstraße,48.176083,11.47446
569,367226,Finsterwalderstraße,48.175556,11.475052
570,344935,Fischer-v.-Erlach-Straße,48.137108,11.480263
571,86996,Fischer-v.-Erlach-Straße,48.13763,11.479984
572,358880,Flemischweg,48.128067,11.470318
573,106925,Florastraße,48.11752,11.682482
574,191617,Florastraße,48.117104,11.682689
575,454159,Florastraße,48.11741,11.682482
576,288604,Floriansmühlstraße,48.1918,11.621433
577,390898,Floriansmühlstraße,48.191483,11.621532
578,455436,Floriansmühlstraße,48.19131,11.62005
579,122925,Floßlände,48.09469,11.545732
580,289004,Floßlände,48.094753,11.545346
581,157860,Flurstraße,48.135647,11.604895
582,188021,Flurstraße,48.135494,11.604608
583,283736,Flurstraße,48.135757,11.604913
584,83013,Flurstraße,48.135597,11.604913
585,287607,Flößergasse,48.10367,11.538321
586,429842,Flößergasse,48.103394,11.537935
587,404030,Fockensteinstraße,48.10982,11.589049
588,416418,Fockensteinstraße,48.109703,11.589282
589,376773,Forst-Kasten-Allee,48.09476,11.476427
590,183770,Forstenried,48.084846,11.494708
591,332945,Forstenried,48.08475,11.494878
592,121478,Forstenrieder Allee,48.09513,11.49937
593,407968,Forstenrieder Allee,48.094677,11.498678
594,434186,Forstenrieder Allee,48.094563,11.498418
595,44795,Forstenrieder Allee,48.095047,11.49937
596,79031,Forstenrieder Allee,48.094658,11.498193
597,448997,Forstenrieder Park,48.0775,11.488446
598,242705,Frankfurter Ring,48.187424,11.57314
599,264741,Frankfurter Ring,48.187126,11.572583
600,370416,Frankfurter Ring,48.186825,11.572663
601,422749,Frankfurter Ring,48.186836,11.572753
602,57790,Frankfurter Ring,48.187645,11.572115
603,89376,Frankfurter Ring,48.187855,11.572762
604,251628,Franz-Nißl-Straße,48.196136,11.461461
605,268081,Franz-Nißl-Straße,48.196064,11.461398
606,24952,Franz-Sperr-Weg,48.20383,11.538743
607,54471,Franz-Sperr-Weg,48.20397,11.538815
608,406538,Frasdorfer Straße,48.10111,11.59116
609,42930,Frasdorfer Straße,48.101276,11.5908
610,126329,Frauendorferstraße,48.163483,11.476265
611,170062,Frauendorferstraße,48.163765,11.476867
612,101497,Frauenmantelanger,48.209267,11.568019
613,312139,Frauenmantelanger,48.2095,11.568495
614,101520,Fraunhoferstraße,48.12853,11.575188
615,109282,Fraunhoferstraße,48.128143,11.575915
616,19773,Fraunhoferstraße,48.127995,11.57667
617,28732,Fraunhoferstraße,48.129288,11.574361
618,389982,Fraunhoferstraße,48.12923,11.574253
619,400216,Fraunhoferstraße,48.12812,11.576535
620,283729,Freiham,48.140842,11.40908
621,347546,Freiham Bf. (Süd),48.13869,11.411209
622,39097,"Freiham, Möbel Höffner",48.134235,11.412907
623,84622,"Freiham, Möbel Höffner",48.134235,11.412907
624,335948,Freiligrathstraße,48.17837,11.585024
625,68305,Freiligrathstraße,48.17796,11.585536
626,103009,Freimann,48.19198,11.614237
627,325153,Freimann,48.191944,11.614345
628,115722,Freischützstraße,48.15881,11.641663
629,252360,Freischützstraße,48.159084,11.642534
630,352460,Freischützstraße,48.15838,11.641843
631,310214,Friedastraße,48.081295,11.528924
632,98561,Friedastraße,48.081226,11.529113
633,197707,Friedenheimer Straße,48.135254,11.510886
634,421717,Friedenheimer Straße,48.135002,11.511048
635,100600,Friedensengel/Villa Stuck,48.140938,11.600143
636,258973,Friedensengel/Villa Stuck,48.140656,11.600736
637,49031,Friedensengel/Villa Stuck,48.14047,11.600053
638,68783,Friedensengel/Villa Stuck,48.140537,11.600664
639,150265,Friedenspromenade,48.118683,11.682923
640,248193,Friedenspromenade,48.11804,11.682914
641,54322,Friedenspromenade,48.118267,11.68401
642,18419,Friedhof Obermenzing,48.16439,11.448094
643,300350,Friedhof Obermenzing,48.164467,11.448112
644,235937,Friedhof Perlach,48.09801,11.640684
645,286438,Friedhof Perlach,48.097977,11.640262
646,345971,Friedhof Riem,48.132397,11.67968
647,365318,Friedhof Riem,48.132755,11.679797
648,158090,Friedhof Untermenzing,48.177814,11.461793
649,16829,Friedhof Untermenzing,48.177902,11.461623
650,116659,Friedrich-Eckart-Straße,48.141155,11.636911
651,279729,Friedrich-Eckart-Straße,48.140297,11.636902
652,282043,Friedrich-Eckart-Straße,48.141365,11.637522
653,305417,Friedrich-Eckart-Straße,48.14035,11.635411
654,448049,Friedrich-Eckart-Straße,48.140244,11.635662
655,77688,Friedrich-Eckart-Straße,48.140392,11.637701
656,10858,Friedrich-Engels-Bogen,48.106243,11.658866
657,327420,Friedrich-Engels-Bogen,48.106445,11.659189
658,283954,Friedrich-Hebbel-Straße,48.11272,11.526553
659,293981,Friedrich-Hebbel-Straße,48.11222,11.526023
660,61853,Friedrichstraße,48.159973,11.580551
661,188853,Friesplatz,48.10071,11.672691
662,41606,Friesplatz,48.09971,11.67243
663,201937,Fritz-Meyer-Weg,48.17286,11.636848
664,300455,Fritz-Meyer-Weg,48.172943,11.636534
665,371133,Fritz-Meyer-Weg,48.172497,11.636713
666,57914,Fritz-Meyer-Weg,48.1725,11.636579
667,205146,Fröttmaning,48.21177,11.616834
668,300681,Fröttmaning,48.211845,11.616519
669,322472,Fröttmaning,48.211792,11.616753
670,50048,Fröttmaning,48.211823,11.616618
671,281688,Fröttmaning Auensiedlung,48.214767,11.635779
672,79086,Fröttmaning Auensiedlung,48.214794,11.635528
673,139000,Fuggerstraße,48.124073,11.534539
674,365145,Fuggerstraße,48.123814,11.534701
675,104417,Fürstenried West,48.088795,11.480083
676,130335,Fürstenried West,48.088722,11.480344
677,201890,Fürstenried West,48.08854,11.480856
678,32037,Fürstenried West,48.08831,11.480927
679,391191,Fürstenried West,48.088364,11.480963
680,428786,Fürstenried West,48.088417,11.481071
681,43212,Fürstenried West,48.088585,11.480254
682,99386,Fürstenried West,48.088646,11.480595
683,158070,Fürstenrieder Straße,48.140003,11.502963
684,249081,Fürstenrieder Straße,48.13967,11.503601
685,288574,Fürstenrieder Straße,48.13935,11.503349
686,8033,Fürstenrieder Straße,48.139744,11.503547
687,73764,Gaiglstraße,48.152428,11.55034
688,80408,Gaiglstraße,48.152397,11.550484
689,108959,Galileiplatz,48.144108,11.606728
690,232493,Galileiplatz,48.14436,11.606557
691,204095,Ganghoferbrücke,48.127956,11.539165
692,420957,Ganghoferbrücke,48.127914,11.539039
693,173050,Garmischer Straße,48.130177,11.529077
694,53703,Garmischer Straße,48.13006,11.527622
695,191204,Gartenstraße,48.172325,11.564929
696,277584,Gartenstraße,48.172005,11.56492
697,180429,Gautinger Straße,48.0849,11.478745
698,428688,Gautinger Straße,48.084877,11.478466
699,256776,Geisenhausenerstraße,48.098866,11.517992
700,437350,Geisenhausenerstraße,48.098743,11.519393
701,217051,Gelbhofstraße,48.122314,11.475448
702,160678,Gellertstraße,48.162777,11.615235
703,224272,Gellertstraße,48.16241,11.615235
704,236844,Georg-Birk-Straße,48.16397,11.556925
705,13347,Georg-Brauchle-Haus,48.11027,11.637369
706,295236,Georg-Brauchle-Haus,48.11016,11.638196
707,13034,Georg-Brauchle-Ring,48.17688,11.529329
708,13723,Georg-Brauchle-Ring,48.177193,11.529014
709,212956,Georg-Brauchle-Ring,48.17608,11.528933
710,219396,Georg-Brauchle-Ring,48.17624,11.529553
711,245939,Georg-Brauchle-Ring,48.177612,11.529697
712,264674,Georg-Brauchle-Ring,48.176613,11.530002
713,266430,Georg-Brauchle-Ring,48.177193,11.529122
714,313316,Georg-Brauchle-Ring,48.176636,11.528278
715,74805,Georg-Hirth-Platz,48.134678,11.55609
716,362495,Georg-Reismüller-Straße,48.194225,11.464255
717,439392,Georg-Reismüller-Straße,48.194393,11.463913
718,294651,Georg-Zech-Allee,48.208584,11.53276
719,3971,Georg-Zech-Allee,48.208607,11.533102
720,163186,Georgenstraße,48.15501,11.583192
721,438199,Georgenstraße,48.15533,11.583704
722,315595,Geretsrieder Straße,48.100075,11.533533
723,434743,Geretsrieder Straße,48.099895,11.532796
724,444767,Gerhardstraße,48.112774,11.565971
725,92585,Gerhardstraße,48.113117,11.566088
726,238600,Gerlachweg,48.180134,11.446297
727,254524,Gerlachweg,48.18008,11.445992
728,230175,Germeringer Weg,48.15827,11.413401
729,323785,Gern,48.162796,11.529203
730,342820,Gern,48.16279,11.529095
731,284917,Gertrud-Grunow-Straße,48.18292,11.596568
732,94386,Gertrud-Grunow-Straße,48.18302,11.596756
733,152098,Giesing,48.11047,11.594744
734,157222,Giesing,48.110596,11.595427
735,17608,Giesing,48.11097,11.595741
736,230060,Giesing,48.111046,11.595705
737,250004,Giesing,48.110573,11.59557
738,272806,Giesing,48.11148,11.594286
739,280940,Giesing,48.110825,11.595319
740,290176,Giesing,48.110596,11.595427
741,303232,Giesing,48.1108,11.593989
742,321472,Giesing,48.110664,11.595678
743,346979,Giesing,48.110825,11.595319
744,40910,Giesing,48.11049,11.594861
745,5327,Giesing,48.110916,11.595436
746,133395,Gilchinger Straße,48.16407,11.413311
747,428100,Gilchinger Straße,48.164318,11.413356
748,100182,Gilgstraße,48.081852,11.508775
749,103306,Gilgstraße,48.08188,11.508946
750,119718,Giselastraße,48.156513,11.584045
751,129103,Giselastraße,48.157234,11.5848
752,185562,Giselastraße,48.157078,11.585087
753,406625,Giselastraße,48.156532,11.583946
754,302019,Glötzleweg,48.086395,11.509817
755,376178,Glötzleweg,48.08605,11.510392
756,383357,Gmunder Straße,48.09554,11.527649
757,455523,Gmunder Straße,48.0958,11.527559
758,203932,Gnadenwaldplatz,48.11804,11.653736
759,308786,Gnadenwaldplatz,48.118004,11.65423
760,122170,Goetheplatz,48.130093,11.55838
761,176691,Goetheplatz,48.13007,11.558569
762,216961,Goetheplatz,48.129997,11.559108
763,230649,Goetheplatz,48.129215,11.557608
764,36754,Goetheplatz,48.12962,11.55891
765,409692,Goetheplatz,48.129158,11.55768
766,328366,Goldlackplatz,48.20013,11.550502
767,45519,Goldlackplatz,48.20027,11.549936
768,438942,Gollierplatz,48.1363,11.534422
769,49372,Gollierplatz,48.136333,11.534225
770,443843,Gondrellplatz,48.124428,11.490135
771,51478,Goteboldstraße,48.176525,11.443531
772,88324,Goteboldstraße,48.177055,11.443324
773,102248,Gotzinger Platz,48.117626,11.550358
774,198915,Graf-Lehndorff-Straße,48.140453,11.679859
775,342963,Graf-Lehndorff-Straße,48.14036,11.679976
776,383400,Graf-Lehndorff-Straße,48.14057,11.6803
777,128911,Grafinger Straße,48.124725,11.619385
778,214049,Grafinger Straße,48.124596,11.61925
779,245562,Grashofstraße,48.21702,11.528799
780,93661,Grashofstraße,48.21763,11.528871
781,137538,Griechenstraße,48.09312,11.569986
782,301808,Griechenstraße,48.09318,11.569654
783,126242,Griegstraße,48.181534,11.584746
784,43641,Griegstraße,48.182034,11.58506
785,157936,Grillparzerstraße,48.13646,11.610186
786,194665,Grillparzerstraße,48.13623,11.608632
787,214757,Grillparzerstraße,48.135796,11.609405
788,72315,Grillparzerstraße,48.135292,11.609863
789,177028,Grimmeisenstraße,48.16527,11.644807
790,451404,Grimmeisenstraße,48.165146,11.644601
791,137477,Großhadern,48.11524,11.477038
792,175117,Großhadern,48.11536,11.47631
793,178031,Großhadern,48.116013,11.477559
794,211578,Großhadern,48.11524,11.477038
795,259043,Großhadern,48.11536,11.47631
796,266171,Großhadern,48.115604,11.476741
797,397251,Großhadern,48.1147,11.476975
798,78030,Großhadern,48.11469,11.477083
799,8819,Großhadern,48.115604,11.476741
800,168094,Großhaderner Straße,48.119408,11.481475
801,295631,Großhaderner Straße,48.119522,11.481332
802,150562,Großlappen,48.20418,11.62932
803,192181,Großlappen,48.204346,11.629671
804,252035,Großmarkthalle,48.119785,11.55229
805,254329,Großmarkthalle,48.1197,11.55237
806,132109,Gruithuisenstraße,48.183475,11.484143
807,221816,Gruithuisenstraße,48.18335,11.483811
808,259962,Grusonstraße,48.201748,11.592687
809,313688,Grusonstraße,48.20168,11.593837
810,422267,Grusonstraße,48.2022,11.593603
811,196172,Gräfelfinger Straße,48.117092,11.495345
812,395497,Gräfelfinger Straße,48.11727,11.495283
813,146853,Gröbenzeller Straße,48.183247,11.507527
814,164479,Gröbenzeller Straße,48.182854,11.507805
815,227,Gröbenzeller Straße,48.183704,11.506997
816,289595,Gröbenzeller Straße,48.183704,11.506997
817,374765,Gröbenzeller Straße,48.183247,11.507527
818,407857,Gröbenzeller Straße,48.18259,11.507284
819,147319,Grünstraße,48.109962,11.526265
820,405666,Grünstraße,48.109943,11.526185
821,179767,Grüntal,48.168613,11.621505
822,34419,Grüntal,48.16874,11.621451
823,186566,Guido-Schneble-Straße,48.131447,11.498346
824,201585,Guido-Schneble-Straße,48.1315,11.498184
825,289376,Gulbranssonstraße,48.082333,11.503933
826,88239,Gulbranssonstraße,48.082592,11.503556
827,292844,Gundelkoferstraße,48.19592,11.582985
828,32043,Gundelkoferstraße,48.196095,11.58462
829,320620,Gundelkoferstraße,48.196095,11.58462
830,39048,Gundelkoferstraße,48.19557,11.58409
831,99718,Gundelkoferstraße,48.19592,11.582985
832,229683,Gundermannstraße,48.204117,11.552514
833,410365,Gundermannstraße,48.20423,11.552649
834,301613,Gustav-Freytag-Straße,48.158707,11.611848
835,397914,Gustav-Freytag-Straße,48.15902,11.611929
836,15487,Gustav-Mahler-Straße,48.20214,11.603368
837,256604,Gustav-Mahler-Straße,48.202267,11.602856
838,246095,Gärtnerplatztheater,48.132168,11.575466
839,381803,Gärtnerplatztheater,48.132298,11.57508
840,3775,Gärtnerstraße,48.177563,11.536416
841,424060,Gärtnerstraße,48.177826,11.536686
842,129306,Görresstraße,48.156048,11.562162
843,178986,Görresstraße,48.15594,11.562207
844,195348,Görzer Straße,48.095547,11.609261
845,300671,Görzer Straße,48.09554,11.609548
846,86621,Görzer Straße Schule,48.104557,11.609252
847,42600,Hackerbrücke,48.143707,11.548265
848,91950,Hackerbrücke,48.1436,11.548418
849,158735,Haderner Stern,48.118362,11.490333
850,250852,Haderner Stern,48.118423,11.488842
851,295497,Haderner Stern,48.11837,11.488833
852,301652,Haderner Stern,48.118484,11.49036
853,332747,Haderunstraße,48.12205,11.478718
854,35014,Haderunstraße,48.122246,11.479481
855,392112,Haderunstraße,48.121796,11.479005
856,194810,Haidenauplatz,48.132736,11.610141
857,226657,Haidenauplatz,48.132057,11.609521
858,338476,Haidenauplatz,48.132126,11.609782
859,458289,Halfinger Straße,48.126003,11.655614
860,70308,Halfinger Straße,48.126118,11.655371
861,127692,Halligenplatz,48.119156,11.66051
862,429866,Halligenplatz,48.119305,11.660582
863,218494,Hanauer Straße,48.171616,11.528511
864,227774,Hanauer Straße,48.17188,11.528646
865,373715,Hanauer Straße,48.17276,11.527981
866,64786,Hanauer Straße,48.17269,11.527891
867,245158,Hanebergstraße,48.162617,11.537423
868,28826,Hanna-Kirchner-Weg,48.11769,11.469115
869,168973,Hans-Fischer-Straße,48.12746,11.544555
870,295814,Hans-Fischer-Straße,48.12742,11.544932
871,257785,Hans-Steinkohl-Straße,48.134624,11.411039
872,275002,Hans-Steinkohl-Straße,48.135147,11.411048
873,117452,Hans-Thonauer-Straße,48.135063,11.516878
874,128320,Hans-Thonauer-Straße,48.13478,11.517902
875,210053,Hans-Thonauer-Straße,48.134884,11.51668
876,78875,Hans-Thonauer-Straße,48.134884,11.51677
877,102478,Hansapark,48.128277,11.534314
878,395302,Hansapark,48.128384,11.534656
879,235013,Hansastraße,48.13113,11.531116
880,287791,Hansastraße,48.130814,11.531134
881,143559,Harras,48.11686,11.537908
882,181104,Harras,48.117,11.536533
883,244717,Harras,48.116776,11.535931
884,260040,Harras,48.11701,11.535806
885,301381,Harras,48.11678,11.536821
886,434943,Harras,48.116932,11.537908
887,94726,Harthaus (S) Nord,48.134296,11.388958
888,123541,Harthof,48.204247,11.569447
889,178316,Harthof,48.204967,11.569052
890,193896,Harthof,48.204247,11.569367
891,198077,Harthof,48.20511,11.568082
892,200970,Harthof,48.204903,11.569699
893,311595,Harthof,48.205387,11.568172
894,133157,Hasenbergl,48.213432,11.555038
895,146201,Hasenbergl,48.21337,11.555811
896,296820,Hasenbergl,48.21288,11.556152
897,310688,Hasenbergl,48.21337,11.555021
898,318181,Hasenbergl,48.213276,11.555793
899,51737,Hasenbergl,48.21358,11.556539
900,165946,Hasenbergl Süd,48.20827,11.551373
901,19624,Hasenbergl Süd,48.208057,11.552604
902,333011,Hasenbergl Süd,48.208447,11.551787
903,85257,Hasenbergl Süd,48.20787,11.552254
904,121609,Hasenberglstraße,48.207123,11.560249
905,212498,Hatzelweg,48.086613,11.496414
906,30941,Hatzelweg,48.087,11.495813
907,443152,Hatzelweg,48.08721,11.496046
908,70741,Hatzelweg,48.08633,11.496055
909,169252,"Hauptbahnhof (S, U, Bus, Tram)",48.13926,11.559979
910,180565,"Hauptbahnhof (S, U, Bus, Tram)",48.13935,11.55997
911,206844,"Hauptbahnhof (S, U, Bus, Tram)",48.139774,11.560958
912,309471,"Hauptbahnhof (S, U, Bus, Tram)",48.140205,11.561201
913,390560,"Hauptbahnhof (S, U, Bus, Tram)",48.140045,11.560887
914,395212,"Hauptbahnhof (S, U, Bus, Tram)",48.140034,11.561012
915,46649,"Hauptbahnhof (S, U, Bus, Tram)",48.140026,11.561201
916,91244,"Hauptbahnhof (S, U, Bus, Tram)",48.140026,11.56112
917,119438,Hauptbahnhof Nord,48.14138,11.561066
918,121593,Hauptbahnhof Nord,48.141376,11.559216
919,407467,Hauptbahnhof Nord,48.142162,11.560437
920,69663,Hauptbahnhof Nord,48.141396,11.559853
921,80624,Hauptbahnhof Nord,48.141327,11.560716
922,89084,Hauptbahnhof Nord,48.141293,11.559988
923,14783,Hauptbahnhof Süd,48.139236,11.559557
924,273210,Hauptbahnhof Süd,48.139427,11.559575
925,376303,Hauptbahnhof Süd,48.13941,11.560204
926,453586,Hauptbahnhof Süd,48.139294,11.559126
927,352488,Hauseggerstraße,48.191902,11.451256
928,384597,Hauseggerstraße,48.191986,11.451885
929,103594,Hauzenberger Straße,48.137714,11.521918
930,125544,Hauzenberger Straße,48.137264,11.522214
931,388449,Haylerstraße,48.188374,11.503412
932,404340,Haylerstraße,48.188374,11.503412
933,418393,Haylerstraße,48.188328,11.503278
934,441053,Haylerstraße,48.188328,11.503278
935,24018,Hechtseestraße,48.115635,11.621289
936,64959,Hechtseestraße,48.11576,11.621146
937,4060,Heckenstallerstraße,48.111324,11.539381
938,443550,Heckenstallerstraße,48.11116,11.539866
939,221933,Heckscherstraße,48.17249,11.582455
940,56513,Heckscherstraße,48.172356,11.582311
941,221911,Heerstraße,48.170902,11.481682
942,392592,Heerstraße,48.17077,11.482095
943,399265,Heerstraße West,48.169445,11.474531
944,192706,Heideckstraße,48.162598,11.542615
945,75354,Heideckstraße,48.163193,11.541815
946,125156,Heidemannstraße,48.20176,11.585671
947,171714,Heidemannstraße,48.200603,11.58506
948,23103,Heidemannstraße,48.20176,11.585671
949,252100,Heidemannstraße,48.200603,11.58506
950,416815,Heidemannstraße,48.20095,11.586021
951,273311,Heimburgstraße,48.148838,11.445669
952,61815,Heimburgstraße,48.148815,11.445812
953,192524,Heimeranplatz,48.13349,11.53241
954,241228,Heimeranplatz,48.1339,11.532796
955,313546,Heimeranplatz,48.133167,11.532895
956,402654,Heimeranplatz,48.133743,11.533605
957,4096,Heimeranplatz,48.133583,11.53241
958,138941,Heimeranplatz Süd,48.13223,11.529383
959,325075,Heimeranplatz Süd,48.132046,11.529517
960,245612,Heinrich-Wieland-Straße,48.117226,11.640181
961,280936,Heinrich-Wieland-Straße,48.117237,11.63957
962,106226,Helene-Wessel-Bogen,48.196293,11.592525
963,155165,Hellensteinstraße,48.15311,11.435589
964,385034,Hellensteinstraße,48.15312,11.43576
965,189314,Helmut-Schmidt-Allee,48.142647,11.408011
966,207902,Helmut-Schmidt-Allee,48.142605,11.407823
967,317126,Helmut-Schmidt-Allee,48.14246,11.407823
968,129596,Helsinkistraße,48.129433,11.689408
969,418662,Helsinkistraße,48.129524,11.689408
970,203889,Heltauer Straße,48.130512,11.65803
971,389986,Heltauer Straße,48.130188,11.658048
972,189698,Herkomerplatz,48.15086,11.609045
973,250114,Herkomerplatz,48.150494,11.60883
974,252417,Herkomerplatz,48.15077,11.609045
975,291076,Herkomerplatz,48.1509,11.608587
976,343402,Herkomerplatz,48.150738,11.609674
977,185765,Hermann-Gmeiner-Weg,48.146507,11.640459
978,334490,Hermann-Gmeiner-Weg,48.14641,11.6393
979,377610,Hermann-Gmeiner-Weg,48.146385,11.640594
980,52903,Hermann-Gmeiner-Weg,48.146004,11.63983
981,332160,Hermann-Lingg-Straße,48.138977,11.551382
982,9506,Hermann-Lingg-Straße,48.13913,11.551975
983,134108,Hermann-Pünder-Straße,48.088257,11.635671
984,371966,Hermann-Pünder-Straße,48.08882,11.636093
985,355047,Herthastraße,48.149216,11.503278
986,442326,Herthastraße,48.14964,11.503583
987,130850,Herzog-Ernst-Platz,48.125256,11.541213
988,20407,Herzog-Ernst-Platz,48.125393,11.540135
989,226756,Herzog-Ernst-Platz,48.125717,11.540647
990,369551,Herzog-Ernst-Platz,48.125492,11.541043
991,383441,Herzog-Ernst-Platz,48.125008,11.540773
992,435723,Herzog-Ernst-Platz,48.12598,11.540297
993,190303,Herzogpark,48.15593,11.607123
994,355832,Herzogpark,48.15614,11.607284
995,289518,Herzogstraße,48.163197,11.564049
996,422070,Herzogstraße,48.16372,11.564318
997,111930,Himalajastraße,48.111797,11.665989
998,129063,Himalajastraße,48.113277,11.666007
999,229657,Himalajastraße,48.113277,11.665765
1000,234521,Himalajastraße,48.112137,11.666304
1001,137868,Himmelschlüsselstraße,48.19533,11.534952
1002,43629,Himmelschlüsselstraße,48.19552,11.534781
1003,203210,Hinterbrühl,48.087036,11.541177
1004,208998,Hinterbrühl,48.08718,11.541168
1005,128610,Hinterbärenbadstraße,48.120678,11.518531
1006,322357,Hinterbärenbadstraße,48.12028,11.517785
1007,28325,Hippelstraße,48.102234,11.665298
1008,335315,Hippelstraße,48.102135,11.665441
1009,175994,Hirschauer Straße,48.150978,11.595561
1010,233050,Hirschauer Straße,48.15102,11.594969
1011,438881,Hirschgarten,48.143616,11.519645
1012,5892,Hirschgarten,48.143383,11.519295
1013,266827,Hirschgartenallee,48.15298,11.50847
1014,344387,Hirschgartenallee,48.152847,11.507733
1015,13586,Hochschule München,48.15547,11.55326
1016,128109,Hochschule München (Lothstr.),48.154095,11.55414
1017,390507,Hochschule München (Lothstr.),48.154476,11.553484
1018,395535,Hochschule München (Lothstr.),48.154686,11.554446
1019,444443,Hochschule München (Lothstr.),48.154556,11.554499
1020,212920,Hochäckerstraße,48.10049,11.606449
1021,31165,Hochäckerstraße,48.10107,11.607123
1022,42202,Hochäckerstraße,48.101406,11.60644
1023,414865,Hofangerstraße,48.110867,11.627407
1024,86519,Hofangerstraße,48.110374,11.627335
1025,14944,Hofbrunnstraße,48.08346,11.517552
1026,256606,Hofbrunnstraße,48.08383,11.517642
1027,31686,Hofbrunnstraße,48.08391,11.516761
1028,68405,Hofbrunnstraße,48.08343,11.516833
1029,80835,Hofbräuallee,48.143845,11.700934
1030,114033,Hofmannstraße,48.100483,11.529356
1031,294214,Hofmannstraße,48.09996,11.529544
1032,366456,Hofmannstraße,48.099697,11.528646
1033,64893,Hofmannstraße,48.10045,11.529203
1034,229211,Hohenadelweg,48.20256,11.457095
1035,368498,Hohenadelweg,48.202583,11.457221
1036,301476,Hohensteinstraße,48.14587,11.422223
1037,10827,Hohenzollernplatz,48.16234,11.56881
1038,273948,Hohenzollernplatz,48.162357,11.568711
1039,289774,Hohenzollernplatz,48.161224,11.568172
1040,379973,Hohenzollernplatz,48.16111,11.568073
1041,116625,Hohenzollernstraße,48.15883,11.585384
1042,358909,Hohenzollernstraße,48.159397,11.585024
1043,377836,Hohenzollernstraße,48.159187,11.585186
1044,185704,Holbeinstraße,48.143013,11.60141
1045,207803,Holbeinstraße,48.143337,11.60123
1046,221245,Holzapfelkreuth,48.116653,11.502613
1047,256106,Holzapfelkreuth,48.11626,11.502424
1048,368187,Holzapfelkreuth,48.116367,11.502397
1049,409176,Holzapfelkreuth,48.115894,11.502244
1050,51955,Holzapfelkreuth,48.11637,11.501499
1051,332626,Holzapfelstraße,48.13914,11.547636
1052,402258,Holzapfelstraße,48.13932,11.54672
1053,270691,Holzkirchner Bahnhof,48.13887,11.556072
1054,300788,Holzkirchner Bahnhof,48.139214,11.554661
1055,309745,Holzkirchner Bahnhof,48.139103,11.55556
1056,184508,Holzwiesenstraße,48.10256,11.636471
1057,260663,Holzwiesenstraße,48.103256,11.637468
1058,60720,Holzwiesenstraße,48.103584,11.636713
1059,210548,Hopfenstraße,48.142395,11.55441
1060,364482,Hopfenstraße,48.142323,11.554383
1061,340776,Hortigstraße,48.187218,11.472097
1062,458750,Hortigstraße,48.187145,11.472367
1063,284571,Hubertusbrunnen,48.159218,11.530065
1064,198568,Hubertusstraße,48.15603,11.520229
1065,363096,Hubertusstraße,48.155888,11.519636
1066,402098,Hufelandstraße,48.19264,11.579347
1067,67030,Hufelandstraße,48.192535,11.579518
1068,124409,Hugo-Lang-Bogen,48.10346,11.659701
1069,215820,Hugo-Lang-Bogen,48.103046,11.658875
1070,91994,Hugo-Lang-Bogen,48.10382,11.659207
1071,373784,Hugo-Troendle-Straße,48.179356,11.514821
1072,73478,Hugo-Troendle-Straße,48.179283,11.514767
1073,147233,Humboldtstraße,48.119167,11.574999
1074,426687,Humboldtstraße,48.11992,11.575781
1075,438910,Humboldtstraße,48.119785,11.574801
1076,103586,Höcherstraße,48.19398,11.46173
1077,275984,Höglwörther Straße,48.1063,11.5226
1078,323850,Höglwörther Straße,48.10644,11.521513
1079,331277,Höglwörther Straße,48.10637,11.521702
1080,443713,Höglwörther Straße,48.106705,11.522771
1081,456508,Hönigschmidplatz,48.12984,11.49018
1082,72162,Hönigschmidplatz,48.130104,11.489003
1083,17477,Hörweg,48.152092,11.406457
1084,286770,Hörweg,48.15195,11.406403
1085,103575,Ilse-Fehling-Straße,48.15731,11.426193
1086,109332,Ilse-Fehling-Straße,48.15721,11.426256
1087,178415,Iltisstraße,48.103813,11.704078
1088,252855,Im Gefilde,48.089577,11.661579
1089,266500,Im Gefilde,48.090813,11.661489
1090,362842,Im Gefilde,48.09071,11.661318
1091,299805,Im Wismat,48.173622,11.466402
1092,239883,Impfzentrum (Messe Nord),48.139545,11.698077
1093,158647,Implerstraße,48.11878,11.548202
1094,175887,Implerstraße,48.120155,11.548283
1095,266339,Implerstraße,48.120144,11.548409
1096,387766,Implerstraße,48.11939,11.548858
1097,430091,Implerstraße,48.12014,11.548472
1098,179321,In den Kirschen,48.167267,11.509368
1099,432387,In den Kirschen,48.167156,11.509709
1100,202802,Infanteriestraße,48.16146,11.5537
1101,342580,Infanteriestraße,48.161404,11.553961
1102,38249,Infanteriestraße Süd,48.156414,11.559045
1103,64771,Infanteriestraße Süd,48.15652,11.559135
1104,147209,Ingolstädter Straße,48.18734,11.584225
1105,17442,Ingolstädter Straße,48.18817,11.584566
1106,215699,Ingolstädter Straße,48.187996,11.583596
1107,37260,Ingolstädter Straße,48.187798,11.585482
1108,18442,Innsbrucker Ring,48.120564,11.618702
1109,305120,Innsbrucker Ring,48.12034,11.618693
1110,374788,Innsbrucker Ring,48.1205,11.618702
1111,4998,Innsbrucker Ring,48.120407,11.618702
1112,118544,Irisstraße,48.19641,11.545777
1113,342262,Irisstraße,48.19692,11.545624
1114,122886,Isarring,48.153824,11.611363
1115,406690,Isarring,48.154358,11.61218
1116,110962,Isartor,48.134117,11.583192
1117,136253,Isartor,48.13405,11.583515
1118,387704,Isartor/Zweibrückenstraße,48.132736,11.583767
1119,389474,Isengaustraße,48.08646,11.661803
1120,82134,Isengaustraße,48.086426,11.66192
1121,223817,Ittlingerstraße,48.20829,11.555757
1122,249841,Ittlingerstraße,48.20841,11.555802
1123,30970,Jagdhornstraße,48.11239,11.70512
1124,442836,Jagdhornstraße,48.11223,11.704931
1125,329162,Jakob-Gelb-Platz,48.11338,11.571864
1126,97218,Jakob-Gelb-Platz,48.11383,11.571927
1127,232132,Jakob-Kaiser-Straße,48.104225,11.640792
1128,430909,Jakob-Kaiser-Straße,48.104443,11.639974
1129,238435,Jaspersallee,48.163555,11.435742
1130,50348,Jaspersallee,48.163837,11.435131
1131,242079,Johann-Clanze-Straße,48.1125,11.53373
1132,50989,Johann-Clanze-Straße,48.113064,11.533892
1133,56783,Johann-Clanze-Straße,48.112827,11.533138
1134,231886,Johanneskirchen,48.16845,11.646209
1135,303536,Johanneskirchen,48.169308,11.647601
1136,394784,Johanneskirchen,48.1694,11.647601
1137,130348,Johanneskirchen Bf. West,48.16934,11.644663
1138,112344,Johanneskirchner Straße,48.16793,11.643145
1139,47756,Johanneskirchner Straße,48.16748,11.643576
1140,92610,Johanneskirchner Straße,48.168396,11.643639
1141,180492,Josef-Frankl-Straße,48.215176,11.531359
1142,344562,Josef-Frankl-Straße,48.214928,11.53073
1143,362971,Josef-Frankl-Straße,48.2148,11.53055
1144,416462,Josef-Frankl-Straße,48.21509,11.531278
1145,163735,Josef-Lang-Straße,48.150055,11.471926
1146,167152,Josef-Lang-Straße,48.15016,11.472106
1147,296811,Josef-Wirth-Weg,48.19907,11.626248
1148,68636,Josef-Wirth-Weg,48.199062,11.626499
1149,374335,Joseph-Dollinger-Bogen,48.186493,11.607159
1150,438418,Joseph-Dollinger-Bogen,48.186363,11.606224
1151,300707,Joseph-Suder-Bogen,48.156605,11.422977
1152,307610,Joseph-Suder-Bogen,48.15651,11.423031
1153,109139,Josephinenstraße,48.082413,11.537099
1154,354903,Josephinenstraße,48.082417,11.536937
1155,12944,Josephsburg,48.126556,11.63383
1156,161979,Josephsburg,48.126915,11.634539
1157,171485,Josephsburg,48.12662,11.633803
1158,77139,Josephsburg,48.126945,11.634333
1159,10973,Josephsplatz,48.15565,11.567112
1160,170515,Josephsplatz,48.154797,11.56607
1161,34730,Josephsplatz,48.155678,11.567004
1162,373182,Josephsplatz,48.154854,11.566312
1163,184280,Kafkastraße,48.098408,11.648876
1164,240111,Kafkastraße,48.098614,11.648634
1165,283100,Kaiserhölzlstraße,48.216286,11.508838
1166,428046,Kaiserhölzlstraße,48.216263,11.508335
1167,214115,Kammerspiele,48.138462,11.583075
1168,222791,Kammerspiele,48.138588,11.583057
1169,135286,Kapuzinerplatz/Arbeitsagentur,48.126747,11.558353
1170,218134,Kapuzinerplatz/Arbeitsagentur,48.126747,11.558515
1171,134291,Kapuzinerstraße,48.125313,11.561542
1172,257722,Kapuzinerstraße,48.125214,11.561488
1173,321702,Kapuzinerstraße,48.12535,11.562171
1174,211929,Karl-Hänel-Straße,48.20008,11.447528
1175,342940,Karl-Hänel-Straße,48.200417,11.447834
1176,23161,Karl-Marx-Ring,48.10923,11.649389
1177,328548,Karl-Marx-Ring,48.109028,11.650386
1178,239499,Karl-Preis-Platz,48.11796,11.608398
1179,248241,Karl-Preis-Platz,48.118168,11.609782
1180,289246,Karl-Preis-Platz,48.118347,11.609117
1181,291954,Karl-Preis-Platz,48.11814,11.610006
1182,307511,Karl-Preis-Platz,48.118587,11.610357
1183,31351,Karl-Preis-Platz,48.118725,11.609261
1184,331219,Karl-Preis-Platz,48.118725,11.609261
1185,436683,Karl-Preis-Platz,48.11791,11.608452
1186,414457,Karl-Schmid-Straße,48.13212,11.66916
1187,47769,Karl-Schmid-Straße,48.132294,11.669062
1188,413092,Karl-Theodor-Straße,48.166733,11.574002
1189,54574,Karl-Theodor-Straße,48.166874,11.574092
1190,200551,Karl-von-Roth-Straße,48.1792,11.47463
1191,216763,Karl-von-Roth-Straße,48.17923,11.474747
1192,145559,Karlsfeld,48.21108,11.460697
1193,315554,Karlsfeld,48.211212,11.460644
1194,194739,Karlsfelder Straße,48.216072,11.480784
1195,217879,Karlsfelder Straße,48.21641,11.480829
1196,293865,Karlsfelder Straße,48.216072,11.480784
1197,297521,Karlsfelder Straße,48.21641,11.480829
1198,449963,Karlsfelder Straße,48.21701,11.480056
1199,222565,Karlsplatz (Stachus),48.13896,11.564902
1200,22696,Karlsplatz (Stachus),48.13879,11.565648
1201,277499,Karlsplatz (Stachus),48.140163,11.566878
1202,36164,Karlsplatz (Stachus),48.13854,11.565603
1203,456700,Karlsplatz (Stachus),48.140434,11.567148
1204,186055,Karlstraße,48.14487,11.55971
1205,375752,Karlstraße,48.144665,11.559629
1206,141301,Karolinenplatz,48.145744,11.569942
1207,269058,Karolinenplatz,48.145393,11.569501
1208,296596,Karwinskistraße Ost,48.168045,11.475484
1209,357285,Karwinskistraße West,48.168415,11.464587
1210,151806,Kastenbauerstraße,48.13822,11.639417
1211,362996,Kastenbauerstraße,48.13864,11.639786
1212,33928,Kazmairstraße,48.134895,11.534467
1213,398690,Kazmairstraße,48.13526,11.534063
1214,424355,Kazmairstraße,48.134804,11.533937
1215,266817,Keilberthstraße,48.205223,11.599685
1216,458141,Keilberthstraße,48.20539,11.599487
1217,266319,Kemnatenstraße,48.151333,11.504347
1218,51735,Kemnatenstraße,48.151344,11.504023
1219,15726,Kemptener Straße,48.07877,11.484188
1220,11980,Kieferngarten,48.202435,11.612477
1221,281938,Kieferngarten,48.203857,11.613213
1222,336779,Kieferngarten,48.203846,11.613294
1223,35090,Kieferngarten,48.203876,11.613133
1224,351395,Kieferngarten,48.203842,11.613366
1225,403653,Kieferngarten,48.202717,11.612728
1226,96769,Kieferngarten,48.2019,11.611983
1227,19460,Kiefernstraße,48.087757,11.599406
1228,259716,Kiefernstraße,48.08743,11.599415
1229,370390,Kiefernstraße,48.087757,11.599406
1230,59802,Kiefernstraße,48.08743,11.599415
1231,11820,Kirchenstraße,48.132244,11.605173
1232,384724,Kirchenstraße,48.133324,11.604949
1233,316350,Kirchtruderinger Straße,48.126244,11.674029
1234,380714,Kirchtruderinger Straße,48.12636,11.673948
1235,156703,Kistlerhofstraße,48.095413,11.523544
1236,286250,Kistlerhofstraße,48.095158,11.524217
1237,358236,Kistlerhofstraße,48.094776,11.523166
1238,125164,Klagenfurter Straße,48.112667,11.603116
1239,361909,Klagenfurter Straße,48.112343,11.602973
1240,383486,Klara-Ziegler-Bogen,48.083984,11.661336
1241,195716,Klenzestraße,48.125732,11.57075
1242,405399,Klenzestraße,48.125134,11.57128
1243,257388,Kleselstraße,48.1988,11.458002
1244,268310,Kleselstraße,48.199207,11.457032
1245,370510,Kleselstraße,48.199978,11.458245
1246,143458,Klinikum Großhadern,48.10912,11.473714
1247,302794,Klinikum Großhadern,48.10882,11.4734
1248,350815,Klinikum Großhadern,48.109028,11.473786
1249,368226,Klinikum Großhadern,48.108875,11.474028
1250,426291,Klinikum Großhadern,48.108875,11.474028
1251,94823,Klinikum Großhadern,48.109074,11.473391
1252,109438,Klinikum Großhadern Nord,48.11243,11.467174
1253,215808,Klinikum Großhadern Nord,48.11225,11.466501
1254,183078,Klinikum Großhadern Ost,48.1116,11.473948
1255,335823,Klinikum Großhadern Ost,48.1116,11.473948
1256,376554,Klinikum Großhadern Ost,48.110874,11.473876
1257,44524,Klinikum Großhadern Ost,48.110874,11.473876
1258,184704,Klinikum Harlaching,48.08709,11.554949
1259,419015,Klinikum Harlaching,48.086617,11.554832
1260,419032,Klinikum Harlaching,48.08711,11.556251
1261,255142,Klinikum Neuperlach,48.096535,11.654967
1262,266675,Klinikum Neuperlach,48.09601,11.654985
1263,282297,Klinikum Neuperlach,48.096504,11.655704
1264,326309,Klopstockstraße,48.176083,11.578826
1265,357932,Klopstockstraße,48.176025,11.579661
1266,314748,Knappertsbuschstraße,48.160194,11.640298
1267,33415,Knappertsbuschstraße,48.16032,11.640855
1268,177289,Knorrstraße,48.192062,11.572457
1269,249721,Knorrstraße,48.19165,11.571666
1270,352536,Knorrstraße,48.191444,11.572259
1271,439593,Knorrstraße,48.191547,11.570615
1272,129339,Kollwitzstraße,48.19856,11.585006
1273,246997,Kollwitzstraße,48.198,11.584593
1274,433418,Kollwitzstraße,48.198,11.584593
1275,62462,Kollwitzstraße,48.19856,11.585006
1276,113536,Kolumbusplatz,48.119797,11.576751
1277,129964,Kolumbusplatz,48.119797,11.576652
1278,258526,Kolumbusplatz,48.119106,11.576544
1279,435565,Kolumbusplatz,48.119774,11.576544
1280,406556,Kolumbusplatz (Nord),48.120705,11.576553
1281,418162,Kolumbusplatz (Nord),48.12058,11.576688
1282,399962,Kolumbusplatz / Humboldtstraße,48.119232,11.575817
1283,165081,Korbinian-Beer-Straße,48.18354,11.478259
1284,321255,Korbinian-Beer-Straße,48.183422,11.478259
1285,306997,Korbinianplatz,48.18603,11.572843
1286,412294,Korbinianplatz,48.185852,11.572699
1287,208352,Kornwegerstraße,48.11242,11.494178
1288,285787,Kornwegerstraße,48.11205,11.495435
1289,339483,Kornwegerstraße,48.11242,11.494178
1290,376046,Kornwegerstraße,48.112015,11.494303
1291,8884,Kornwegerstraße,48.11205,11.495435
1292,243429,Kraillinger Weg,48.13822,11.45476
1293,51692,Kraillinger Weg,48.138454,11.455182
1294,156930,Krankenhaus Martha Maria,48.086365,11.534377
1295,267777,Krankenhaus Martha Maria,48.08619,11.533964
1296,337491,Krankenhaus Pasing,48.145607,11.453161
1297,367804,Krankenhaus Pasing,48.14566,11.453044
1298,159887,Krauss-Maffei-Straße,48.19368,11.470974
1299,27034,Krauss-Maffei-Straße,48.193523,11.470705
1300,298620,Krauss-Maffei-Straße,48.19368,11.470974
1301,322454,Krauss-Maffei-Straße,48.193523,11.470705
1302,166463,Krauss-Maffei-Straße Ost,48.193752,11.473274
1303,286395,Krauss-Maffei-Straße Ost,48.193687,11.473121
1304,206805,Krautheimstraße,48.182922,11.472645
1305,373640,Krautheimstraße,48.18284,11.472735
1306,218675,Kreillerstraße,48.125626,11.644636
1307,342501,Kreillerstraße,48.12575,11.64673
1308,392032,Kreillerstraße,48.125813,11.646756
1309,452187,Kreillerstraße,48.125645,11.644538
1310,139644,Kriegelsteinerstraße,48.089985,11.496935
1311,311493,Kriegelsteinerstraße,48.08983,11.496738
1312,281719,Kriemhildenstraße,48.15228,11.515333
1313,438116,Kriemhildenstraße,48.152225,11.515261
1314,172813,Kristallstraße,48.212257,11.484745
1315,195203,Kristallstraße,48.212257,11.484745
1316,406668,Kristallstraße,48.213074,11.484539
1317,51987,Kristallstraße,48.213078,11.485464
1318,82471,Kristallstraße,48.213074,11.484539
1319,289493,Krokusstraße,48.126076,11.479239
1320,304328,Krokusstraße,48.125885,11.478852
1321,442343,Krokusstraße,48.12572,11.478852
1322,349910,Kronstadter Straße,48.138805,11.647403
1323,82847,Kronstadter Straße,48.138664,11.647233
1324,214373,Kronwinkler Straße,48.16137,11.423633
1325,369562,Kronwinkler Straße,48.161358,11.423004
1326,108524,Krumbadstraße,48.116726,11.625224
1327,236407,Krumbadstraße,48.11646,11.625206
1328,27052,Krähenweg,48.181377,11.39115
1329,27854,Krähenweg,48.18127,11.391123
1330,67471,Kuckucksblumenstraße,48.198902,11.522385
1331,77768,Kuckucksblumenstraße,48.19883,11.522412
1332,398581,Kufsteiner Platz,48.150055,11.601993
1333,458760,Kufsteiner Platz,48.15032,11.602398
1334,154097,Kulturzentrum Trudering,48.119804,11.670984
1335,432075,Kulturzentrum Trudering,48.119564,11.670499
1336,322097,Kunihohstraße,48.14966,11.657896
1337,406882,Kunihohstraße,48.149815,11.65803
1338,179969,Kunreuthstraße,48.150383,11.413293
1339,386161,Kunreuthstraße,48.15055,11.413024
1340,126686,Kunstmannstraße,48.173805,11.477442
1341,191096,Kunstmannstraße,48.173946,11.47702
1342,112921,Kurfürstenplatz,48.160397,11.574074
1343,15202,Kurfürstenplatz,48.159996,11.574999
1344,53454,Kurfürstenplatz,48.160507,11.574092
1345,84135,Kurfürstenplatz,48.15991,11.574846
1346,27437,Kurparkstraße,48.119442,11.496163
1347,321843,Kurparkstraße,48.11951,11.496396
1348,209188,Kurzstraße,48.104893,11.570067
1349,316433,Kurzstraße,48.104355,11.569681
1350,223616,Kustermannpark,48.12418,11.601293
1351,143109,Kölner Platz,48.17007,11.577416
1352,392507,Kölner Platz,48.17016,11.577389
1353,430280,Königinstraße,48.143982,11.584827
1354,458354,Königinstraße,48.14353,11.585168
1355,370553,Königsplatz,48.146957,11.564462
1356,401017,Königsplatz,48.14546,11.563662
1357,77338,Königsplatz,48.14496,11.563294
1358,93553,Königsplatz,48.144997,11.563168
1359,156827,Lagerhausstraße,48.120426,11.55556
1360,266139,Lagerhausstraße,48.120445,11.555191
1361,136816,Laim,48.14341,11.502101
1362,199072,Laim,48.142136,11.503349
1363,224283,Laim,48.143494,11.502954
1364,345824,Laim,48.143574,11.50343
1365,387078,Laim,48.142944,11.502658
1366,185820,Laimer Platz,48.135483,11.501921
1367,268683,Laimer Platz,48.13543,11.501921
1368,281456,Laimer Platz,48.134907,11.503134
1369,417775,Laimer Platz,48.13583,11.502801
1370,99811,Laimer Platz,48.135178,11.499729
1371,122895,Lamprechtstraße,48.10129,11.66908
1372,394970,Lamprechtstraße,48.101444,11.669475
1373,167806,Landrichterstraße,48.088707,11.607626
1374,229968,Landrichterstraße,48.08857,11.607437
1375,285312,Landshuter Allee,48.151417,11.538276
1376,38636,Landshuter Allee,48.152008,11.536264
1377,65977,Landshuter Allee,48.151474,11.536677
1378,97381,Landshuter Allee,48.15262,11.53736
1379,112526,Langbürgener Straße,48.110706,11.612737
1380,354857,Langbürgener Straße,48.110424,11.612692
1381,345733,Langwied,48.16301,11.432625
1382,366104,Langwied,48.16313,11.432284
1383,20101,Langwied Ortsmitte,48.18114,11.423858
1384,286127,Langwied Ortsmitte,48.181206,11.423831
1385,118419,Lassallestraße,48.1872,11.533281
1386,16552,Lassallestraße,48.187366,11.533874
1387,262357,Lassallestraße,48.186764,11.533362
1388,454259,Lassallestraße,48.18691,11.534144
1389,198679,Lauinger Straße,48.179256,11.496711
1390,236272,Lauinger Straße,48.179157,11.495822
1391,41661,Lauinger Straße,48.179504,11.496145
1392,230842,Lautensackstraße,48.139618,11.518154
1393,251640,Lautensackstraße,48.13965,11.519268
1394,267257,Lautensackstraße,48.13974,11.518845
1395,389785,Lautensackstraße,48.139603,11.518288
1396,19338,Lebscheestraße,48.10786,11.56483
1397,65420,Lebscheestraße,48.107784,11.565207
1398,152330,Lehel,48.13974,11.587899
1399,316912,Lehel,48.139572,11.588591
1400,423262,Lehel,48.13956,11.588725
1401,85624,Lehel,48.139614,11.587791
1402,126837,Lehrer-Wirth-Straße,48.129475,11.694583
1403,17171,Lehrer-Wirth-Straße,48.12956,11.694538
1404,142753,Leifstraße,48.091484,11.593819
1405,349793,Leifstraße,48.091484,11.593819
1406,393361,Leifstraße,48.09141,11.593666
1407,94929,Leifstraße,48.09141,11.593666
1408,141985,Lenbachplatz,48.140987,11.568136
1409,181969,Lenbachplatz,48.140778,11.568882
1410,455669,Lenbachplatz,48.140865,11.568612
1411,98848,Lenbachplatz,48.14089,11.568405
1412,146731,Leonrodplatz,48.15984,11.548175
1413,257355,Leonrodplatz,48.159184,11.546972
1414,285985,Leonrodplatz,48.1599,11.546972
1415,288779,Leonrodplatz,48.15975,11.547834
1416,69052,Leonrodplatz,48.15972,11.547034
1417,134859,Lerchenauer See,48.19804,11.535734
1418,77746,Lerchenauer See,48.19795,11.535401
1419,236602,Lerchenauer Straße,48.185936,11.552379
1420,291961,Lerchenauer Straße,48.18666,11.551481
1421,298800,Lerchenauer Straße,48.18618,11.550448
1422,69244,Lerchenauer Straße,48.18547,11.551921
1423,108022,Lerchenstraße,48.21466,11.534844
1424,165086,Lerchenstraße,48.214558,11.534925
1425,230037,Leutstettener Straße,48.093372,11.522448
1426,38193,Leutstettener Straße,48.09344,11.52278
1427,433208,Lilienthalallee Süd,48.18707,11.60194
1428,444668,Lilienthalallee Süd,48.186714,11.602865
1429,193428,Limesstraße,48.154198,11.418423
1430,329949,Limesstraße,48.15441,11.418072
1431,228098,Limmatstraße,48.094833,11.50069
1432,32872,Limmatstraße,48.094635,11.500708
1433,348712,Lincolnstraße,48.09408,11.590684
1434,366280,Lincolnstraße,48.094147,11.590504
1435,688,Lincolnstraße,48.094147,11.590504
1436,71123,Lincolnstraße,48.09408,11.590684
1437,107204,Lochhausen,48.17621,11.407661
1438,12698,Lochhausen,48.176346,11.40776
1439,128499,Lochhausen,48.17704,11.408083
1440,173164,Lochhausen,48.17713,11.408182
1441,20482,Lochhausen,48.17709,11.407598
1442,2439,Lochhausen,48.176346,11.40776
1443,415438,Lochhausen,48.177982,11.407311
1444,101003,Lochhausener Straße,48.16934,11.457131
1445,278823,Lochhausener Straße,48.169674,11.456951
1446,395066,Lochhausener Straße,48.16932,11.456996
1447,222124,Lohengrinstraße,48.16385,11.621756
1448,94119,Lohengrinstraße,48.16463,11.621972
1449,145438,Lohensteinstraße,48.141586,11.482095
1450,257669,Lohensteinstraße,48.141724,11.481116
1451,295404,Lohensteinstraße,48.14158,11.481224
1452,59762,Lohensteinstraße,48.14179,11.481125
1453,362863,Lorettoplatz,48.10356,11.488491
1454,98796,Lorettoplatz,48.103832,11.488743
1455,261939,Lotte-Branz-Straße,48.192463,11.590423
1456,422639,Lotte-Branz-Straße,48.192253,11.590261
1457,430053,Ludmillastraße,48.110058,11.567202
1458,72712,Ludmillastraße,48.11009,11.566905
1459,232915,Ludwig-Erhard-Allee,48.0851,11.639821
1460,373158,Ludwig-Erhard-Allee,48.08518,11.639103
1461,12606,Ludwig-Linsert-Straße,48.08606,11.634836
1462,222209,Ludwig-Linsert-Straße,48.08649,11.634899
1463,78240,Ludwigsbrücke,48.133835,11.585941
1464,425231,Ludwigsfeld (Campingplatz),48.199,11.49734
1465,200621,Luise-Kiesselbach-Platz,48.11361,11.518001
1466,221205,Luise-Kiesselbach-Platz,48.114075,11.517121
1467,286098,Luise-Kiesselbach-Platz,48.113182,11.518226
1468,82466,Luise-Kiesselbach-Platz,48.113667,11.516662
1469,104794,Luisenstraße,48.15266,11.567795
1470,116972,Luisenstraße,48.1525,11.567965
1471,352244,Lustheimstraße,48.163857,11.486767
1472,43501,Lustheimstraße,48.163723,11.485931
1473,26371,Lübecker Straße,48.166843,11.659557
1474,455858,Lübecker Straße,48.167336,11.659575
1475,317104,Lüneburger Straße,48.183235,11.56298
1476,399793,Lüneburger Straße,48.18296,11.563204
1477,103793,Lützelsteiner Straße,48.199272,11.614381
1478,295841,"MAN, Siedlung",48.218357,11.483245
1479,315594,"MAN, Siedlung",48.218357,11.483245
1480,401913,MVG Museum,48.10334,11.602505
1481,408804,MVG Museum,48.10374,11.60229
1482,151813,Machtlfinger Straße,48.09794,11.513186
1483,204856,Machtlfinger Straße,48.0983,11.51368
1484,429660,Machtlfinger Straße,48.097393,11.514947
1485,75965,Machtlfinger Straße,48.09733,11.514992
1486,127934,Mahirstraße,48.15593,11.613752
1487,289326,Mahirstraße,48.156467,11.614417
1488,354309,Maillingerstraße,48.15087,11.545004
1489,418645,Maillingerstraße,48.150436,11.544178
1490,49643,Maillingerstraße,48.14996,11.545561
1491,65218,Maillingerstraße,48.15002,11.545588
1492,154804,Mainaustraße,48.149426,11.433919
1493,449175,Mainaustraße,48.149216,11.433505
1494,389477,Maistraße,48.12939,11.562126
1495,123206,Mangfallplatz,48.097748,11.580371
1496,136964,Mangfallplatz,48.097122,11.579203
1497,450109,Mangfallplatz,48.097874,11.581305
1498,87500,Mangfallplatz,48.09707,11.579257
1499,201278,Mangfallplatz Süd,48.09656,11.577613
1500,24052,Mangfallplatz Süd,48.09644,11.577775
1501,166136,Manzostraße,48.183884,11.48886
1502,322075,Manzostraße,48.184093,11.489399
1503,269886,Marchioninistraße,48.113747,11.476723
1504,393012,Marchioninistraße,48.113613,11.477047
1505,226833,Margarete-Steiff-Straße,48.180576,11.5014
1506,283790,Margarete-Steiff-Straße,48.180515,11.501643
1507,186145,Margaretenplatz,48.119976,11.540567
1508,281248,Margaretenplatz,48.12009,11.540872
1509,286715,Margot-Kalinke-Straße,48.19287,11.596047
1510,408977,Margot-Kalinke-Straße,48.192715,11.596145
1511,300999,Maria-Eich-Straße,48.13695,11.441402
1512,404026,Maria-Einsiedel-Straße,48.09736,11.54451
1513,17035,Maria-Probst-Straße,48.192913,11.598777
1514,21225,Maria-Probst-Straße,48.192753,11.599703
1515,117076,Maria-Ward-Straße,48.16406,11.506224
1516,151674,Maria-Ward-Straße,48.16434,11.507598
1517,164435,Maria-Ward-Straße,48.163826,11.506152
1518,227699,Maria-Ward-Straße,48.163986,11.506116
1519,59315,Maria-Ward-Straße,48.164036,11.506997
1520,303502,Mariabrunner Straße,48.160606,11.420471
1521,342763,Mariabrunner Straße,48.160664,11.420094
1522,139139,Mariahilfplatz,48.124767,11.581709
1523,309097,Mariahilfplatz,48.124,11.581296
1524,324018,Mariahilfplatz,48.124165,11.580623
1525,89460,Mariahilfplatz,48.124165,11.581278
1526,422948,Mariannenplatz,48.13523,11.586911
1527,49140,Mariannenplatz,48.13524,11.586659
1528,141454,Marienburger Straße,48.14716,11.643397
1529,320887,Marienburger Straße,48.147137,11.644097
1530,103612,Marienplatz,48.13772,11.576364
1531,173063,Marienplatz,48.137913,11.575152
1532,439432,Marienplatz,48.1364,11.577793
1533,10543,Marienplatz (Rindermarkt),48.135475,11.573777
1534,97504,Marienplatz (Rindermarkt),48.13567,11.573652
1535,394520,Marienplatz (Theatinerstraße),48.13954,11.575215
1536,434428,Marienplatz (Theatinerstraße),48.139397,11.575403
1537,222283,Marienstern,48.08768,11.519564
1538,88635,Marienstern,48.08771,11.51986
1539,259122,Markgrafenstraße,48.111084,11.673454
1540,333793,Markgrafenstraße,48.11139,11.674056
1541,440300,Markgrafenstraße,48.110947,11.673499
1542,219061,Marschnerstraße,48.153236,11.45582
1543,280363,Marschnerstraße,48.15335,11.455927
1544,205683,Marsopstraße,48.15727,11.466968
1545,2478,Marsopstraße,48.157284,11.467138
1546,378113,Marsstraße,48.145016,11.541806
1547,70791,Marsstraße,48.145092,11.541806
1548,123685,Martin-Empl-Ring,48.14104,11.681342
1549,410367,Martin-Empl-Ring,48.140793,11.681997
1550,357573,Matterhornstraße,48.114513,11.652003
1551,378706,Matterhornstraße,48.114807,11.65256
1552,183750,Mauerkircherstraße,48.14889,11.600215
1553,364455,Mauerkircherstraße,48.148777,11.601239
1554,188467,Max-Bill-Straße,48.187576,11.59708
1555,449343,Max-Bill-Straße,48.187393,11.597026
1556,189748,Max-Born-Straße,48.19185,11.502074
1557,218627,Max-Born-Straße,48.19188,11.502244
1558,326741,Max-Born-Straße,48.19188,11.502244
1559,43678,Max-Born-Straße,48.19185,11.502074
1560,187173,Max-Diamand-Straße,48.191494,11.567579
1561,347208,Max-Diamand-Straße,48.19161,11.567534
1562,45273,Max-Lebsche-Platz,48.108505,11.475394
1563,67507,Max-Lebsche-Platz,48.108643,11.475412
1564,180230,Max-Weber-Platz,48.135765,11.600628
1565,213805,Max-Weber-Platz,48.13573,11.598894
1566,259972,Max-Weber-Platz,48.13568,11.598571
1567,26591,Max-Weber-Platz,48.135567,11.598894
1568,291819,Max-Weber-Platz,48.135597,11.599927
1569,331524,Max-Weber-Platz,48.13616,11.598023
1570,360972,Max-Weber-Platz,48.136017,11.597843
1571,388221,Max-Weber-Platz,48.13549,11.599909
1572,392561,Max-Weber-Platz,48.13566,11.598894
1573,280525,Max-Weber-Platz (Johannispl.),48.134403,11.598229
1574,56158,Max-Weber-Platz (Johannispl.),48.134453,11.598023
1575,134415,Max-Wönner-Straße,48.19941,11.535913
1576,411407,Max-Wönner-Straße,48.199333,11.535554
1577,442399,Maxhofstraße,48.08819,11.479221
1578,126466,Maximilianeum,48.136005,11.596029
1579,27676,Maximilianeum,48.136143,11.595867
1580,229655,Maxmonument,48.137257,11.588474
1581,430207,Maxmonument,48.137856,11.587674
1582,451186,Maxmonument,48.137455,11.58824
1583,67660,Maxmonument,48.137672,11.588034
1584,196804,Maxvorstadt/Samml. Brandhorst,48.148346,11.57428
1585,165133,Melchiorstraße,48.07218,11.519474
1586,187888,Melchiorstraße,48.072243,11.520399
1587,31914,Melchiorstraße,48.072353,11.520337
1588,378786,Melchiorstraße,48.07211,11.519735
1589,37967,Memeler Straße,48.153023,11.64116
1590,424872,Memeler Straße,48.15357,11.641411
1591,170217,Menaristraße,48.128925,11.493899
1592,265971,Menaristraße,48.128887,11.494537
1593,157630,Menterstraße,48.161213,11.466986
1594,447717,Menterstraße,48.161232,11.467138
1595,135238,Merseburger Straße,48.18592,11.521226
1596,277415,Merseburger Straße,48.185955,11.521064
1597,107181,Messestadt Ost,48.13345,11.703907
1598,157377,Messestadt Ost,48.13345,11.703611
1599,161133,Messestadt Ost,48.133347,11.703261
1600,239284,Messestadt Ost,48.13342,11.703261
1601,269246,Messestadt Ost,48.133278,11.704087
1602,349241,Messestadt Ost,48.13364,11.704877
1603,443613,Messestadt Ost,48.13345,11.703611
1604,72414,Messestadt Ost,48.133278,11.703791
1605,104650,Messestadt West,48.133396,11.690756
1606,167098,Messestadt West,48.133514,11.689516
1607,213933,Messestadt West,48.13332,11.691088
1608,302239,Messestadt West,48.13333,11.690154
1609,325911,Messestadt West,48.13347,11.690756
1610,338337,Messestadt West,48.13333,11.689534
1611,39151,Messestadt West,48.133514,11.689516
1612,114632,Mettenstraße,48.16838,11.514282
1613,22140,Mettenstraße,48.168068,11.514767
1614,121578,Michaelibad,48.118465,11.631467
1615,149526,Michaelibad,48.1193,11.630659
1616,265483,Michaelibad,48.118362,11.631413
1617,409288,Michaelibad,48.11877,11.63144
1618,49419,Michaelibad,48.119106,11.630928
1619,98226,Michaelibad,48.118694,11.630192
1620,121815,Milbertshofen,48.182083,11.572987
1621,204679,Milbertshofen,48.180946,11.573104
1622,290134,Milbertshofen,48.182083,11.573175
1623,406930,Milbertshofen,48.180954,11.573193
1624,122437,Milbertshofener Platz,48.1848,11.566681
1625,32711,Milbertshofener Platz,48.18435,11.566393
1626,159253,Milbertshofener Straße,48.18434,11.575358
1627,67958,Milbertshofener Straße,48.184464,11.575385
1628,176282,Mildred-Scheel-Bogen,48.175312,11.581674
1629,6272,Mildred-Scheel-Bogen,48.175327,11.581898
1630,162595,Mindelheimer Straße,48.080143,11.492264
1631,83222,Mindelheimer Straße,48.079967,11.491977
1632,11702,Minnewitstraße,48.09118,11.597673
1633,176136,Minnewitstraße,48.091137,11.596855
1634,235965,Minnewitstraße,48.090885,11.597295
1635,276014,Minnewitstraße,48.090885,11.597295
1636,340752,Minnewitstraße,48.091137,11.596855
1637,115249,Mitterfeldstraße,48.13671,11.486093
1638,270673,Mitterfeldstraße,48.136963,11.484772
1639,126723,Mitterweg,48.101322,11.610429
1640,85207,Mitterweg,48.101433,11.610491
1641,142047,Moosach,48.18064,11.504832
1642,142321,Moosach,48.180557,11.505128
1643,152074,Moosach,48.180935,11.508146
1644,213235,Moosach,48.18163,11.508784
1645,272595,Moosach,48.18044,11.507482
1646,290764,Moosach,48.181114,11.506035
1647,352559,Moosach,48.181,11.508146
1648,363010,Moosach,48.180775,11.506107
1649,370498,Moosach,48.180397,11.507284
1650,40539,Moosach,48.18064,11.504832
1651,408212,Moosach,48.180927,11.50493
1652,447801,Moosach,48.180637,11.507356
1653,356093,Moosacher St.-Martins-Platz,48.181816,11.518594
1654,419917,Moosacher St.-Martins-Platz,48.181763,11.517381
1655,42395,Moosacher St.-Martins-Platz,48.18189,11.518594
1656,436068,Moosacher St.-Martins-Platz,48.18187,11.517354
1657,32501,Moosacher Straße,48.18756,11.566285
1658,384522,Moosacher Straße,48.187267,11.565585
1659,386707,Moosacher Straße,48.187134,11.566797
1660,49886,Moosacher Straße,48.186836,11.565953
1661,324029,Moosfeld,48.130756,11.671038
1662,418380,Moosfeld,48.130787,11.670957
1663,406285,Moosfeld Gewerbegebiet,48.136135,11.668217
1664,412846,Moosfeld Gewerbegebiet,48.13568,11.668388
1665,418531,Moosfeld Gewerbegebiet,48.13587,11.667651
1666,115859,Moselstraße,48.141777,11.627326
1667,52327,Moselstraße,48.14188,11.627155
1668,143300,Munckerstraße,48.089424,11.503089
1669,237703,Munckerstraße,48.08961,11.502739
1670,141030,Munich Fröttmaning,48.21082,11.618642
1671,448039,Munich central bus station,48.14248,11.55001
1672,146424,Murnauer Straße,48.10198,11.524047
1673,396366,Murnauer Straße,48.101936,11.524451
1674,188191,Muspillistraße,48.169903,11.624577
1675,456017,Muspillistraße,48.169903,11.624415
1676,24454,Mutschellestraße,48.12667,11.638582
1677,86633,Mutschellestraße,48.126686,11.637908
1678,131319,Mutter-Teresa-Straße,48.129597,11.699694
1679,424182,Mutter-Teresa-Straße,48.129482,11.699802
1680,169786,Mönchbergstraße,48.115948,11.659378
1681,277249,Mönchbergstraße,48.1157,11.66024
1682,428320,Mühldorfstraße,48.126488,11.613654
1683,451283,Mühldorfstraße,48.12639,11.613204
1684,232046,Müllerstraße,48.13164,11.572232
1685,302950,Müllerstraße,48.131172,11.571334
1686,3583,Müllerstraße,48.131203,11.571064
1687,434225,München Einsteinstraße,48.136806,11.614392
1688,293713,München Einsteinstraße (gegenüber Stahlg,48.136852,11.614002
1689,373376,München Grillparzerstraße,48.13623,11.608632
1690,409019,München Grillparzerstraße,48.13646,11.610189
1691,222950,München Leienfelsstr.,48.154537,11.428524
1692,443298,München Leuchtenbergring,48.13425,11.615986
1693,105501,München Max-Weber-Platz,48.13575,11.599863
1694,33803,München Max-Weber-Platz,48.13549,11.599905
1695,449089,München Ost,48.12744,11.604971
1696,49259,München Ost Friedenstraße,48.12703,11.606857
1697,100788,München Vogelweideplatz,48.13723,11.619454
1698,150193,München Vogelweideplatz,48.13749,11.619734
1699,417337,"München, Seidlstraße",48.142307,11.556033
1700,58920,München-Aubing,48.155968,11.413309
1701,34876,München-Berg am Laim,48.134003,11.633295
1702,99163,München-Pasing,48.149853,11.461872
1703,346606,München-Riem,48.143982,11.678049
1704,104104,Münchner Freiheit,48.161545,11.586264
1705,129072,Münchner Freiheit,48.161526,11.586372
1706,16742,Münchner Freiheit,48.16223,11.586533
1707,170265,Münchner Freiheit,48.162334,11.586632
1708,339291,Münchner Freiheit,48.16186,11.585797
1709,388640,Münchner Freiheit,48.16243,11.586659
1710,47661,Münchner Freiheit,48.161507,11.586489
1711,56756,Münchner Freiheit,48.162838,11.586183
1712,83837,Münchner Freiheit,48.16156,11.586111
1713,446738,Münsinger Straße,48.09054,11.517857
1714,61302,Münsinger Straße,48.090405,11.517255
1715,381400,Nailastraße,48.088844,11.633866
1716,444804,Nailastraße,48.08854,11.633021
1717,121530,Nationalmuseum/Haus der Kunst,48.142838,11.589201
1718,18361,Nationalmuseum/Haus der Kunst,48.14332,11.588573
1719,208402,Nationalmuseum/Haus der Kunst,48.142754,11.588573
1720,249024,Nationalmuseum/Haus der Kunst,48.14332,11.587881
1721,411506,Nationaltheater,48.139362,11.579131
1722,443672,Nationaltheater,48.139366,11.578179
1723,432503,Nauestraße,48.098824,11.677254
1724,164538,Nawiaskystraße,48.10658,11.636381
1725,291357,Nawiaskystraße,48.107567,11.636686
1726,104411,Nederlinger Straße,48.169373,11.510302
1727,289960,Nederlinger Straße,48.16954,11.511335
1728,416474,Nederlinger Straße,48.170357,11.511156
1729,312489,Nederlinger Straße (West),48.17053,11.509018
1730,48615,Nederlinger Straße (West),48.17086,11.508784
1731,10049,Nesselwanger Straße,48.084824,11.490836
1732,426875,Nesselwanger Straße,48.0847,11.490827
1733,224573,Nettelbeckstraße,48.14275,11.638645
1734,22917,Nettelbeckstraße,48.14332,11.639229
1735,79250,Netzerstraße,48.17606,11.507015
1736,219881,Neuaubing,48.14358,11.42357
1737,271225,Neuaubing,48.142708,11.422456
1738,38967,Neuaubing,48.142723,11.423417
1739,201778,Neuaubing West,48.152668,11.409269
1740,219928,Neuaubing West,48.15259,11.409853
1741,358338,Neuaubing West,48.152542,11.41023
1742,230832,Neuer Südfriedhof,48.101006,11.621846
1743,259263,Neuer Südfriedhof,48.100857,11.62305
1744,116498,Neuer Südfriedhof West,48.10111,11.618495
1745,177548,Neuer Südfriedhof West,48.101215,11.617983
1746,218414,Neuhausen,48.15628,11.531233
1747,441700,Neuhausen,48.156322,11.531413
1748,452857,Neuhausen,48.156364,11.531574
1749,181657,Neuherbergstraße,48.2101,11.586866
1750,331814,Neuherbergstraße,48.21006,11.587324
1751,414155,Neuherbergstraße,48.210564,11.586524
1752,443631,Neuherbergstraße,48.2101,11.586866
1753,214652,Neuhofen,48.107304,11.540162
1754,437698,Neuhofen,48.10701,11.53983
1755,114873,Neumarkter Straße,48.13132,11.628134
1756,232151,Neumarkter Straße,48.13125,11.627973
1757,342390,Neunkirchner Straße,48.092487,11.539722
1758,362560,Neunkirchner Straße,48.093014,11.54027
1759,148913,Neuperlach Süd,48.08897,11.64514
1760,203157,Neuperlach Süd,48.089188,11.644789
1761,233285,Neuperlach Süd,48.088936,11.645059
1762,254286,Neuperlach Süd,48.08975,11.644304
1763,259116,Neuperlach Süd,48.089188,11.644789
1764,269735,Neuperlach Süd,48.089905,11.644601
1765,275141,Neuperlach Süd,48.08948,11.644079
1766,448819,Neuperlach Süd,48.089817,11.644744
1767,76775,Neuperlach Süd,48.08961,11.644762
1768,100901,Neuperlach Zentrum,48.101215,11.646101
1769,11331,Neuperlach Zentrum,48.100956,11.647861
1770,113793,Neuperlach Zentrum,48.101185,11.646226
1771,138633,Neuperlach Zentrum,48.10088,11.64832
1772,182169,Neuperlach Zentrum,48.10112,11.646972
1773,21436,Neuperlach Zentrum,48.10094,11.647367
1774,323170,Neuperlach Zentrum,48.10104,11.647403
1775,445462,Neuperlach Zentrum,48.101017,11.646846
1776,57325,Neuperlach Zentrum,48.10086,11.647825
1777,294896,"Neuried, Starnberger Weg",48.090164,11.472259
1778,325061,Neurieder Straße,48.086918,11.485473
1779,360694,Neurieder Straße,48.08673,11.48532
1780,117536,Nikolaus-Prugger-Weg,48.12011,11.676581
1781,2175,Nikolaus-Prugger-Weg,48.119324,11.677398
1782,251347,Nikolaus-Prugger-Weg,48.119587,11.676248
1783,262305,Nordbad,48.161373,11.563608
1784,299976,Nordbad,48.160873,11.562881
1785,324356,Nordbad,48.160877,11.564318
1786,39840,Nordbad,48.161034,11.562584
1787,63045,Nordendstraße,48.154903,11.575484
1788,80363,Nordendstraße,48.154823,11.575358
1789,113782,Nordfriedhof,48.17307,11.596954
1790,192535,Nordfriedhof,48.1737,11.597888
1791,353227,Nordfriedhof,48.17312,11.596855
1792,422631,Nordfriedhof,48.173065,11.597637
1793,449868,Nordfriedhof,48.173065,11.597637
1794,54528,Nordfriedhof,48.17392,11.59814
1795,202384,Nusselstraße,48.15016,11.469124
1796,34083,Nusselstraße,48.150055,11.469204
1797,78938,Nymphenburg Süd,48.146362,11.50246
1798,445733,Oberföhring Post,48.172302,11.627155
1799,46951,Oberföhring Post,48.17183,11.626203
1800,218011,Oberhofer Platz,48.1877,11.575799
1801,401902,Oberhofer Platz,48.18751,11.57587
1802,138223,Oberhofer Weg,48.192364,11.574882
1803,258941,Oberhofer Weg,48.19231,11.575008
1804,367875,Obermenzing,48.16411,11.478682
1805,381625,Obermenzing,48.16427,11.478682
1806,158286,Obernzeller Straße,48.092854,11.609926
1807,93394,Obernzeller Straße,48.09271,11.609728
1808,323727,Obersendling,48.09823,11.535554
1809,38401,Obersendling,48.09812,11.535572
1810,452776,Obersendling,48.098473,11.537926
1811,81566,Obersendling,48.0984,11.538105
1812,175932,Oberwiesenfeld,48.18607,11.545759
1813,175941,Oberwiesenfeld,48.185974,11.547645
1814,178356,Oberwiesenfeld,48.18631,11.545687
1815,315195,Oberwiesenfeld,48.18604,11.547654
1816,223136,Odeonsplatz,48.14309,11.577981
1817,256087,Odeonsplatz,48.14272,11.57632
1818,26438,Odeonsplatz,48.14292,11.5764
1819,327267,Odeonsplatz,48.143414,11.577937
1820,363674,Odeonsplatz,48.143383,11.578107
1821,9301,Odeonsplatz,48.143017,11.577658
1822,198570,Odinpark,48.158,11.619555
1823,438419,Odinpark,48.158054,11.619205
1824,187596,Odinstraße,48.159027,11.616447
1825,260823,Odinstraße,48.158375,11.616061
1826,102505,Offenbachstraße,48.1464,11.464776
1827,163039,Offenbachstraße,48.146088,11.465746
1828,317800,Offenbachstraße,48.146626,11.465539
1829,422679,Offenbachstraße,48.146175,11.465656
1830,423630,Offenbachstraße,48.146015,11.465719
1831,281796,Ohlauer Straße,48.183506,11.501014
1832,340042,Ohlauer Straße,48.183643,11.501014
1833,436830,Olschewskibogen,48.200256,11.558937
1834,110775,Olympia-Einkaufszentrum,48.182636,11.530137
1835,153405,Olympia-Einkaufszentrum,48.18214,11.530398
1836,283189,Olympia-Einkaufszentrum,48.182594,11.530245
1837,306992,Olympia-Einkaufszentrum,48.18214,11.529113
1838,323976,Olympia-Einkaufszentrum,48.181763,11.529185
1839,373987,Olympia-Einkaufszentrum,48.18245,11.530173
1840,417107,Olympia-Einkaufszentrum,48.18202,11.530371
1841,47053,Olympia-Einkaufszentrum,48.182068,11.530407
1842,116973,Olympia-Einkaufszentrum Ost,48.18318,11.536731
1843,300349,Olympia-Einkaufszentrum Ost,48.183163,11.536893
1844,29073,Olympia-Einkaufszentrum West,48.183857,11.531431
1845,66840,Olympia-Einkaufszentrum West,48.18416,11.531395
1846,318192,Olympia-Pressestadt,48.17977,11.536848
1847,321627,Olympia-Pressestadt,48.18003,11.536677
1848,136036,Olympiaberg,48.169296,11.549208
1849,8248,Olympiaberg,48.16911,11.549199
1850,123277,Olympiapark Eissportstadion,48.17633,11.559746
1851,161615,Olympiapark Eissportstadion,48.175884,11.559575
1852,236117,Olympiapark Nord,48.186188,11.542462
1853,428924,Olympiapark Nord,48.18661,11.54063
1854,102056,Olympiapark West,48.166534,11.537351
1855,354432,Olympiapark West,48.166126,11.537342
1856,407239,Olympiapark West,48.16492,11.538159
1857,45009,Olympiapark West,48.16644,11.537324
1858,204958,Olympiasee,48.171387,11.546073
1859,353239,Olympiasee,48.17149,11.545957
1860,100641,Olympiazentrum,48.17937,11.555955
1861,185717,Olympiazentrum,48.179314,11.555784
1862,255772,Olympiazentrum,48.17874,11.556808
1863,384694,Olympiazentrum,48.178658,11.556557
1864,391220,Olympiazentrum,48.17939,11.556054
1865,405454,Olympiazentrum,48.17934,11.555865
1866,370473,Opalstraße,48.21613,11.486524
1867,457252,Opalstraße,48.215855,11.486686
1868,190775,Orleansstraße,48.125183,11.599972
1869,224619,Orleansstraße,48.1251,11.599002
1870,373543,Orleansstraße,48.125626,11.600197
1871,57871,Orleansstraße,48.125538,11.599757
1872,266023,Orthstraße,48.15424,11.466671
1873,415764,Orthstraße,48.153866,11.46686
1874,290894,Ortlerstraße,48.120895,11.535006
1875,448611,Ortlerstraße,48.120186,11.534602
1876,251719,Oskar-Maria-Graf-Ring,48.098766,11.657357
1877,55283,Oskar-Maria-Graf-Ring,48.098816,11.657033
1878,168148,Oskar-von-Miller-Ring,48.145367,11.57552
1879,182333,Ostbahnhof,48.128757,11.603395
1880,188750,Ostbahnhof,48.12773,11.603655
1881,24511,Ostbahnhof,48.127934,11.603943
1882,272203,Ostbahnhof,48.128716,11.603628
1883,347882,Ostbahnhof,48.128296,11.604329
1884,396022,Ostbahnhof,48.128056,11.603565
1885,409967,Ostbahnhof,48.128056,11.603709
1886,414788,Ostbahnhof,48.127354,11.602856
1887,445810,Ostbahnhof,48.127934,11.603943
1888,459298,Ostbahnhof,48.127995,11.603862
1889,343364,Ostbahnhof (Bildungszentrum),48.127483,11.602559
1890,206145,Ostbahnhof (Post),48.128822,11.604554
1891,49742,Ostbahnhof (Post),48.12872,11.604796
1892,168427,Ostbahnhof Friedenstraße,48.126686,11.606153
1893,58257,Ostbahnhof Friedenstraße,48.127197,11.607213
1894,250324,Osterangerstraße,48.179558,11.418252
1895,383560,Osterangerstraße,48.179634,11.418225
1896,188981,Osterwaldstraße,48.163322,11.596855
1897,437963,Osterwaldstraße,48.163605,11.595597
1898,136211,Ostfriedhof,48.11873,11.58321
1899,350662,Ostfriedhof,48.1194,11.583991
1900,408326,Ostfriedhof,48.11883,11.584135
1901,448218,Ostfriedhof,48.11947,11.582877
1902,344737,Ostpark Eislaufzentrum,48.110832,11.63215
1903,457713,Ostpark Eislaufzentrum,48.11136,11.631997
1904,228349,Ottilienstraße,48.1141,11.677416
1905,274608,Ottilienstraße,48.114033,11.677506
1906,186558,Otto-Hahn-Ring,48.092175,11.648993
1907,210197,Otto-Hahn-Ring,48.092175,11.648993
1908,68637,Otto-Hahn-Ring,48.09228,11.649074
1909,8764,Otto-Hahn-Ring,48.09228,11.649074
1910,179736,Otto-Meitinger-Straße,48.14918,11.404966
1911,343590,Otto-Meitinger-Straße,48.149216,11.404625
1912,260402,Otto-Warburg-Straße,48.20644,11.457598
1913,387042,Otto-Warburg-Straße,48.205925,11.457571
1914,123133,Ottostraße,48.142418,11.567866
1915,206629,Ottostraße,48.14225,11.567687
1916,291437,Paidarstraße,48.214874,11.544483
1917,29778,Paidarstraße,48.214725,11.545328
1918,110632,Pappelallee,48.200413,11.512683
1919,401764,Pappelallee,48.20049,11.512728
1920,42881,Paracelsusstraße,48.201332,11.590261
1921,435595,Paracelsusstraße,48.201344,11.588869
1922,180868,Paradiesstraße,48.14632,11.592938
1923,277655,Paradiesstraße,48.14636,11.593064
1924,173865,Parkstadt Solln,48.079475,11.503736
1925,367422,Parkstadt Solln,48.080116,11.503538
1926,361107,Partnachplatz,48.116306,11.526472
1927,382790,Partnachplatz,48.116936,11.526418
1928,408106,Partnachplatz,48.116684,11.526571
1929,52977,Partnachplatz,48.11702,11.526445
1930,129923,Parzivalplatz,48.17189,11.585958
1931,149879,Parzivalplatz,48.171207,11.585446
1932,383885,Parzivalplatz,48.171616,11.585887
1933,38686,Parzivalplatz,48.171032,11.585446
1934,106881,Pasing,48.148796,11.460383
1935,146416,Pasing,48.149197,11.459296
1936,177950,Pasing,48.149014,11.459862
1937,18422,Pasing,48.14948,11.459009
1938,251760,Pasing,48.149124,11.460087
1939,28674,Pasing,48.149387,11.458964
1940,289560,Pasing,48.149364,11.459377
1941,316263,Pasing,48.14893,11.459575
1942,320663,Pasing,48.148838,11.461218
1943,348787,Pasing,48.14897,11.460509
1944,367220,Pasing,48.14911,11.46006
1945,439460,Pasing,48.149498,11.461012
1946,45301,Pasing,48.149437,11.458955
1947,4639,Pasing,48.14888,11.460392
1948,89711,Pasing,48.148804,11.459898
1949,148545,Pasing Bf. Nord,48.150772,11.462162
1950,403704,Pasing Bf. Nord,48.15045,11.462449
1951,425776,Pasinger Heuweg,48.18355,11.446791
1952,8866,Pasinger Heuweg,48.182858,11.447546
1953,212494,Pasinger Marienplatz,48.14629,11.45908
1954,314243,Pasinger Marienplatz,48.146267,11.459314
1955,376319,Pasinger Marienplatz,48.146267,11.459314
1956,99860,Pasinger Marienplatz,48.14629,11.45908
1957,174758,Paul-Gerhardt-Allee,48.156372,11.478502
1958,38018,Paul-Gerhardt-Allee,48.156498,11.478798
1959,340677,Paul-Henri-Spaak-Straße,48.13841,11.68922
1960,75621,Paul-Henri-Spaak-Straße,48.138515,11.689462
1961,103862,Paul-Hindemith-Allee,48.20069,11.605344
1962,36442,Paul-Hindemith-Allee,48.200806,11.605991
1963,458941,Paul-Hindemith-Allee,48.200397,11.606207
1964,68910,Paul-Hindemith-Allee,48.20002,11.605425
1965,279004,Paul-Wassermann-Straße,48.135513,11.685501
1966,297865,Paul-Wassermann-Straße,48.135418,11.685546
1967,424853,Paulaner Brauerei,48.17587,11.437027
1968,118400,Pelkovenstraße,48.18145,11.513015
1969,186259,Pelkovenstraße,48.181217,11.512225
1970,207054,Pelkovenstraße,48.18111,11.510868
1971,290569,Pelkovenstraße,48.181038,11.510931
1972,355193,Perlach,48.09374,11.630578
1973,373074,Perlschneiderstraße,48.13539,11.463698
1974,385234,Perlschneiderstraße,48.135536,11.463186
1975,275370,Peschelanger,48.109013,11.654204
1976,299121,Peschelanger,48.10922,11.654868
1977,447499,Peschelanger,48.10922,11.654536
1978,77753,Peslmüllerstraße,48.14127,11.446208
1979,113317,Peter-Anders-Straße,48.153675,11.476786
1980,355139,Peter-Anders-Straße,48.15287,11.476472
1981,127992,Peter-Auzinger-Straße,48.098774,11.582671
1982,341168,Peter-Auzinger-Straße,48.098522,11.582725
1983,401051,Peter-Auzinger-Straße,48.098522,11.582725
1984,78736,Peter-Auzinger-Straße,48.098774,11.582671
1985,126474,Petuelring,48.175426,11.5666
1986,214441,Petuelring,48.175648,11.565872
1987,256061,Petuelring,48.175747,11.565881
1988,293969,Petuelring,48.175083,11.566267
1989,359921,Petuelring,48.175243,11.566187
1990,366148,Petuelring,48.175335,11.56651
1991,424457,Petuelring,48.175365,11.566582
1992,169914,Pfanzeltplatz,48.100628,11.630461
1993,247035,Pfanzeltplatz,48.09979,11.630757
1994,303978,Pfarrer-Grimm-Straße,48.179607,11.461165
1995,451510,Pfarrer-Grimm-Straße,48.17927,11.461488
1996,200522,Phantasiestraße,48.11339,11.701024
1997,301109,Phantasiestraße,48.11302,11.70141
1998,158262,Pilsenseestraße,48.10956,11.519699
1999,52478,Pilsenseestraße,48.10915,11.520534
2000,336250,Pinakotheken,48.146732,11.57084
2001,339257,Pinakotheken,48.149155,11.571433
2002,351075,Pinakotheken,48.148705,11.571873
2003,57448,Pinakotheken,48.149193,11.57199
2004,281366,Pirolstraße,48.179737,11.395767
2005,312893,Pirolstraße,48.179863,11.395579
2006,370118,Pirolstraße,48.179737,11.395767
2007,374493,Pirolstraße,48.179863,11.395579
2008,123649,Planegger Straße,48.140038,11.456637
2009,336762,Planegger Straße,48.140392,11.45758
2010,393197,Planegger Straße,48.140495,11.456754
2011,457132,Planegger Straße,48.139797,11.457374
2012,67986,Planegger Straße,48.140495,11.456754
2013,169184,Plankenfelser Straße,48.149708,11.420579
2014,205852,Plankenfelser Straße,48.150005,11.420633
2015,227043,Plassenburgstraße,48.097404,11.607689
2016,231176,Plassenburgstraße,48.097336,11.60803
2017,204772,Platanenstraße,48.11444,11.483524
2018,288681,Platanenstraße,48.11471,11.483092
2019,37114,Platanenstraße,48.11444,11.483524
2020,53218,Platanenstraße,48.11471,11.483092
2021,184577,Plattlinger Straße,48.078793,11.512746
2022,412952,Plattlinger Straße,48.078922,11.512692
2023,368164,Plettstraße,48.10903,11.644421
2024,48021,Plettstraße,48.10923,11.644232
2025,169834,Poccistraße,48.125538,11.548831
2026,17260,Poccistraße,48.126106,11.551697
2027,243239,Poccistraße,48.12555,11.550322
2028,320116,Poccistraße,48.124973,11.549343
2029,326489,Poccistraße,48.12549,11.550412
2030,344090,Poccistraße,48.12577,11.548777
2031,361209,Polkostraße,48.160374,11.445893
2032,60338,Polkostraße,48.160393,11.446082
2033,138396,Poschingerstraße,48.152573,11.605937
2034,19141,Poschingerstraße,48.152634,11.605802
2035,69578,Posener Platz,48.148384,11.640405
2036,97416,Posener Platz,48.147976,11.640612
2037,113872,Potsdamer Straße,48.16788,11.586426
2038,122495,Potsdamer Straße,48.1673,11.587019
2039,212154,Potsdamer Straße,48.16772,11.586282
2040,415854,Potsdamer Straße,48.166622,11.586057
2041,9829,Potsdamer Straße,48.166786,11.586192
2042,432539,Pregerstraße,48.201244,11.453349
2043,436275,Pregerstraße,48.201317,11.453403
2044,273071,Preußenstraße,48.18638,11.557895
2045,384713,Preußenstraße,48.186478,11.556323
2046,125384,Priel,48.16116,11.621747
2047,319878,Priel,48.160877,11.621783
2048,425600,Prinz-Eugen-Park,48.16248,11.628988
2049,435815,Prinz-Eugen-Park,48.162567,11.629266
2050,75152,Prinz-Eugen-Park,48.162567,11.629149
2051,322151,Prinzregentenplatz,48.139194,11.607024
2052,62486,Prinzregentenplatz,48.139145,11.607024
2053,62673,Prinzregentenplatz,48.139236,11.606934
2054,88380,Prinzregentenplatz,48.13954,11.606925
2055,148485,Pronnerplatz,48.14358,11.496495
2056,322580,Pronnerplatz,48.14381,11.497232
2057,158831,Pulverturm,48.196075,11.564731
2058,447725,Pulverturm,48.19597,11.565028
2059,124162,Pulverturmstraße,48.20166,11.553574
2060,382331,Pulverturmstraße,48.20216,11.553422
2061,452182,Putzbrunner Straße,48.096355,11.646945
2062,73504,Putzbrunner Straße,48.09626,11.64611
2063,96564,Putzbrunner Straße,48.09663,11.646801
2064,103516,Pöllatstraße,48.10512,11.590738
2065,127658,Pöllatstraße,48.10528,11.590711
2066,157869,Pöllatstraße,48.10512,11.590738
2067,240350,Pöllatstraße,48.10528,11.590711
2068,236838,Pörtschacher Straße,48.14419,11.490396
2069,328854,Pörtschacher Straße,48.144493,11.490234
2070,329838,Pühnstraße,48.146667,11.632141
2071,442387,Pühnstraße,48.146847,11.632006
2072,382545,Pündterplatz,48.1626,11.576868
2073,247134,Quiddestraße,48.10858,11.646577
2074,283888,Quiddestraße,48.10908,11.646972
2075,328880,Quiddestraße,48.108223,11.646712
2076,340422,Quiddestraße,48.108547,11.646307
2077,420924,Quiddestraße,48.108223,11.646622
2078,67457,Quiddestraße,48.10881,11.646604
2079,74913,Quiddestraße,48.109222,11.646864
2080,147187,Ramersdorf,48.11569,11.613761
2081,289620,Ramersdorf,48.114742,11.613124
2082,314227,Ramersdorf,48.1155,11.614193
2083,135744,Rangierbahnhof,48.193993,11.496118
2084,137387,Rangierbahnhof,48.194206,11.496199
2085,345191,Rangierbahnhof,48.193993,11.496118
2086,90238,Rangierbahnhof,48.194206,11.496199
2087,150945,Rappelhofstraße,48.1401,11.64805
2088,448236,Rappelhofstraße,48.140095,11.64832
2089,134455,Rathaus Pasing,48.146572,11.461003
2090,183119,Rathaus Pasing,48.146572,11.461003
2091,317003,Rathaus Pasing,48.14672,11.461838
2092,227023,Rathenaustraße,48.20045,11.57367
2093,419625,Rathenaustraße,48.200356,11.573445
2094,124323,Ratzingerplatz,48.099728,11.523588
2095,234671,Ratzingerplatz,48.09959,11.522987
2096,66425,Ratzingerplatz,48.099007,11.523121
2097,119775,Ravensburger Ring,48.150463,11.436703
2098,150708,Ravensburger Ring,48.15018,11.437063
2099,361682,Redwitzstraße,48.155415,11.608389
2100,377968,Redwitzstraße,48.155556,11.608758
2101,122252,Regerplatz,48.124607,11.589381
2102,183458,Regerplatz,48.124405,11.588079
2103,249483,Regerplatz,48.124588,11.589201
2104,403960,Regerplatz,48.124325,11.588186
2105,190065,Regina-Ullmann-Straße,48.169872,11.635186
2106,422762,Regina-Ullmann-Straße,48.169918,11.635348
2107,430879,Regina-Ullmann-Straße,48.17003,11.635024
2108,9157,Regina-Ullmann-Straße,48.169918,11.63506
2109,310135,Reginbaldstraße,48.1689,11.484817
2110,355214,Reginbaldstraße,48.16913,11.484718
2111,340614,Reichenbachplatz,48.133263,11.576733
2112,398179,Reichenbachplatz,48.133312,11.576508
2113,319995,Reitmorstraße/Sammlung Schack,48.141945,11.593621
2114,50376,Reitmorstraße/Sammlung Schack,48.142105,11.593756
2115,119965,Renatastraße,48.156727,11.526831
2116,424890,Renatastraße,48.156544,11.526364
2117,103843,Rennbahnstraße,48.140446,11.662738
2118,350846,Rennbahnstraße,48.140705,11.662315
2119,154737,Richard-Strauss-Straße,48.148647,11.616286
2120,242767,Richard-Strauss-Straße,48.148533,11.616546
2121,248159,Richard-Strauss-Straße,48.148525,11.616672
2122,385026,Richard-Strauss-Straße,48.148983,11.616744
2123,394180,Richard-Strauss-Straße,48.149143,11.616331
2124,436149,Richard-Strauss-Straße,48.148796,11.616708
2125,149496,Ridlerstraße,48.131027,11.53939
2126,301337,Ridlerstraße,48.13056,11.539102
2127,210629,Riedenburger Straße,48.13583,11.623822
2128,340712,Riedenburger Straße,48.135914,11.623903
2129,346615,Riedenburger Straße,48.136173,11.624478
2130,151808,Riederstraße,48.186363,11.445561
2131,268056,Riederstraße,48.185947,11.445687
2132,290597,Riem,48.143436,11.678898
2133,436856,Riem,48.14335,11.679141
2134,374225,Riem (S) Dornach,48.14465,11.681117
2135,149083,Riesenburgstraße,48.148315,11.41376
2136,167977,Riesenburgstraße,48.14887,11.413778
2137,448079,Riesstraße,48.184566,11.53329
2138,229594,Riesstraße Süd,48.176197,11.535868
2139,313729,Riesstraße Süd,48.17645,11.53674
2140,217942,Ringelnatzweg,48.075363,11.523085
2141,223674,Ringelnatzweg,48.075348,11.523409
2142,157808,Robinienstraße,48.20087,11.543962
2143,288603,Robinienstraße,48.199986,11.543549
2144,381252,Robinienstraße,48.200428,11.543342
2145,8924,Robinienstraße,48.200806,11.544124
2146,119651,Rockefellerstraße,48.210712,11.57517
2147,264685,Rockefellerstraße,48.210644,11.575421
2148,160676,Roecklplatz,48.12083,11.561902
2149,418374,Roecklplatz,48.120583,11.561381
2150,24309,Rofanstraße,48.119743,11.650305
2151,91521,Rofanstraße,48.119846,11.650314
2152,168341,Romanplatz,48.15586,11.511326
2153,196318,Romanplatz,48.154945,11.511749
2154,255706,Romanplatz,48.15566,11.512333
2155,266884,Romanplatz,48.154808,11.511326
2156,320526,Romanplatz,48.155178,11.511443
2157,344918,Romanplatz,48.155132,11.511524
2158,35058,Romanplatz,48.15572,11.512198
2159,174209,Rose-Pichler-Weg,48.210815,11.58126
2160,252694,Rose-Pichler-Weg,48.210846,11.582823
2161,104013,Rosenheimer Platz,48.128853,11.594124
2162,218876,Rosenheimer Platz,48.128834,11.593989
2163,137929,Rotkreuzplatz,48.153164,11.534251
2164,163919,Rotkreuzplatz,48.15421,11.533012
2165,176760,Rotkreuzplatz,48.154167,11.532877
2166,264037,Rotkreuzplatz,48.15298,11.5325
2167,267202,Rotkreuzplatz,48.152603,11.533928
2168,447808,Rotkreuzplatz,48.15266,11.533766
2169,53330,Rotkreuzplatz,48.153194,11.533955
2170,62191,Rotkreuzplatz,48.152843,11.533982
2171,150514,Rubensstraße,48.157173,11.450403
2172,378556,Rubensstraße,48.15757,11.450196
2173,168698,Rudolf-Zorn-Straße,48.090675,11.634333
2174,64135,Rudolf-Zorn-Straße,48.090733,11.635492
2175,232611,Rueßstraße,48.1842,11.472492
2176,259625,Rueßstraße,48.18435,11.472618
2177,160829,Rupert-Mayer-Straße,48.096294,11.541061
2178,29463,Rupert-Mayer-Straße,48.09642,11.541133
2179,71226,Ruth-Schaumann-Straße,48.142185,11.647457
2180,146850,Röblingweg,48.204414,11.572843
2181,449662,Röblingweg,48.205097,11.572511
2182,154994,Rümannstraße,48.175808,11.57305
2183,297918,Rümannstraße,48.175617,11.573193
2184,314747,Rümannstraße,48.1764,11.572574
2185,13783,Rümelinstraße,48.16594,11.617858
2186,36407,Rümelinstraße,48.16686,11.618747
2187,153620,Saalburgstraße,48.113865,11.48718
2188,281271,Saalburgstraße,48.113537,11.487952
2189,308204,Saalburgstraße,48.113537,11.487952
2190,98099,Saalburgstraße,48.113865,11.48718
2191,228556,Sadelerstraße,48.16866,11.522304
2192,29723,Sadelerstraße,48.16856,11.522412
2193,218633,Salzmannstraße,48.081276,11.676895
2194,78230,Salzmannstraße,48.081276,11.676733
2195,100043,Sandstraße,48.150517,11.558102
2196,231838,Sandstraße,48.150673,11.558138
2197,167094,Sankt Michael,48.123913,11.632545
2198,247963,Sankt Michael,48.123913,11.632294
2199,182050,Sankt Pius,48.12446,11.613303
2200,186890,Sankt Pius,48.12468,11.61271
2201,248521,Sankt Pius,48.124805,11.612082
2202,51858,Sankt Pius,48.1245,11.613007
2203,169710,Sapporobogen,48.16941,11.537449
2204,222951,Sarasatestraße,48.16455,11.473543
2205,341992,Sarasatestraße,48.164654,11.473337
2206,339466,Scapinellistraße,48.148083,11.454185
2207,48804,Scapinellistraße,48.148365,11.454059
2208,444470,Schatzbogen,48.133278,11.660644
2209,458900,Schatzbogen,48.132946,11.660043
2210,142378,Scheidplatz,48.17155,11.572762
2211,144793,Scheidplatz,48.17127,11.572951
2212,182700,Scheidplatz,48.17155,11.572906
2213,253622,Scheidplatz,48.17155,11.572681
2214,325374,Scheidplatz,48.17148,11.573041
2215,376722,Scheidplatz,48.171535,11.572987
2216,38571,Scheidplatz,48.171608,11.572583
2217,409860,Scheidplatz,48.171394,11.572996
2218,457827,Scheidplatz,48.171783,11.572933
2219,13963,Scheidplatz Süd,48.170177,11.574316
2220,349043,Scheidplatz Süd,48.170723,11.573661
2221,158568,Schellingstraße,48.15107,11.572933
2222,223243,Schellingstraße,48.15081,11.57322
2223,309321,Schellingstraße,48.15124,11.573337
2224,317532,Schellingstraße,48.151,11.573616
2225,255098,Schichtlstraße,48.147182,11.658569
2226,60220,Schichtlstraße,48.14697,11.658426
2227,26350,Schittgablerstraße,48.191265,11.548957
2228,309162,Schittgablerstraße,48.191948,11.548705
2229,368847,Schloss Blutenburg,48.16406,11.455308
2230,422710,Schloss Blutenburg,48.164383,11.454535
2231,175484,Schloss Nymphenburg,48.15906,11.511515
2232,292246,Schloss Nymphenburg,48.15794,11.511434
2233,326127,Schloss Nymphenburg,48.159073,11.511668
2234,198772,Schlörstraße,48.14992,11.536551
2235,455181,Schlörstraße,48.150085,11.537108
2236,248022,Schlösselgarten,48.158726,11.629051
2237,336882,Schlösselgarten,48.158726,11.628934
2238,400082,Schlösselgarten,48.15875,11.628763
2239,129444,Schlüsselbergstraße,48.12987,11.622385
2240,143817,Schlüsselbergstraße,48.12963,11.623382
2241,227880,Schlüsselbergstraße,48.12947,11.622879
2242,291204,Schlüsselbergstraße,48.130047,11.622888
2243,20535,Schmaedelstraße,48.150673,11.474882
2244,92934,Schmaedelstraße,48.151318,11.475466
2245,104917,Schmuckerweg,48.121403,11.671963
2246,166410,Schmuckerweg,48.121056,11.671343
2247,301425,Schmuckerweg,48.12203,11.671478
2248,81214,Schmuckerweg,48.122543,11.671676
2249,273634,Schneemannstraße,48.10531,11.532212
2250,410480,Schneemannstraße,48.106007,11.532661
2251,326696,Schopenhauerstraße,48.17948,11.563806
2252,344619,Schopenhauerstraße,48.179337,11.56404
2253,284484,Schragenhofstraße,48.17248,11.502271
2254,197952,Schrannenhalle,48.13408,11.574694
2255,239694,Schrenkstraße,48.139576,11.541357
2256,377679,Schrenkstraße,48.13966,11.541177
2257,218146,Schumacherring,48.09954,11.640396
2258,220398,Schumacherring,48.099426,11.641492
2259,222100,Schwabing Nord,48.188057,11.591833
2260,253182,Schwabing Nord,48.186672,11.590944
2261,27586,Schwabing Nord,48.187794,11.59186
2262,7973,Schwabing Nord,48.187057,11.591609
2263,292782,Schwabinger Tor,48.172752,11.586282
2264,351361,Schwabinger Tor,48.17269,11.586596
2265,155351,Schwanseestraße,48.10238,11.596361
2266,349215,Schwanseestraße,48.103302,11.596747
2267,419078,Schwanseestraße,48.102913,11.596639
2268,267226,Schwanthalerhöhe,48.133804,11.541007
2269,283333,Schwanthalerhöhe,48.13373,11.541007
2270,328728,Schwanthalerhöhe,48.133636,11.539659
2271,440,Schwanthalerhöhe,48.133312,11.53983
2272,216810,Schwarzhölzlstraße,48.218094,11.524963
2273,318337,Schwarzhölzlstraße,48.218197,11.524954
2274,189105,Schwarzwaldstraße,48.13914,11.628628
2275,325726,Schwarzwaldstraße,48.13903,11.628655
2276,126662,Schweigerstraße,48.126842,11.58303
2277,452057,Schweigerstraße,48.12661,11.583021
2278,194508,Schwester-Eubulina-Platz,48.12337,11.593298
2279,54385,Schwester-Eubulina-Platz,48.12352,11.593136
2280,215494,Schäftlarnstraße,48.11209,11.554428
2281,228859,Schäftlarnstraße,48.112354,11.552811
2282,197511,Schäufeleinstraße,48.141727,11.512369
2283,245241,Schäufeleinstraße,48.14147,11.512099
2284,142558,Seeholzenweg,48.132282,11.469276
2285,60875,Seeholzenweg,48.13265,11.468252
2286,234996,Selma-Lagerlöf-Straße,48.129536,11.70247
2287,80058,Selma-Lagerlöf-Straße,48.12979,11.702748
2288,269152,Sendlinger Kirche,48.121895,11.541222
2289,52726,Sendlinger Kirche,48.122074,11.541043
2290,142666,Sendlinger Tor,48.133427,11.566681
2291,161849,Sendlinger Tor,48.1336,11.567363
2292,215307,Sendlinger Tor,48.13344,11.566519
2293,24234,Sendlinger Tor,48.133366,11.566573
2294,259681,Sendlinger Tor,48.134434,11.565657
2295,313680,Sendlinger Tor,48.132946,11.565773
2296,330608,Sendlinger Tor,48.133167,11.567076
2297,388678,Sendlinger Tor,48.133263,11.565827
2298,421197,Sendlinger Tor,48.132904,11.565109
2299,200121,Senftenauerstraße,48.125763,11.498076
2300,421442,Senftenauerstraße,48.12559,11.497528
2301,153671,Senserstraße,48.122944,11.548714
2302,238387,Senserstraße,48.122986,11.548472
2303,257577,Servetstraße,48.194633,11.456206
2304,371214,Servetstraße,48.194878,11.456664
2305,317512,Siedlung Ludwigsfeld,48.217358,11.489201
2306,417245,Siedlung Ludwigsfeld,48.217358,11.489201
2307,54796,Siedlung Ludwigsfeld,48.21719,11.489758
2308,29001,Siedlung am Haidelweg,48.135777,11.453107
2309,387475,Siedlung am Haidelweg,48.13588,11.453457
2310,193686,Siedlung am Hart,48.201164,11.576877
2311,389863,Siegenburger Straße,48.126015,11.521531
2312,456401,Siegenburger Straße,48.126778,11.523076
2313,172436,Siegestor,48.15142,11.581871
2314,245445,Siegestor,48.151474,11.581611
2315,108355,Siegfried-Mollier-Straße,48.106655,11.646559
2316,390415,Siegfried-Mollier-Straße,48.106476,11.646217
2317,170985,Siegmannstraße,48.137268,11.461335
2318,226130,Siegmannstraße,48.137444,11.460985
2319,221866,Siemensallee,48.09032,11.520813
2320,271803,Siemensallee,48.090607,11.520525
2321,40926,Siemensallee,48.0907,11.521361
2322,303150,Siemenswerke,48.095524,11.532419
2323,60350,Siemenswerke,48.095337,11.531476
2324,137011,Siglstraße,48.13498,11.514201
2325,290887,Siglstraße,48.13498,11.514084
2326,339426,Siglstraße,48.135452,11.51377
2327,438364,Siglstraße,48.1349,11.514327
2328,111358,Sigmund-Riefler-Bogen,48.136417,11.715199
2329,185348,Sigmund-Riefler-Bogen,48.13694,11.715334
2330,438770,Sigmund-Riefler-Bogen,48.13694,11.715334
2331,89463,Sigmund-Riefler-Bogen,48.136417,11.715199
2332,268542,Silberdistelstraße,48.12942,11.479553
2333,423218,Silberdistelstraße,48.12956,11.479526
2334,322931,Silberhorn-/Ichostraße,48.115967,11.57967
2335,77437,Silberhorn-/Ichostraße,48.116096,11.580605
2336,262158,Silberhornstraße,48.11533,11.578601
2337,305493,Silberhornstraße,48.11548,11.579688
2338,379497,Silberhornstraße,48.11558,11.579994
2339,4434,Silberhornstraße,48.114765,11.581063
2340,54225,Silberhornstraße,48.11471,11.581018
2341,133185,Simplonstraße,48.114513,11.66316
2342,71020,Simplonstraße,48.11468,11.66245
2343,200279,Sipplinger Straße,48.149364,11.430999
2344,232765,Sipplinger Straße,48.149185,11.430972
2345,138507,Situlistraße,48.190117,11.615756
2346,49417,Situlistraße,48.19015,11.615405
2347,231071,Skagerrakstraße,48.17269,11.504374
2348,451561,Skagerrakstraße,48.172813,11.504598
2349,152416,Solln,48.079205,11.527415
2350,262429,Solln,48.078835,11.527361
2351,451706,Solln,48.079205,11.527415
2352,48868,Solln,48.078835,11.527361
2353,109980,Solln Bf Wendeschleife,48.081444,11.527577
2354,172301,Solln Bf. Wendeschleife,48.081444,11.527577
2355,124115,Sollner Straße,48.07711,11.525322
2356,212111,Sollner Straße,48.07665,11.525062
2357,294447,Sollner Straße,48.07665,11.525062
2358,374450,Sollner Straße,48.07711,11.525322
2359,178213,Sondermeierstraße,48.19082,11.624038
2360,218169,Sondermeierstraße,48.19081,11.624811
2361,443026,Sonnentaustraße,48.199158,11.5188
2362,453427,Sonnentaustraße,48.199238,11.518711
2363,151453,Soyerhofstraße,48.10179,11.581889
2364,235510,Soyerhofstraße,48.101406,11.582042
2365,415509,Soyerhofstraße,48.101406,11.582042
2366,437712,Soyerhofstraße,48.10179,11.581889
2367,290625,Sperberstraße,48.10765,11.700296
2368,311353,Sperberstraße,48.107468,11.699586
2369,218558,Spertentalstraße,48.117764,11.670203
2370,278502,Spertentalstraße,48.117996,11.66996
2371,280385,Spertentalstraße,48.117878,11.670086
2372,96060,Spertentalstraße,48.117645,11.670203
2373,155446,Spiegelbergstraße,48.197968,11.467579
2374,395974,Spiegelbergstraße,48.197987,11.466923
2375,181972,Spielmannsauer Straße,48.08256,11.493971
2376,314169,Spielmannsauer Straße,48.082195,11.494016
2377,146263,Spindlerplatz,48.090015,11.514147
2378,428001,Spindlerplatz,48.089924,11.51421
2379,111822,Spiridon-Louis-Ring,48.16799,11.554679
2380,292667,Spiridon-Louis-Ring,48.16778,11.55485
2381,222802,Spixstraße,48.11121,11.579913
2382,32918,Spixstraße,48.110832,11.579185
2383,143674,St. Emmeram,48.176113,11.631494
2384,167366,St. Emmeram,48.176556,11.630686
2385,262769,St. Emmeram,48.176785,11.630829
2386,287500,St. Emmeram,48.175976,11.631153
2387,328754,St. Emmeram,48.17643,11.630443
2388,390562,St. Emmeram,48.176556,11.631449
2389,193617,St. Wolfgang,48.15652,11.457589
2390,362778,St. Wolfgang,48.156513,11.457742
2391,143689,St.-Augustinus-Straße,48.11727,11.656333
2392,380491,St.-Augustinus-Straße,48.11724,11.65609
2393,385843,St.-Augustinus-Straße,48.116703,11.655695
2394,415402,St.-Augustinus-Straße,48.116894,11.65644
2395,230567,St.-Cajetan-Straße,48.12135,11.598858
2396,389137,St.-Cajetan-Straße,48.121223,11.599182
2397,354160,St.-Jakobs-Platz,48.135357,11.572286
2398,417022,St.-Jakobs-Platz,48.135338,11.572708
2399,316511,St.-Johann-Straße,48.191753,11.466348
2400,362486,St.-Johann-Straße,48.191795,11.466483
2401,360293,St.-Martin-Straße Ost,48.11888,11.600556
2402,38749,St.-Martin-Straße Ost,48.11924,11.600179
2403,163286,St.-Martins-Platz,48.117184,11.588393
2404,94099,St.-Martins-Platz,48.117268,11.588411
2405,137542,St.-Quirin-Platz,48.10413,11.581575
2406,139728,St.-Quirin-Platz,48.10377,11.582024
2407,163276,St.-Quirin-Platz,48.10413,11.581575
2408,25261,St.-Quirin-Platz,48.104694,11.581206
2409,256842,St.-Quirin-Platz,48.10377,11.582024
2410,27597,St.-Quirin-Platz,48.10465,11.581108
2411,288810,St.-Veit-Straße,48.12198,11.642238
2412,29023,St.-Veit-Straße,48.12225,11.642256
2413,451127,St.-Veit-Straße,48.12199,11.64204
2414,109525,Stadelheimer Straße,48.099983,11.585788
2415,385029,Stadelheimer Straße,48.0999,11.586471
2416,171879,Stadtwerke München,48.171272,11.530586
2417,182683,Staffelseestraße,48.091934,11.506323
2418,443795,Staffelseestraße,48.092667,11.506646
2419,151948,Stahlgruberring,48.13456,11.663438
2420,346008,Stahlgruberring,48.134212,11.663923
2421,218395,Stanigplatz,48.216827,11.55352
2422,64912,Stanigplatz,48.21686,11.553332
2423,157425,Staudingerstraße,48.10964,11.639399
2424,222750,Staudingerstraße,48.10924,11.638905
2425,71597,Staudingerstraße,48.10904,11.639795
2426,117109,Staufener Straße,48.157684,11.430128
2427,237268,Staufener Straße,48.1578,11.430101
2428,303962,Stegener Weg,48.125813,11.508434
2429,77032,Stegener Weg,48.125927,11.508146
2430,414116,Stegmühlstraße,48.162537,11.644996
2431,82170,Stegmühlstraße,48.16243,11.645238
2432,306469,Steinerstraße,48.104294,11.540558
2433,356315,Steinerstraße,48.104523,11.540162
2434,301232,Steirerstraße,48.172626,11.459988
2435,93171,Steirerstraße,48.17292,11.460374
2436,335569,Stephansplatz,48.130783,11.565899
2437,431395,Sternwartstraße,48.146393,11.603592
2438,43778,Sternwartstraße,48.145996,11.603179
2439,197409,Stettnerstraße,48.096573,11.586839
2440,20803,Stettnerstraße,48.096573,11.586839
2441,257598,Stettnerstraße,48.0974,11.586911
2442,261327,Stettnerstraße,48.0974,11.586911
2443,144051,Steubenplatz,48.149982,11.520849
2444,160255,Steubenplatz,48.150536,11.520067
2445,68374,Steubenplatz,48.15058,11.520444
2446,9084,Steubenplatz,48.150257,11.519744
2447,214384,Stiftsbogen,48.120552,11.491321
2448,381444,Stiftsbogen,48.12069,11.491411
2449,173648,Stiglmaierplatz,48.14785,11.556943
2450,259386,Stiglmaierplatz,48.147934,11.556979
2451,394533,Stiglmaierplatz,48.14714,11.558838
2452,440177,Stiglmaierplatz,48.14703,11.558668
2453,138948,Storchenweg,48.19661,11.482266
2454,156934,Storchenweg,48.196644,11.482482
2455,270212,Stridbeckstraße,48.076347,11.519869
2456,371809,Stridbeckstraße,48.07639,11.519169
2457,283867,Stroblstraße,48.135944,11.493585
2458,363660,Stroblstraße,48.136215,11.493288
2459,109846,Studentenstadt,48.183735,11.608093
2460,129886,Studentenstadt,48.184467,11.608875
2461,204862,Studentenstadt,48.183067,11.607967
2462,352850,Studentenstadt,48.18348,11.607707
2463,37729,Studentenstadt,48.184177,11.60856
2464,429169,Studentenstadt,48.184467,11.608875
2465,430229,Studentenstadt,48.183537,11.60759
2466,74552,Studentenstadt,48.183495,11.608165
2467,85924,Studentenstadt,48.18391,11.608273
2468,91402,Studentenstadt,48.183468,11.607832
2469,246580,Stäblistraße,48.086376,11.503188
2470,92592,Stäblistraße,48.0869,11.502846
2471,346284,Ständlerstraße,48.10379,11.605668
2472,356488,Ständlerstraße,48.105545,11.604545
2473,206615,Stösserstraße,48.219795,11.5567
2474,98998,Stösserstraße,48.219746,11.557554
2475,236666,Stücklenstraße,48.171722,11.474064
2476,328738,Sudermannallee,48.097683,11.65273
2477,51072,Sudermannallee,48.09757,11.652542
2478,179141,Sudetendeutsche Straße,48.196205,11.578556
2479,21727,Sudetendeutsche Straße,48.1961,11.578359
2480,349665,Sudetendeutsche Straße,48.1961,11.578359
2481,415456,Sudetendeutsche Straße,48.196205,11.578556
2482,125127,Sumpfmeisenweg,48.179623,11.398417
2483,216095,Sumpfmeisenweg,48.179623,11.398417
2484,405900,Sumpfmeisenweg,48.17976,11.398471
2485,445243,Sumpfmeisenweg,48.17976,11.398471
2486,381537,Sylvensteinstraße,48.11284,11.540225
2487,381763,Sylvensteinstraße,48.11311,11.539246
2488,358744,Säbener Straße,48.094784,11.573984
2489,385426,Säbener Straße,48.09493,11.573786
2490,396084,Säulingstraße,48.127583,11.512503
2491,8675,Säulingstraße,48.127262,11.511479
2492,446877,Südpark,48.10068,11.510662
2493,55523,Südpark,48.101162,11.511542
2494,187896,Südtiroler Straße,48.100716,11.566672
2495,251130,Südtiroler Straße,48.100754,11.566591
2496,209348,Süskindstraße,48.13994,11.647745
2497,25760,Süskindstraße,48.139782,11.647493
2498,261043,Taimerhofstraße,48.166725,11.630677
2499,369350,Taimerhofstraße,48.166683,11.630784
2500,94525,Taimerhofstraße,48.166862,11.630713
2501,178802,Tal,48.13603,11.579589
2502,150598,Tannenweg,48.165447,11.489686
2503,275176,Tannenweg,48.165314,11.489722
2504,295589,Taubenstraße,48.122124,11.579015
2505,353557,Taubenstraße,48.12162,11.578781
2506,259446,Technische Universität,48.1481,11.566106
2507,391659,Technische Universität,48.149586,11.566169
2508,16247,Tegernseer Landstraße,48.11206,11.576266
2509,206491,Tegernseer Landstraße,48.112457,11.576499
2510,83437,Tegernseer Landstraße,48.111946,11.57534
2511,88713,Tegernseer Landstraße,48.112167,11.576607
2512,20195,Terofalstraße,48.12573,11.475942
2513,240508,Terofalstraße,48.125847,11.475313
2514,338191,Terofalstraße,48.12558,11.474702
2515,161083,Tessiner Straße,48.090717,11.475178
2516,333251,Tettnanger Straße,48.152058,11.440557
2517,435866,Tettnanger Straße,48.152058,11.440746
2518,394029,Thalkirchen (Tierpark),48.10271,11.545983
2519,401348,Thalkirchen (Tierpark),48.10271,11.546064
2520,439580,Thalkirchen (Tierpark),48.10101,11.546684
2521,37359,Theodolindenplatz,48.090298,11.556844
2522,390470,Theodolindenplatz,48.090374,11.557096
2523,13747,Theodolindenstraße,48.088406,11.559467
2524,414003,Theodolindenstraße,48.088657,11.559719
2525,237298,Therese-Giehse-Allee,48.09479,11.642714
2526,398654,Therese-Giehse-Allee,48.094753,11.642849
2527,451325,Theresienhöhe,48.132557,11.545974
2528,227902,Theresienstraße,48.151432,11.564354
2529,415088,Theresienstraße,48.1514,11.564453
2530,24124,Theresienwiese,48.135674,11.552326
2531,345626,Theresienwiese,48.135754,11.552209
2532,122700,Thiemestraße,48.156586,11.58868
2533,287369,Thiemestraße,48.15672,11.588716
2534,114133,Thomas-Dehler-Straße,48.097446,11.644169
2535,44764,Thomas-Dehler-Straße,48.097286,11.644529
2536,222662,Thomas-Hauser-Straße,48.129414,11.650709
2537,23244,Thomas-Hauser-Straße,48.129513,11.650808
2538,371076,Thomasiusplatz,48.115643,11.601643
2539,425298,Thomasiusplatz,48.116116,11.602083
2540,59446,Thomasiusplatz,48.116337,11.603494
2541,95281,Thomasiusplatz,48.11594,11.602838
2542,218091,Thuillestraße,48.1737,11.469546
2543,144539,Tierheim,48.139996,11.668415
2544,351755,Tierheim,48.1397,11.670158
2545,58965,Tierheim,48.139378,11.66899
2546,24292,Tierpark (Alemannenstr.),48.100826,11.559171
2547,423488,Tierpark (Alemannenstr.),48.10061,11.558731
2548,206490,Tiroler Platz,48.0962,11.563743
2549,382125,Tiroler Platz,48.09622,11.563635
2550,279604,Tischlerstraße,48.095158,11.480577
2551,152399,Tivolistraße,48.150146,11.596253
2552,409974,Tivolistraße,48.149822,11.596289
2553,416858,Tivolistraße,48.149822,11.596127
2554,89904,Tivolistraße,48.150284,11.596388
2555,191940,Togostraße,48.106506,11.697386
2556,335886,Togostraße,48.106453,11.697035
2557,447340,Toni-Merkens-Weg,48.170696,11.541672
2558,66423,Toni-Merkens-Weg,48.17074,11.54151
2559,203390,Trabrennbahn,48.142857,11.661282
2560,396276,Trabrennbahn,48.142918,11.661462
2561,232843,Trappentreustraße,48.13944,11.533964
2562,25943,Trappentreustraße,48.140022,11.535132
2563,283312,Trappentreustraße,48.13971,11.534808
2564,292568,Trappentreustraße,48.140266,11.533102
2565,37900,Trappentreustraße,48.13993,11.535267
2566,96266,Trappentreustraße,48.14044,11.534377
2567,134978,Traunsteiner Straße,48.1048,11.586929
2568,162802,Traunsteiner Straße,48.1048,11.586929
2569,355540,Traunsteiner Straße,48.1046,11.587845
2570,68797,Traunsteiner Straße,48.1046,11.587845
2571,120481,Trenkleweg,48.210026,11.57208
2572,347992,Trenkleweg,48.210045,11.571487
2573,133917,Tribulaunstraße,48.093884,11.654455
2574,368059,Tribulaunstraße,48.094357,11.653395
2575,369235,Tribulaunstraße,48.094585,11.653952
2576,420293,Tribulaunstraße,48.094357,11.654123
2577,230872,Truchthari-Anger,48.129215,11.676769
2578,98636,Truchthari-Anger,48.128983,11.676338
2579,105961,Trudering,48.125225,11.664022
2580,361205,Trudering,48.125435,11.66351
2581,368746,Trudering,48.125656,11.66227
2582,408348,Trudering,48.125572,11.663007
2583,5192,Trudering,48.12577,11.662324
2584,93806,Trudering,48.125565,11.663591
2585,167513,Truderinger Straße,48.126087,11.661049
2586,458732,Truderinger Straße,48.1259,11.661354
2587,228507,"Truderinger Straße, Brücke",48.12769,11.656216
2588,76643,"Truderinger Straße, Brücke",48.1277,11.655578
2589,254518,Tubeufstraße,48.191326,11.473445
2590,262532,Tubeufstraße,48.191757,11.473588
2591,244228,Tumblingerstraße,48.12309,11.55405
2592,315254,Tumblingerstraße,48.123363,11.553727
2593,16636,Turnerstraße,48.112072,11.690738
2594,50675,Turnerstraße,48.11139,11.690756
2595,146271,Tölzer Straße,48.100704,11.53833
2596,435988,Tölzer Straße,48.100494,11.537809
2597,74076,Tölzer Straße,48.10004,11.538141
2598,276270,Türkenstraße,48.150307,11.575691
2599,352459,Türkenstraße,48.150257,11.576167
2600,243145,Ubostraße,48.156853,11.415701
2601,249663,Ubostraße,48.15675,11.415683
2602,350855,Ubostraße,48.157257,11.415871
2603,447251,Ubostraße,48.156857,11.415889
2604,331184,Umschlagbahnhof,48.1445,11.705767
2605,356301,Umschlagbahnhof,48.144337,11.705875
2606,288253,Ungsteiner Straße,48.115135,11.596783
2607,316140,Ungsteiner Straße,48.114956,11.597457
2608,100263,Universität,48.149406,11.580955
2609,101088,Universität,48.150074,11.580946
2610,129484,Universität,48.149166,11.580119
2611,137592,Universität,48.14882,11.580299
2612,152222,Universität,48.149036,11.580182
2613,283203,Universität,48.150055,11.581045
2614,387019,Untere Länge,48.205894,11.594133
2615,95331,Untere Länge,48.205727,11.594313
2616,15531,Untermenzing,48.177586,11.47428
2617,181746,Untermenzing,48.17758,11.474433
2618,456870,Untermenzing,48.177666,11.473813
2619,95625,Untermenzing,48.177826,11.473732
2620,274987,Untermenzinger Straße,48.17776,11.495112
2621,71079,Untermenzinger Straße,48.17838,11.494267
2622,75129,Untermenzinger Straße,48.178463,11.495211
2623,316999,Untersbergstraße,48.11254,11.587737
2624,410551,Untersbergstraße,48.11248,11.587674
2625,133691,Ursberger Straße,48.131096,11.644933
2626,279661,Ursberger Straße,48.130806,11.645391
2627,57534,Valeppstraße,48.110928,11.584494
2628,92076,Valeppstraße,48.11093,11.583982
2629,215230,Varnhagenstraße,48.150486,11.448552
2630,231770,Varnhagenstraße,48.150696,11.449451
2631,150451,Veldener Straße,48.145237,11.482149
2632,36369,Veldener Straße,48.144875,11.483551
2633,121908,Veldensteinstraße,48.140594,11.425196
2634,266468,Veldensteinstraße,48.140488,11.425133
2635,137894,Vesaliusstraße,48.18917,11.460644
2636,276635,Vesaliusstraße,48.18833,11.460679
2637,75950,Vesaliusstraße,48.188812,11.461443
2638,123589,Viktualienmarkt,48.13518,11.575053
2639,140022,Viktualienmarkt,48.135086,11.574855
2640,135469,Vinzenz-Schüpfer-Straße,48.083534,11.483874
2641,351812,Vinzenz-Schüpfer-Straße,48.08343,11.483766
2642,395310,Vogelloh,48.2134,11.467435
2643,159435,Vogelweideplatz,48.137257,11.62022
2644,330771,Vogelweideplatz,48.137226,11.619448
2645,376550,Vogelweideplatz,48.13749,11.619735
2646,383103,Vogelweideplatz,48.13715,11.620355
2647,252545,Vogesenstraße,48.109386,11.671047
2648,362187,Vogesenstraße,48.109673,11.671505
2649,452883,Vogesenstraße,48.109474,11.671846
2650,138875,Volkartstraße,48.155262,11.532626
2651,53679,Volkartstraße,48.155155,11.532572
2652,246162,Volkartstraße Ost,48.15627,11.537557
2653,1194,Vollmannstraße,48.146942,11.628143
2654,247602,Vollmannstraße,48.147243,11.629167
2655,91991,Vollmannstraße,48.147682,11.627928
2656,113020,Volmstraße,48.150738,11.454535
2657,142621,Volmstraße,48.150875,11.45449
2658,323251,Von-Erckert-Straße,48.11122,11.709836
2659,328784,Von-Erckert-Straße,48.111652,11.708884
2660,32282,Von-Kahr-Straße,48.177,11.462566
2661,362749,Von-Kahr-Straße,48.177345,11.463168
2662,240494,Von-Reuter-Straße,48.181145,11.475133
2663,69078,Von-Reuter-Straße,48.18169,11.475142
2664,142203,Von-der-Tann-Straße,48.14493,11.578817
2665,299956,Von-der-Tann-Straße,48.145668,11.579167
2666,451705,Von-der-Tann-Straße,48.14493,11.578493
2667,227368,Wahnfriedallee,48.161873,11.619403
2668,252747,Wahnfriedallee,48.16198,11.619232
2669,1748,Waldfriedhof,48.11209,11.502846
2670,355689,Waldfriedhof,48.112247,11.501723
2671,404625,Waldfriedhof,48.112637,11.502514
2672,414066,Waldfriedhof,48.112907,11.502523
2673,43328,Waldfriedhof,48.112247,11.501723
2674,6093,Waldfriedhof,48.111576,11.502164
2675,228347,Waldfriedhof (Wendeschleife),48.112312,11.503098
2676,314118,Waldfriedhof (Wendeschleife),48.112312,11.503098
2677,304652,Waldfriedhof Haupteingang,48.108173,11.502038
2678,84693,Waldfriedhof Haupteingang,48.10716,11.502343
2679,442373,Waldfriedhof Solln,48.069134,11.517013
2680,12736,Waldheimplatz,48.08514,11.675026
2681,166747,Waldheimplatz,48.086,11.67438
2682,287760,Waldheimplatz,48.085392,11.674892
2683,436823,Waldheimplatz,48.08514,11.675026
2684,53782,Waldheimplatz,48.08553,11.67491
2685,126049,Waldhornstraße,48.179592,11.489246
2686,418682,Waldhornstraße,48.179802,11.489857
2687,727,Waldhornstraße,48.179348,11.490216
2688,138714,Waldhüterstraße,48.114716,11.46695
2689,151874,Waldhüterstraße,48.114716,11.46695
2690,388697,Waldhüterstraße,48.114647,11.4673
2691,85633,Waldhüterstraße,48.114647,11.4673
2692,198771,Waldperlach,48.08226,11.672448
2693,324316,Waldperlach,48.08226,11.672448
2694,445765,Waldperlach,48.081985,11.672637
2695,423933,Waldperlach (Süd),48.08131,11.672664
2696,191703,Wallnerstraße,48.21053,11.633515
2697,54876,Wallnerstraße,48.210194,11.633003
2698,275995,Waltherstraße,48.127567,11.563752
2699,305919,Waltherstraße,48.12751,11.563941
2700,112887,Warthestraße,48.146328,11.636884
2701,231093,Warthestraße,48.146183,11.637585
2702,84718,Wasserburger Landstraße,48.12132,11.665307
2703,89694,Wasserburger Landstraße,48.12111,11.665145
2704,290141,Wastl-Witt-Straße,48.1266,11.469609
2705,10309,Weddigenstraße,48.1037,11.624604
2706,64686,Weddigenstraße,48.103897,11.624658
2707,33592,Wehnerstraße,48.140404,11.448004
2708,359317,Wehnerstraße,48.140636,11.448148
2709,111714,Wehrlestraße,48.14827,11.607994
2710,333010,Wehrlestraße,48.14819,11.608165
2711,42061,Weidener Straße,48.092503,11.628188
2712,435638,Weidener Straße,48.09254,11.628009
2713,289032,Weinbergerstraße,48.140316,11.462207
2714,327153,Weinbergerstraße,48.14047,11.460913
2715,76856,Weitlstraße,48.208523,11.563033
2716,71471,Weltistraße,48.087494,11.507104
2717,75955,Weltistraße,48.0875,11.50732
2718,151578,Werdenfelsstraße,48.112595,11.507374
2719,359345,Werdenfelsstraße,48.112473,11.508281
2720,337889,Werinherstraße,48.11448,11.592813
2721,366283,Werinherstraße,48.11467,11.59248
2722,378064,Werinherstraße,48.114574,11.592354
2723,387821,Werinherstraße,48.115246,11.592363
2724,186230,Werner-Egk-Bogen,48.20159,11.597726
2725,390005,Werner-Egk-Bogen,48.201317,11.598382
2726,250721,Wertheimer Straße,48.148396,11.425501
2727,314340,Wertheimer Straße,48.148647,11.42596
2728,201065,Westbad,48.142235,11.475529
2729,267784,Westbad,48.141544,11.473148
2730,277209,Westbad,48.141724,11.473373
2731,311397,Westbad,48.14231,11.475475
2732,128444,Westendstraße,48.13479,11.52145
2733,176846,Westendstraße,48.134686,11.523508
2734,186753,Westendstraße,48.13457,11.522097
2735,389237,Westendstraße,48.13478,11.522349
2736,442092,Westendstraße,48.134716,11.52145
2737,88925,Westendstraße,48.13439,11.52216
2738,91602,Westerlandanger,48.16222,11.662585
2739,1861,Westfriedhof,48.169247,11.527505
2740,193811,Westfriedhof,48.16986,11.5287
2741,196162,Westfriedhof,48.170135,11.528565
2742,213024,Westfriedhof,48.170135,11.52843
2743,238129,Westfriedhof,48.169647,11.528655
2744,260779,Westfriedhof,48.16932,11.527864
2745,312985,Westfriedhof,48.169285,11.528197
2746,317633,Westfriedhof,48.16934,11.528197
2747,43826,Westfriedhof,48.170303,11.528529
2748,388721,Westkreuz,48.149197,11.441024
2749,452620,Westkreuz,48.14934,11.441051
2750,246840,Westpark,48.118404,11.517112
2751,294295,Westpark,48.11835,11.51748
2752,397763,Westpark,48.11797,11.516591
2753,92841,Westpark,48.1179,11.516582
2754,14147,Wettersteinplatz,48.1083,11.575691
2755,228246,Wettersteinplatz,48.108234,11.575619
2756,249457,Wettersteinplatz,48.10941,11.574981
2757,432643,Wettersteinplatz,48.10916,11.574649
2758,333136,Weyprechtstraße,48.204987,11.563968
2759,47388,Weyprechtstraße,48.20499,11.563537
2760,48062,Weyprechtstraße,48.2046,11.564228
2761,212797,Whistlerweg,48.07194,11.523804
2762,305763,Whistlerweg,48.071857,11.52402
2763,113567,Wiesentfelser Straße,48.14654,11.414776
2764,22765,Wiesentfelser Straße,48.14655,11.41403
2765,259159,Wiesentfelser Straße,48.14641,11.415054
2766,45201,Wiesentfelser Straße,48.14641,11.414048
2767,260665,Wildanger,48.11968,11.473489
2768,384475,Wilhelm-Busch-Straße,48.08228,11.505919
2769,420598,Wilhelm-Busch-Straße,48.082268,11.506503
2770,121129,Wilhelm-Dieß-Weg,48.15521,11.637288
2771,55996,Wilhelm-Dieß-Weg,48.15506,11.637495
2772,291889,Wilhelm-Hale-Straße,48.1456,11.520328
2773,325941,Wilhelm-Hale-Straße,48.145336,11.520004
2774,18336,Wilhelm-Hertz-Straße,48.17564,11.58568
2775,215879,Wilhelm-Hertz-Straße,48.176018,11.585159
2776,100258,Wilhelm-Hoegner-Straße,48.09866,11.636255
2777,261079,Wilhelm-Hoegner-Straße,48.09866,11.637288
2778,350658,Wilhelm-Hoegner-Straße,48.099026,11.635851
2779,96946,Wilhelm-Hoegner-Straße,48.099182,11.636623
2780,268854,Wilhelm-Kuhnert-Straße,48.10391,11.561812
2781,357851,Wilhelm-Kuhnert-Straße,48.103523,11.56139
2782,234586,Willi-Wien-Straße,48.177395,11.468531
2783,290480,Willi-Wien-Straße,48.177593,11.467453
2784,163166,Willibaldplatz,48.14086,11.488779
2785,244848,Willibaldplatz,48.14093,11.488806
2786,398856,Willibaldplatz,48.140465,11.488662
2787,426850,Willibaldstraße,48.1301,11.483901
2788,88086,Willibaldstraße,48.13013,11.482455
2789,381960,Winfriedstraße,48.147408,11.503403
2790,402377,Winfriedstraße,48.147408,11.503161
2791,245777,Winterstraße,48.11531,11.57278
2792,317574,Winterstraße,48.115906,11.572915
2793,200658,Winthirplatz,48.151974,11.527891
2794,457569,Winthirplatz,48.151882,11.528116
2795,176522,Wintrichring,48.17522,11.521325
2796,270183,Wintrichring,48.176094,11.521531
2797,411622,Wintrichring,48.176025,11.52145
2798,77475,Wintrichring,48.17527,11.520651
2799,131626,Winzererstraße,48.15773,11.560374
2800,375593,Winzererstraße,48.157715,11.559988
2801,394155,Woferlstraße,48.10876,11.618711
2802,58643,Woferlstraße,48.108433,11.619061
2803,223621,Wolframstraße,48.09496,11.635968
2804,56093,Wolframstraße,48.094887,11.635537
2805,17666,Wolfratshauser Straße,48.09002,11.537908
2806,385915,Wolfratshauser Straße,48.089577,11.53718
2807,424667,Wolfratshauser Straße,48.090405,11.536345
2808,127809,Wolkerweg,48.120647,11.486668
2809,272909,Wolkerweg,48.120506,11.486524
2810,215969,Wöhlerstraße,48.164864,11.462746
2811,6862,Wöhlerstraße,48.164696,11.464183
2812,154331,Wörthstraße,48.131855,11.597457
2813,343462,Wörthstraße,48.13201,11.598104
2814,3737,Wörthstraße,48.131756,11.598229
2815,439522,Wörthstraße,48.131832,11.59761
2816,184051,Zamdorf Siedlung,48.13992,11.644079
2817,205020,Zamdorf Siedlung,48.140057,11.643055
2818,86572,Zamdorfer Straße,48.13822,11.635204
2819,169638,Zamilapark,48.142384,11.649775
2820,236678,Zauberwaldstraße,48.114033,11.671784
2821,58491,Zauberwaldstraße,48.11365,11.671802
2822,262987,Zaubzerstraße,48.139477,11.614785
2823,375151,Zaubzerstraße,48.13941,11.614848
2824,299539,Zaunerstraße,48.178158,11.480344
2825,62196,Zaunerstraße,48.178013,11.48126
2826,408322,Zaunweg,48.180916,11.601257
2827,45215,Zaunweg,48.180546,11.601535
2828,23173,Zenettistraße,48.122692,11.559512
2829,425615,Zentralländstraße,48.100555,11.548157
2830,320642,Ziegeleistraße,48.176373,11.403376
2831,59872,Ziegeleistraße,48.17628,11.403547
2832,255295,Zielstattstraße,48.102806,11.530065
2833,398161,Zielstattstraße,48.10235,11.530056
2834,234,Zinckgrafstraße,48.115078,11.471324
2835,351067,Zinckgrafstraße,48.11503,11.47198
2836,402310,Zinckgrafstraße,48.115078,11.471324
2837,94011,Zinckgrafstraße,48.114956,11.471324
2838,283869,Zoppoter Straße,48.15037,11.640711
2839,50427,Zoppoter Straße,48.150803,11.640657
2840,123100,Zöllerstraße,48.10524,11.475169
2841,154646,Zöllerstraße,48.10524,11.475169
2842,360879,Zöllerstraße,48.105267,11.475313
2843,440056,Zöllerstraße,48.105267,11.475313
2844,231315,Züricher Straße,48.094456,11.503493
2845,303948,Züricher Straße,48.094994,11.505173
2846,411370,Züricher Straße,48.094208,11.504679
2847,110505,Überlinger Weg,48.14416,11.433883
2848,304835,Überlinger Weg,48.144997,11.434808
2849,387730,Überlinger Weg,48.145008,11.435015
