node_id,stop_id,stop_name,stop_lat,stop_lon
0,135086,Abzw. Betriebshof ViP,52.373314,13.111493
1,311151,Abzw. Betriebshof ViP,52.37351,13.111168
2,46466,Abzw. Betriebshof ViP,52.373863,13.112981
3,66726,Abzweig nach Eiche,52.40628,13.014934
4,70245,Abzweig nach Eiche,52.405197,13.014172
5,20624,Abzweig nach Nedlitz,52.432087,13.008381
6,252688,Abzweig nach Nedlitz,52.432735,13.008725
7,378044,Abzweig nach Nedlitz,52.43262,13.009293
8,194935,Alt Nowawes,52.393192,13.087083
9,409335,Alt Nowawes,52.39308,13.086541
10,75288,Alt Nowawes,52.393383,13.084955
11,84955,Alt Nowawes,52.393593,13.084102
12,24913,Alt-Golm,52.405087,12.960668
13,384949,Alt-Golm,52.405087,12.960669
14,117283,Alter Markt/Landtag,52.395138,13.059236
15,128829,Alter Markt/Landtag,52.394753,13.059265
16,275262,Alter Markt/Landtag,52.394302,13.061172
17,394266,Alter Markt/Landtag,52.394276,13.060943
18,426299,Alter Markt/Landtag,52.395138,13.059236
19,19778,Alter Tornow,52.383022,13.044689
20,345382,Alter Tornow,52.382828,13.045753
21,200622,Am Alten Mörtelwerk,52.405293,12.996269
22,314763,Am Alten Mörtelwerk,52.405354,12.996355
23,260891,Am Anger,52.466225,13.107101
24,287376,Am Anger,52.466057,13.107054
25,293756,Am Fenn,52.367874,13.09924
26,325603,Am Fenn,52.368237,13.098637
27,191711,Am Findling/Willi-Frohwein-Platz,52.38737,13.102364
28,399405,Am Findling/Willi-Frohwein-Platz,52.38739,13.101999
29,300618,Am Gehölz,52.38688,13.133526
30,313926,Am Gehölz,52.386852,13.133557
31,335992,Am Gehölz,52.386887,13.133787
32,435920,Am Gehölz,52.386868,13.133777
33,153420,Am Grünen Weg,52.405434,13.000779
34,160813,Am Grünen Weg,52.405506,13.001244
35,114929,Am Havelblick,52.386612,13.065305
36,357438,Am Havelblick,52.386555,13.065361
37,103450,Am Hirtengraben,52.361816,13.137127
38,270724,Am Hirtengraben,52.361843,13.137086
39,295180,Am Hirtengraben,52.362106,13.137115
40,331538,Am Hirtengraben,52.36208,13.137188
41,250207,Am Hämphorn,52.432865,13.101431
42,44750,Am Hämphorn,52.43304,13.101837
43,323333,Am Küssel,52.430824,12.965449
44,92114,Am Küssel,52.430756,12.965608
45,136623,Am Moosfenn,52.363804,13.094757
46,237631,Am Moosfenn,52.363384,13.095346
47,285531,Am Moosfenn,52.36358,13.095035
48,332540,Am Moosfenn,52.363636,13.095361
49,63394,Am Neuen Garten/Gr. Weinm.str.,52.411957,13.063698
50,189996,Am Park,52.47327,13.111188
51,226810,Am Park,52.47325,13.111213
52,343074,Am Park,52.473915,13.111733
53,385857,Am Park,52.47389,13.111767
54,13043,Am Pfingstberg,52.419724,13.055316
55,149730,Am Pfingstberg,52.419724,13.055316
56,23945,Am Pfingstberg,52.419563,13.055312
57,255861,Am Pfingstberg,52.41981,13.055427
58,14701,Am Schlahn,52.46798,13.094326
59,136687,Am Schragen,52.412994,13.054713
60,289528,Am Schragen,52.41303,13.05454
61,346293,Am Schragen,52.41323,13.054324
62,417850,Am Schragen,52.41319,13.054612
63,162039,Am Schragen/ Russische Kolonie,52.412308,13.056299
64,296881,Am Schragen/ Russische Kolonie,52.41215,13.056344
65,218893,Am Schragen/Russische Kolonie,52.412216,13.056332
66,224032,Am Schragen/Russische Kolonie,52.412216,13.056332
67,359763,Am Upstall,52.47448,13.014278
68,374108,Am Upstall,52.47501,13.014223
69,131362,Am Urnenfeld,52.40432,12.972119
70,447526,Am Urnenfeld,52.404186,12.972245
71,255358,Am Wald,52.466377,12.9618
72,259908,Am Wald,52.466393,12.961903
73,379314,Am Wald,52.46644,12.961809
74,422394,Am Wald,52.466385,12.961888
75,102875,Amundsenstr./Nedlitzer Str.,52.43557,13.052026
76,308946,Amundsenstr./Nedlitzer Str.,52.435455,13.052113
77,170520,Amundsenstr./Potsdamer Str.,52.41669,13.021288
78,337186,Amundsenstr./Potsdamer Str.,52.416687,13.02128
79,392902,Amundsenstr./Potsdamer Str.,52.41759,13.018138
80,398562,Amundsenstr./Potsdamer Str.,52.41763,13.018083
81,439232,An der Brauerei,52.357506,13.107318
82,75459,An der Brauerei,52.35762,13.107892
83,110994,An der Windmühle,52.474113,12.998465
84,374384,An der Windmühle,52.474243,12.998293
85,347338,Anhaltstr.,52.392025,13.099325
86,437661,Anhaltstr.,52.392094,13.09993
87,267802,Auf dem Kiewitt,52.394962,13.039832
88,285756,Auf dem Kiewitt,52.394653,13.038249
89,322693,Auf dem Kiewitt,52.389175,13.039316
90,334730,Auf dem Kiewitt,52.394997,13.039843
91,410592,Auf dem Kiewitt,52.389175,13.039316
92,46528,Auf dem Kiewitt,52.394653,13.038249
93,190020,Bassewitz,52.448395,13.046111
94,247365,Bassewitz,52.448257,13.046039
95,260434,Bassewitz,52.448307,13.04604
96,263263,Bassewitz,52.448338,13.046148
97,167825,Bassinplatz,52.4003,13.061717
98,440298,Bassinplatz,52.400337,13.061697
99,317615,Baumschulenweg,52.404694,12.989917
100,433383,Baumschulenweg,52.40468,12.990998
101,211285,Betriebshof ViP,52.37582,13.114273
102,438882,Betriebshof ViP,52.376167,13.11197
103,117726,Bhf Charlottenhof,52.393253,13.036575
104,391099,Bhf Charlottenhof,52.39316,13.036498
105,245316,Bhf Charlottenhof/Geschw.-Scholl-Str.,52.39366,13.034789
106,367992,Bhf Charlottenhof/Geschw.-Scholl-Str.,52.39366,13.034789
107,189383,Bhf Golm,52.410557,12.972094
108,286416,Bhf Golm,52.410484,12.972022
109,175022,Bhf Medienstadt Babelsberg,52.38382,13.121767
110,310306,Bhf Medienstadt Babelsberg,52.3839,13.121982
111,31403,Bhf Medienstadt Babelsberg,52.382637,13.121379
112,339542,Bhf Medienstadt Babelsberg,52.383472,13.121006
113,3841,Bhf Medienstadt Babelsberg,52.38338,13.120691
114,9483,Bhf Medienstadt Babelsberg,52.382317,13.120736
115,25469,Bhf Medienstadt Babelsberg/Wagnerstr. 1,52.383022,13.122184
116,4572,Bhf Medienstadt Babelsberg/Wagnerstr. 2,52.383022,13.122184
117,159030,Bhf Park Sanssouci,52.394627,13.015115
118,218930,Bhf Park Sanssouci,52.39492,13.015101
119,236742,Bhf Park Sanssouci,52.39405,13.015165
120,163031,Bhf Pirschheide,52.37412,13.011042
121,251688,Bhf Pirschheide,52.374588,13.012271
122,287343,Bhf Pirschheide,52.374012,13.01053
123,419860,Bhf Pirschheide,52.373894,13.010799
124,337823,Bhf Rehbrücke,52.360138,13.097561
125,351709,Bhf Rehbrücke,52.359337,13.097425
126,374940,Bhf Rehbrücke,52.35996,13.097926
127,76780,Bhf Rehbrücke,52.3598,13.098258
128,36124,Birkenstr./Alleestr.,52.409485,13.061965
129,44593,Birkenstr./Alleestr.,52.40932,13.061116
130,135490,Birkenweg,52.469498,13.10173
131,31431,Birkenweg,52.469673,13.101807
132,151235,Bisamkiez,52.37335,13.101264
133,40977,Bisamkiez,52.37339,13.100815
134,124094,Brandenburger Str.,52.40078,13.057765
135,208043,Brandenburger Str.,52.40088,13.057741
136,222756,Brandenburger Str.,52.400932,13.057713
137,278953,Brandenburger Str.,52.40078,13.057765
138,362250,Brandenburger Str.,52.400665,13.057796
139,9874,Brandenburger Str.,52.40067,13.057755
140,378978,Brentanoweg,52.406963,13.046368
141,445440,Brentanoweg,52.40682,13.045997
142,282540,Bullenwinkel,52.463215,13.080074
143,57515,Bullenwinkel,52.462753,13.078466
144,191874,Burgstr./Klinikum,52.398376,13.065247
145,21355,Burgstr./Klinikum,52.39837,13.064781
146,291958,Burgstr./Klinikum,52.398376,13.065247
147,363936,Burgstr./Klinikum,52.39837,13.064781
148,173083,Camp. Universität/Lindenallee,52.401814,13.010845
149,63083,Camp. Universität/Lindenallee,52.40177,13.010919
150,121885,Campus Fachhochschule,52.413998,13.049905
151,196122,Campus Fachhochschule,52.414154,13.050546
152,220497,Campus Fachhochschule,52.414783,13.04998
153,414777,Campus Fachhochschule,52.414,13.051047
154,123306,Campus Jungfernsee,52.432285,13.055271
155,173717,Campus Jungfernsee,52.432285,13.055271
156,187057,Campus Jungfernsee,52.432285,13.055271
157,211825,Campus Jungfernsee,52.432285,13.055271
158,273540,Campus Jungfernsee,52.43283,13.053166
159,332249,Campus Jungfernsee,52.432316,13.05355
160,134111,Campus Jungfernsee/Nedlitzer Str.,52.432648,13.053261
161,307593,Campus Jungfernsee/Nedlitzer Str.,52.432648,13.053261
162,264046,Chopinstr.,52.380905,13.135343
163,299202,Chopinstr.,52.380882,13.134784
164,424836,Chopinstr.,52.380947,13.135335
165,83099,Chopinstr.,52.380875,13.134837
166,44299,Clara-Schumann-Str./Trebbiner Str.,52.357334,13.133739
167,136012,Dortustr.,52.399082,13.051794
168,137083,Dortustr.,52.39914,13.05288
169,32257,Dortustr.,52.39941,13.054616
170,353960,Dortustr.,52.399143,13.052881
171,44152,Dortustr.,52.399296,13.053903
172,57054,Dortustr.,52.399036,13.052263
173,93536,Dortustr.,52.399296,13.053902
174,208344,Drachenhaus,52.40499,13.02121
175,317521,Drachenhaus,52.405075,13.020808
176,16603,Drewitz-Ort,52.363953,13.12815
177,236929,Drewitz-Ort,52.36391,13.12813
178,386801,Drewitzer Str./Am Buchhorst,52.360973,13.113203
179,440236,Drewitzer Str./Am Buchhorst,52.36056,13.112506
180,156675,Drewitzer Str./E.-Weinert-Str.,52.367027,13.100683
181,372613,Drewitzer Str./E.-Weinert-Str.,52.366947,13.100575
182,197208,E.-Claud.-Str./Drewitzer Str.,52.373753,13.089397
183,313256,E.-Claud.-Str./Drewitzer Str.,52.373512,13.089605
184,262888,E.-Claud.-Str./H.-Mann-Allee,52.37325,13.088071
185,346560,E.-Claud.-Str./H.-Mann-Allee,52.37232,13.088766
186,387109,E.-Claud.-Str./H.-Mann-Allee,52.37358,13.087704
187,452809,E.-Claud.-Str./H.-Mann-Allee,52.372517,13.088613
188,134632,Ecksteinweg,52.404995,12.993673
189,445774,Ehrenpfortenbergstr.,52.404224,12.985979
190,450290,Ehrenpfortenbergstr.,52.404404,12.986472
191,194018,Eichenring,52.410946,12.989303
192,274059,Eichenring,52.410824,12.989663
193,17639,Eichenweg,52.38636,13.106208
194,25393,Eichenweg,52.38654,13.106127
195,118287,Eisbergstücke,52.46781,13.021536
196,351450,Eisbergstücke,52.468384,13.021891
197,124899,Eisenbahnbrücke Marquardt,52.453613,12.974066
198,212120,Eisenbahnbrücke Marquardt,52.45365,12.973905
199,290347,Eisenbahnbrücke Marquardt,52.453663,12.973911
200,407634,Eisenbahnbrücke Marquardt,52.453636,12.973998
201,180238,Fahrländer See,52.45742,13.038505
202,456030,Fahrländer See,52.45733,13.038538
203,116567,Falkenhorst,52.38125,13.090125
204,54898,Falkenhorst,52.381245,13.0901
205,1535,Feuerbachstr.,52.396484,13.042986
206,159660,Feuerbachstr.,52.396336,13.042533
207,220339,Feuerbachstr.,52.39636,13.04252
208,428003,Feuerbachstr.,52.396477,13.042992
209,108456,Filmpark,52.384422,13.115759
210,72776,Filmpark,52.38422,13.117194
211,193545,Finkenweg/Brauhausberg,52.385307,13.060458
212,291372,Finkenweg/Brauhausberg Ersatzhalt,52.385387,13.060493
213,134154,Florastr.,52.41922,13.012997
214,191590,Florastr.,52.41918,13.013038
215,227120,Florastr.,52.41948,13.012537
216,404084,Florastr.,52.41949,13.012486
217,2130,Fontanestr.,52.393414,13.109873
218,219765,Fontanestr.,52.3934,13.109268
219,328375,Fontanestr.,52.393387,13.109917
220,88194,Fontanestr.,52.393147,13.108608
221,216222,Freiligrathstr.,52.39423,13.114832
222,271425,Freiligrathstr.,52.39419,13.115035
223,176864,Friedenskirche,52.40211,13.046049
224,243074,Friedenskirche,52.402206,13.045699
225,402321,Friedenskirche,52.402218,13.045724
226,87016,Friedenskirche,52.402153,13.046092
227,332701,Friedhöfe,52.38574,13.072002
228,37849,Friedhöfe,52.386044,13.071621
229,201740,Friedrich-Günther-Park,52.461746,13.106494
230,247008,Friedrich-Günther-Park,52.461864,13.106506
231,279984,Friedrich-Wolf-Str.,52.36594,13.093897
232,336296,Friedrich-Wolf-Str.,52.366074,13.093461
233,362466,Friedrich-Wolf-Str.,52.36566,13.093652
234,74663,Friedrich-Wolf-Str.,52.365833,13.093778
235,137629,Fährweg,52.472164,12.954838
236,220034,Fährweg,52.47317,12.953847
237,446899,Fährweg,52.473175,12.953846
238,67826,Fährweg,52.47219,12.954761
239,261142,Gaußstr.,52.374603,13.142046
240,64873,Gaußstr.,52.37492,13.141968
241,146979,Geiselberg,52.423283,12.97714
242,180457,Geiselberg,52.423515,12.973356
243,352549,Geiselberg,52.42122,12.973356
244,366580,Geiselberg,52.42348,12.977415
245,238700,"Geltow, Kaserne",52.38632,12.971128
246,326572,"Geltow, Kuckucksweg Ri. Potsdam",52.365406,12.986488
247,41336,"Geltow, Kuckucksweg Ri. Werder",52.365112,12.985917
248,122905,Gerlachstr.,52.369144,13.128716
249,132088,Gerlachstr.,52.36789,13.128911
250,203145,Gerlachstr.,52.368687,13.129318
251,234139,Glienicker Brücke,52.41206,13.084954
252,250108,Glienicker Brücke,52.412857,13.086618
253,319682,Glienicker Brücke,52.411114,13.084701
254,361263,Glienicker Brücke,52.412857,13.086618
255,388035,Glienicker Brücke,52.413055,13.087169
256,438407,Glienicker Brücke,52.412067,13.085
257,266201,Glumestr.,52.41503,13.066528
258,17406,Goetheplatz,52.39612,13.102268
259,95666,Goetheplatz,52.3961,13.101994
260,100329,Golmer Fichten,52.41192,12.974517
261,228058,Golmer Fichten,52.41188,12.974751
262,110174,Gutsstr.,52.42429,13.007019
263,179623,Hannes-Meyer-Str.,52.41523,13.040163
264,50482,Hannes-Meyer-Str.,52.415455,13.040491
265,189587,Hans-Albers-Str.,52.369953,13.140731
266,248738,Hans-Albers-Str.,52.369766,13.140483
267,250003,Hans-Albers-Str.,52.369804,13.140274
268,278733,Hans-Albers-Str.,52.369415,13.140058
269,303873,Hans-Albers-Str.,52.369843,13.139863
270,118006,Hebbelstr.,52.403767,13.062682
271,383353,Hebbelstr.,52.40421,13.062008
272,133384,Hechtsprung,52.46615,13.101567
273,358922,Hechtsprung,52.46596,13.101562
274,392847,Heineberg,52.43342,12.993513
275,439517,Heineberg,52.433414,12.993517
276,191337,Heinrich-Heine-Weg,52.44348,13.046852
277,19841,Heinrich-Heine-Weg,52.44348,13.046852
278,203778,Heinrich-Heine-Weg,52.443375,13.046958
279,422081,Heinrich-Heine-Weg,52.44368,13.046794
280,128066,Heinrich-von-Kleist-Str.,52.388153,13.099021
281,418313,Heinrich-von-Kleist-Str.,52.388172,13.098152
282,313197,Hermann-Maaß-Str.,52.401073,13.106078
283,358374,Hermann-Maaß-Str.,52.401062,13.105958
284,423695,Hermann-Struve-Str.,52.42302,13.012624
285,176298,Hermannswerder,52.38736,13.040216
286,418127,Hermannswerder,52.38736,13.040216
287,168758,Hiroshima-Nagasaki-Platz,52.39498,13.121644
288,387324,Hiroshima-Nagasaki-Platz,52.39499,13.121326
289,349390,Hoffbauer-Stiftung,52.38487,13.036543
290,134361,Holzmarktstr.,52.401203,13.068533
291,138501,Holzmarktstr.,52.401325,13.069072
292,330750,Holzmarktstr.,52.40135,13.068883
293,418128,Holzmarktstr.,52.401783,13.069372
294,147407,Horstweg/Großbeerenstr.,52.389084,13.093427
295,72771,Horstweg/Großbeerenstr.,52.389217,13.093775
296,11449,Hubertusdamm/Steinstr.,52.384315,13.139631
297,267555,Hubertusdamm/Steinstr.,52.384243,13.1396
298,355576,Hubertusdamm/Steinstr.,52.384266,13.13957
299,418259,Hubertusdamm/Steinstr.,52.384384,13.139595
300,334387,Humboldtring/L.-Pulewka-Str.,52.39393,13.074993
301,422150,Humboldtring/L.-Pulewka-Str.,52.394207,13.075707
302,298261,Humboldtring/Nuthestr.,52.39804,13.078541
303,89958,Humboldtring/Nuthestr.,52.397778,13.079108
304,30869,Höhenstr.,52.42154,13.067112
305,312793,Höhenstr.,52.421642,13.067605
306,24016,Im Bogen/Forststr.,52.38479,13.01402
307,342426,Im Bogen/Forststr.,52.385384,13.013715
308,334936,Im Bogen/Zeppelinstr.,52.384663,13.02253
309,449143,Im Bogen/Zeppelinstr.,52.384586,13.022487
310,52855,Im Bogen/Zeppelinstr.,52.384434,13.022054
311,93425,Im Bogen/Zeppelinstr.,52.3844,13.022051
312,200712,Im Winkel,52.493214,12.980835
313,386578,Im Winkel,52.493313,12.98071
314,189144,In der Aue,52.385956,13.138211
315,37041,In der Aue,52.38572,13.138444
316,415125,In der Aue,52.38601,13.138176
317,450502,In der Aue,52.3857,13.138506
318,143104,Institut für Agrartechnik,52.437626,13.011272
319,250860,Institut für Agrartechnik,52.43759,13.011215
320,285652,Jagdhausstr.,52.3808,13.139379
321,320888,Jagdhausstr.,52.380795,13.139452
322,374064,Jagdhausstr.,52.380707,13.140801
323,419075,Jagdhausstr.,52.38072,13.140833
324,13631,Johan-Bouman-Platz,52.412373,13.039236
325,244792,Johan-Bouman-Platz,52.413376,13.038476
326,266635,Johan-Bouman-Platz,52.412487,13.038614
327,402758,Johan-Bouman-Platz,52.41367,13.038664
328,153133,Johannes-Kepler-Platz,52.375565,13.1308
329,255056,Johannes-Kepler-Platz,52.375977,13.128374
330,29093,Johannes-Kepler-Platz,52.375896,13.128092
331,319644,Johannes-Kepler-Platz,52.37538,13.129533
332,412259,Johannes-Kepler-Platz,52.37568,13.129065
333,41779,Johannes-Kepler-Platz,52.375454,13.12949
334,434396,Johannes-Kepler-Platz,52.375473,13.128781
335,447867,Johannes-Kepler-Platz,52.37535,13.129423
336,48111,Johannes-Kepler-Platz,52.37584,13.12806
337,6600,Johannes-Kepler-Platz,52.37595,13.128358
338,265906,Jägertor/Justizzentrum,52.403847,13.053065
339,266005,Jägertor/Justizzentrum,52.40368,13.053038
340,125263,Kaiser-Friedrich-Str./Polizei,52.40533,13.006353
341,325840,Kaiser-Friedrich-Str./Polizei,52.40545,13.005897
342,20237,Kaiserplatz,52.469364,13.012105
343,250206,Kaiserplatz,52.468422,13.013268
344,122264,Karl-Liebknecht-Stadion,52.398685,13.095833
345,434939,Karl-Liebknecht-Stadion,52.398376,13.095669
346,239760,Karl-Marx-Str./Behringstr.,52.404945,13.108225
347,269951,Karl-Marx-Str./Behringstr.,52.40494,13.108155
348,152355,Kastanienallee/Zeppelinstr.,52.38849,13.028248
349,16714,Kastanienallee/Zeppelinstr.,52.38802,13.027859
350,241131,Kastanienallee/Zeppelinstr.,52.390095,13.028055
351,360171,Kastanienallee/Zeppelinstr.,52.389076,13.028336
352,349824,Katjes,52.378773,13.117383
353,170303,Ketziner Str./Königsweg,52.477684,12.994139
354,284040,Ketziner Str./Königsweg,52.47769,12.994116
355,127148,Kienheide,52.46578,12.978148
356,53304,Kienheide,52.465885,12.978282
357,11985,Kienhorststr.,52.466026,13.019605
358,165954,Kienhorststr.,52.466072,13.019157
359,124772,Kirche Bornim,52.423397,13.000229
360,176761,Kirche Bornim,52.42347,12.999807
361,177170,Kirche Bornim,52.423363,13.000283
362,325482,Kirche Bornim,52.42345,12.999846
363,203019,Kirche Golm,52.408386,12.962939
364,321790,Kirche Golm,52.408432,12.963009
365,209693,Kirche Groß Glienicke,52.4691,13.108583
366,337541,Kirche Groß Glienicke,52.469345,13.108731
367,399106,Kirche Kartzow,52.49262,12.976784
368,442548,Kirche Kartzow,52.49262,12.976784
369,135762,Kirche Uetz,52.46938,12.94016
370,163789,Kirche Uetz,52.46933,12.940283
371,289930,Kirche Uetz,52.46933,12.940283
372,239098,Kirschallee,52.41373,13.033804
373,268840,Kirschallee,52.414074,13.033396
374,307644,Kirschallee,52.41368,13.033294
375,43486,Kirschallee,52.414055,13.033386
376,444454,Kirschallee,52.413654,13.033195
377,47993,Kirschallee,52.413727,13.033386
378,263025,Kleine Str.,52.385494,13.110747
379,400401,Kleine Str.,52.385742,13.110047
380,457364,Kleine Weinmeisterstr.,52.412502,13.062227
381,359644,Klinikum,52.400253,13.06403
382,246784,Kläranlage Potsdam-Nord,52.43799,13.025564
383,64679,Kläranlage Potsdam-Nord,52.437935,13.025389
384,216266,Konrad-Wolf-Allee/Sternstr.,52.3656,13.130995
385,69079,Konrad-Wolf-Allee/Sternstr.,52.36567,13.130754
386,266457,Krampnitzsee,52.458885,13.051502
387,303312,Krampnitzsee,52.45877,13.050992
388,365922,Kreuzstr.,52.39559,13.098121
389,448098,Kreuzstr.,52.39537,13.098635
390,385527,Kuhforter Damm,52.403088,12.978252
391,75356,Kuhforter Damm,52.402992,12.979437
392,316130,Kunersdorfer Str.,52.380436,13.078588
393,88028,Kunersdorfer Str.,52.380737,13.078337
394,13385,Küsselstr.,52.387646,13.043627
395,355299,Küsselstr.,52.387383,13.043579
396,187107,Landesumweltamt,52.484627,13.124622
397,191763,Landesumweltamt,52.484993,13.125156
398,212820,Landesumweltamt,52.484634,13.12455
399,342288,Landesumweltamt,52.484974,13.125175
400,250644,Lange Brücke,52.392403,13.063575
401,8928,Lange Brücke,52.391743,13.063808
402,267186,Langhansstr./Große Weinm.str.,52.42003,13.065244
403,270916,Lerchensteig/Kleingartenanlage,52.438065,13.030357
404,436951,Lerchensteig/Kleingartenanlage,52.438046,13.030214
405,149131,Lilienthalstr.,52.3791,13.129566
406,259669,Lilienthalstr.,52.3791,13.129613
407,396841,Lindenpark,52.39146,13.114597
408,447813,Lindenpark,52.391464,13.114431
409,195854,Lindstedter Chaussee,52.421124,13.005588
410,210881,Lindstedter Chaussee,52.42179,13.003337
411,346633,Lindstedter Chaussee,52.42178,13.003348
412,395995,Lindstedter Chaussee,52.421078,13.005643
413,173549,Ludwig-Richter-Str.,52.40988,13.079918
414,189263,Ludwig-Richter-Str.,52.41007,13.08034
415,295081,Ludwig-Richter-Str.,52.40988,13.079918
416,307525,Ludwig-Richter-Str.,52.41007,13.08034
417,11829,Luftschiffhafen,52.381283,13.017373
418,339178,Luftschiffhafen,52.380875,13.017141
419,375864,Luftschiffhafen,52.381,13.017124
420,87457,Luftschiffhafen,52.380657,13.01668
421,217358,Luisenplatz-Nord/Park Sanssouci,52.400215,13.047595
422,24484,Luisenplatz-Nord/Park Sanssouci,52.400143,13.047607
423,38076,Luisenplatz-Nord/Park Sanssouci,52.401176,13.047163
424,16856,Luisenplatz-Ost/Park Sanssouci,52.39871,13.049202
425,369498,Luisenplatz-Ost/Park Sanssouci,52.39878,13.049474
426,76614,Luisenplatz-Ost/Park Sanssouci,52.398632,13.048901
427,224125,Luisenplatz-Süd/Park Sanssouci,52.398476,13.047069
428,240511,Luisenplatz-Süd/Park Sanssouci,52.39861,13.047692
429,291554,Luisenplatz-Süd/Park Sanssouci,52.398083,13.048391
430,38120,Luisenplatz-Süd/Park Sanssouci,52.398388,13.048386
431,402805,Luisenplatz-Süd/Park Sanssouci,52.398556,13.047632
432,446088,Luisenplatz-Süd/Park Sanssouci,52.398457,13.047202
433,220972,Magnus-Zeller-Platz,52.374924,13.091926
434,380097,Magnus-Zeller-Platz,52.37559,13.090929
435,63702,Magnus-Zeller-Platz,52.375122,13.091427
436,97563,Magnus-Zeller-Platz,52.375854,13.090912
437,281641,Mangerstr.,52.407673,13.075422
438,281727,Mangerstr.,52.408623,13.076895
439,293912,Mangerstr.,52.408623,13.076895
440,394593,Mangerstr.,52.407673,13.075422
441,251543,Marie-Juchacz-Str.,52.35834,13.1372
442,299813,Marie-Juchacz-Str.,52.35794,13.136703
443,372189,Marie-Juchacz-Str.,52.35785,13.136593
444,385900,Marie-Juchacz-Str.,52.358696,13.137292
445,209922,Mauerstr.,52.402245,13.050066
446,42532,Mauerstr.,52.402393,13.051335
447,152389,Max-Born-Str.,52.375687,13.137145
448,195304,Max-Born-Str.,52.375504,13.137838
449,393340,Max-Born-Str.,52.375652,13.136877
450,439987,Max-Born-Str.,52.3755,13.137568
451,114224,Mehlbeerenweg,52.409164,12.992888
452,376609,Mehlbeerenweg,52.408157,12.993716
453,330918,Naturkundemuseum,52.395763,13.049326
454,55954,Naturkundemuseum,52.395935,13.049325
455,167367,Nauener Tor,52.4031,13.057927
456,16894,Nauener Tor,52.402832,13.057881
457,319703,Nauener Tor,52.40301,13.05787
458,346961,Nauener Tor,52.402817,13.057808
459,412170,Nauener Tor,52.40301,13.057947
460,52622,Nauener Tor,52.402767,13.057858
461,304794,Neuend. Str./Mend.-Barth.-Str.,52.380318,13.130461
462,37436,Neuend. Str./Mend.-Barth.-Str.,52.381042,13.132004
463,285806,Neuendorfer Str./M-Bartholdy-Str,52.38032,13.130467
464,448138,Neuendorfer Str./M-Bartholdy-Str,52.38101,13.132026
465,171213,Neues Palais,52.39885,13.013233
466,55022,Neues Palais,52.398018,13.01477
467,156229,Orangerie/Botanischer Garten,52.404057,13.02756
468,80586,Orangerie/Botanischer Garten,52.403988,13.028226
469,314171,Otto-Erich-Str.,52.394814,13.119423
470,317991,Otto-Erich-Str.,52.394733,13.119296
471,377969,Otto-Hahn-Ring,52.374092,13.138299
472,458737,Otto-Hahn-Ring,52.373135,13.138311
473,330106,Paaren,52.485317,12.934692
474,395979,Paaren,52.485332,12.934685
475,419595,Paaren,52.485916,12.934191
476,48037,Paaren,52.486217,12.933857
477,340414,Paaren (Parkplatz),52.48607,12.934055
478,451372,Persiusstr.,52.415325,13.063675
479,172181,Plantagenstr.,52.392345,13.103608
480,21801,Plantagenstr.,52.392986,13.10347
481,287637,Plantagenstr.,52.392357,13.103049
482,319777,Plantagenstr.,52.392563,13.104247
483,324684,Plantagenstr.,52.392963,13.103521
484,309873,Plantagenweg,52.45342,13.04288
485,339148,Plantagenweg,52.45336,13.042889
486,229320,Platz der Einheit/Bildungsforum,52.39751,13.058961
487,267981,Platz der Einheit/Bildungsforum,52.397522,13.059911
488,336475,Platz der Einheit/Bildungsforum,52.397564,13.059519
489,438866,Platz der Einheit/Bildungsforum,52.39768,13.059455
490,301369,Platz der Einheit/Nord,52.39922,13.058476
491,104748,Platz der Einheit/West,52.398483,13.057986
492,139008,Platz der Einheit/West,52.39818,13.05798
493,284773,Platz der Einheit/West,52.39796,13.058125
494,288293,Platz der Einheit/West,52.398865,13.058072
495,303178,Platz der Einheit/West,52.39888,13.057769
496,311537,Platz der Einheit/West,52.398964,13.058119
497,335987,Platz der Einheit/West,52.39885,13.057979
498,102477,Potsdam central train station,52.39055,13.06755
499,180942,"Potsdam, Abzweig Betriebshof ViP",52.373875,13.112998
500,20854,"Potsdam, Alter Markt/Landtag ->Hbf",52.394726,13.059293
501,431856,"Potsdam, Alter Markt/Landtag ->Pl. der Einheit",52.395123,13.059241
502,166595,"Potsdam, Alter Tornow",52.38277,13.044389
503,83681,"Potsdam, Alter Tornow",52.382828,13.04585
504,195159,"Potsdam, Am Findling",52.387325,13.102399
505,255957,"Potsdam, Am Findling",52.38734,13.101974
506,235149,"Potsdam, Am Findling/Willi-Frohwein-Platz 1",52.387337,13.102201
507,153953,"Potsdam, Am Findling/Willi-Frohwein-Platz 2",52.387337,13.102201
508,243008,"Potsdam, Am Küssel",52.430805,12.965477
509,390756,"Potsdam, Am Küssel",52.43074,12.965545
510,133802,"Potsdam, Am Moosfenn ->Hbf",52.363567,13.095389
511,138296,"Potsdam, Am Moosfenn ->Saarmund",52.363472,13.095292
512,185646,"Potsdam, Amundsenstr./Potsdamer Str.",52.416683,13.021234
513,314562,"Potsdam, Amundsenstr./Potsdamer Str.",52.41759,13.018095
514,87018,"Potsdam, Bayrisches Haus ->Hbf",52.368664,12.993953
515,783,"Potsdam, Bayrisches Haus ->Werder",52.36861,12.993698
516,119087,"Potsdam, Betriebshof ViP",52.375816,13.114296
517,188335,"Potsdam, Betriebshof ViP",52.376225,13.111981
518,419581,"Potsdam, Bhf Charlottenhof ->Hbf",52.393177,13.036505
519,224758,"Potsdam, Bhf Charlottenhof ->Werder",52.39247,13.035058
520,103669,"Potsdam, Bhf Golm",52.410618,12.971945
521,70464,"Potsdam, Bhf Golm",52.41048,12.972227
522,157472,"Potsdam, Bhf Medienstadt Babelsberg",52.382374,13.120801
523,223232,"Potsdam, Bhf Medienstadt Babelsberg",52.38305,13.123172
524,407431,"Potsdam, Bhf Medienstadt Babelsberg",52.38341,13.120942
525,426833,"Potsdam, Bhf Medienstadt Babelsberg",52.383366,13.120747
526,428847,"Potsdam, Bhf Medienstadt Babelsberg",52.38302,13.123758
527,50930,"Potsdam, Bhf Medienstadt Babelsberg",52.382633,13.121384
528,233918,"Potsdam, Bhf Park Sanssouci",52.39423,13.015911
529,70583,"Potsdam, Bhf Park Sanssouci",52.39419,13.016039
530,57766,"Potsdam, Bhf Rehbrücke ->Hbf",52.35978,13.098227
531,264235,"Potsdam, Bhf Rehbrücke ->Saarmund",52.36,13.09785
532,138638,"Potsdam, Campus Jungfernsee/Nedlitzer Str.",52.432648,13.053261
533,188599,"Potsdam, Campus Jungfernsee/Nedlitzer Str.",52.432648,13.053261
534,399386,"Potsdam, Chopinstr.",52.38096,13.135312
535,6234,"Potsdam, Chopinstr.",52.380917,13.134926
536,401554,"Potsdam, Deutscher Wetterdienst ->Hbf",52.377064,13.054172
537,351740,"Potsdam, Deutscher Wetterdienst ->Michendorf",52.377903,13.054072
538,416025,"Potsdam, E.-Claudius-Str./H.-Mann-Allee ->Hbf",52.372566,13.088785
539,250922,"Potsdam, E.-Claudius-Str./H.-Mann-Allee ->Saarmund",52.37249,13.088631
540,228667,"Potsdam, Eichenweg",52.386436,13.106169
541,431251,"Potsdam, Eichenweg",52.38649,13.106203
542,253448,"Potsdam, Eichenweg 1",52.386482,13.106242
543,370891,"Potsdam, Eichenweg 2",52.386482,13.106242
544,301344,"Potsdam, Falkenhorst ->Bhf Rehbrücke",52.381287,13.090062
545,382706,"Potsdam, Feuerbachstr.",52.396275,13.042464
546,431325,"Potsdam, Feuerbachstr.",52.396553,13.043048
547,159195,"Potsdam, Filmpark",52.38445,13.11579
548,291281,"Potsdam, Filmpark",52.384182,13.117206
549,366180,"Potsdam, Filmpark 1",52.38415,13.117268
550,433015,"Potsdam, Filmpark 2",52.38415,13.117268
551,72572,"Potsdam, Finkenweg/Brauhausberg ->Hbf",52.386543,13.063584
552,326177,"Potsdam, Finkenweg/Brauhausberg ->Michendorf",52.385323,13.060413
553,226418,"Potsdam, Florastr.",52.41949,13.012471
554,442736,"Potsdam, Florastr.",52.419483,13.013014
555,23643,"Potsdam, Forsthaus Templin",52.359734,13.023019
556,37647,"Potsdam, Forsthaus Templin",52.359493,13.022894
557,264926,"Potsdam, Friedrich-Wolf-Str. ->Hbf",52.365936,13.093933
558,385308,"Potsdam, Friedrich-Wolf-Str. ->Saarmund",52.36596,13.093891
559,66713,"Potsdam, Gerlachstr. Ri. Nord",52.36916,13.128711
560,1820,"Potsdam, Heinrich-von-Kleist-Str.",52.38822,13.098144
561,454861,"Potsdam, Heinrich-von-Kleist-Str.",52.387962,13.099047
562,267561,"Potsdam, Heinrich-von-Kleist-Str. 1",52.388184,13.098245
563,143524,"Potsdam, Heinrich-von-Kleist-Str. 2",52.388184,13.098245
564,132482,"Potsdam, Horstweg/Großbeerenstr.",52.38915,13.093687
565,220541,"Potsdam, Horstweg/Großbeerenstr.",52.38916,13.09335
566,335225,"Potsdam, Horstweg/Großbeerenstr. 1",52.38919,13.093364
567,366296,"Potsdam, Horstweg/Großbeerenstr. 2",52.38919,13.093364
568,246970,"Potsdam, Im Bogen/Zeppelinstr. ->Hbf",52.38457,13.022472
569,324146,"Potsdam, Im Bogen/Zeppelinstr. ->Werder",52.384373,13.021983
570,206845,"Potsdam, Jagdhausstr.",52.380814,13.139429
571,64908,"Potsdam, Jagdhausstr.",52.38073,13.140862
572,100817,"Potsdam, Johannes-Kepler-Platz",52.37601,13.128396
573,318382,"Potsdam, Johannes-Kepler-Platz",52.37587,13.128088
574,3970,"Potsdam, Johannes-Kepler-Platz",52.375618,13.12905
575,6254,"Potsdam, Johannes-Kepler-Platz",52.37536,13.129511
576,328958,"Potsdam, Johannes-Kepler-Platz 1",52.37494,13.128431
577,301885,"Potsdam, Johannes-Kepler-Platz 2",52.37494,13.128431
578,193236,"Potsdam, Kastanienallee/Zeppelinstr.",52.389736,13.028206
579,349588,"Potsdam, Kastanienallee/Zeppelinstr.",52.390064,13.02806
580,127765,"Potsdam, Kastanienallee/Zeppelinstr. ->Werder",52.38742,13.026539
581,338420,"Potsdam, Kastanienallee/Zeppelinstr. Li. 631 Ri. Hbf",52.38805,13.027802
582,54231,"Potsdam, Katjes",52.378757,13.117421
583,423619,"Potsdam, Kieskutenberg",52.3655,13.029466
584,61595,"Potsdam, Kieskutenberg",52.36587,13.02972
585,413733,"Potsdam, Kirche Bornim",52.423378,13.000258
586,425355,"Potsdam, Kirche Bornim",52.42346,12.999808
587,187077,"Potsdam, Kirschallee",52.414066,13.033368
588,28127,"Potsdam, Kirschallee",52.413673,13.033303
589,212917,"Potsdam, Kleine Str.",52.38571,13.109968
590,32118,"Potsdam, Kleine Str.",52.385426,13.110985
591,293980,"Potsdam, Kleine Str. 1",52.385597,13.110446
592,434564,"Potsdam, Kleine Str. 2",52.385597,13.110446
593,299723,"Potsdam, Konrad-Wolf-Allee/Sternstr.",52.36668,13.129641
594,322913,"Potsdam, Kuhfort",52.39378,12.982004
595,60000,"Potsdam, Kuhfort",52.393917,12.982193
596,357184,"Potsdam, Kunersdorfer Str. ->Hbf",52.381092,13.077989
597,377662,"Potsdam, Kunersdorfer Str. ->Saarmund",52.380775,13.078298
598,43089,"Potsdam, Lilienthalstr.",52.379116,13.129641
599,208261,"Potsdam, Lindstedter Chaussee",52.421776,13.003276
600,217027,"Potsdam, Lindstedter Chaussee",52.421078,13.005552
601,247599,"Potsdam, Luftschiffhafen ->Hbf",52.380978,13.017087
602,204340,"Potsdam, Luftschiffhafen ->Werder",52.38127,13.017335
603,316639,"Potsdam, Luisenplatz-Süd/Park Sanssouci",52.398464,13.047121
604,328259,"Potsdam, Luisenplatz-Süd/Park Sanssouci",52.39858,13.047719
605,348888,"Potsdam, Magnus-Zeller-Platz ->Bhf Rehbrücke",52.375645,13.090878
606,361282,"Potsdam, Max-Born-Str.",52.37566,13.136624
607,368752,"Potsdam, Max-Born-Str.",52.375458,13.137693
608,112333,"Potsdam, Medienstadt Babelsberg Bhf 1",52.38336,13.119055
609,411024,"Potsdam, Medienstadt Babelsberg Bhf 2",52.38336,13.119055
610,208573,"Potsdam, Michendorfer Ch./Friedhof ->Hbf",52.36834,13.047537
611,412050,"Potsdam, Michendorfer Ch./Friedhof ->Michendorf",52.36885,13.047878
612,400369,"Potsdam, Nesselgrund ->Hbf",52.354977,13.044242
613,233265,"Potsdam, Nesselgrund ->Michendorf",52.354916,13.044178
614,390529,"Potsdam, Neuend. Str./Mend.-Barth.-Str. 1",52.38104,13.130775
615,65499,"Potsdam, Neuend. Str./Mend.-Barth.-Str. 2",52.38104,13.130775
616,311235,"Potsdam, Neuendf. Str./Mendelssohn-Bartholdy-Str.",52.380325,13.130475
617,357272,"Potsdam, Neuendf. Str./Mendelssohn-Bartholdy-Str.",52.38108,13.129972
618,364818,"Potsdam, Neuendf. Str./Mendelssohn-Bartholdy-Str.",52.381054,13.132042
619,130457,"Potsdam, Otto-Hahn-Ring",52.37369,13.138365
620,253411,"Potsdam, Otto-Hahn-Ring",52.37363,13.138257
621,130852,"Potsdam, Platz der Einheit/West 2",52.39792,13.058056
622,29237,"Potsdam, Platz der Einheit/West 5",52.398895,13.058088
623,204349,"Potsdam, Platz der Einheit/West 6",52.39865,13.057845
624,321694,"Potsdam, Rathaus Babelsberg",52.39213,13.091243
625,448985,"Potsdam, Rathaus Babelsberg",52.392403,13.090356
626,17319,"Potsdam, S Babelsberg/Lutherplatz ->Hbf",52.389984,13.08875
627,193254,"Potsdam, S Babelsberg/Lutherplatz ->Teltow",52.389957,13.089321
628,343177,"Potsdam, S Babelsberg/Schulstr.",52.390816,13.090724
629,106286,"Potsdam, S Babelsberg/Schulstr. ->Teltow",52.390583,13.090467
630,244951,"Potsdam, Schlaatzstr. ->Hbf",52.389233,13.074594
631,293075,"Potsdam, Schlaatzstr. ->Teltow",52.3892,13.074326
632,186891,"Potsdam, Schlaatzstr. 1",52.389214,13.07443
633,224624,"Potsdam, Schlaatzstr. 2",52.389214,13.07443
634,308005,"Potsdam, Schloss Charlottenhof",52.393597,13.026646
635,411852,"Potsdam, Schloss Charlottenhof",52.393536,13.028876
636,83760,"Potsdam, Schloss Charlottenhof",52.393642,13.026356
637,175478,"Potsdam, Schloßstr. ->Hbf",52.394768,13.057841
638,224248,"Potsdam, Schloßstr. ->Werder",52.394936,13.057856
639,255550,"Potsdam, Schlänitzseer Weg",52.43244,12.953938
640,356145,"Potsdam, Schlänitzseer Weg",52.432472,12.954088
641,357565,"Potsdam, Science Park West",52.413647,12.968481
642,434983,"Potsdam, Science Park West",52.41379,12.968759
643,16887,"Potsdam, Science Park/Universität",52.4093,12.972739
644,366911,"Potsdam, Science Park/Universität",52.40953,12.972686
645,201335,"Potsdam, Sporthalle ->Hbf",52.38273,13.075656
646,200004,"Potsdam, Sporthalle ->Saarmund",52.38236,13.07596
647,168991,"Potsdam, Sportplatz Bornim",52.425056,12.987637
648,224347,"Potsdam, Sportplatz Bornim",52.425087,12.984814
649,193047,"Potsdam, Stern Center/Nuthestr. 1",52.371853,13.135283
650,142746,"Potsdam, Stern Center/Nuthestr. 2",52.371853,13.135283
651,221759,"Potsdam, Stern-Center/Nuthestr.",52.372486,13.132138
652,8380,"Potsdam, Stern-Center/Nuthestr.",52.37217,13.13252
653,212989,"Potsdam, Templiner Eck ->Caputh",52.383408,13.053269
654,206131,"Potsdam, Templiner Eck ->Hbf",52.383392,13.052929
655,101083,"Potsdam, Templiner Eck [E] ->Hbf",52.38117,13.054548
656,67851,"Potsdam, Templiner Eck [E] ->Michendorf",52.3819,13.055012
657,159855,"Potsdam, Thaerstr.",52.41511,13.025181
658,338627,"Potsdam, Thaerstr.",52.415253,13.025209
659,349000,"Potsdam, Tierheim ->Hbf",52.348644,13.045221
660,235865,"Potsdam, Tierheim ->Michendorf",52.348114,13.045202
661,162116,"Potsdam, Waldstr./Horstweg ->Hbf",52.37858,13.081726
662,281596,"Potsdam, Waldstr./Horstweg ->Saarmund",52.377296,13.083402
663,240332,"Potsdam, Wasserwerk Wildpark",52.39828,12.997528
664,256960,"Potsdam, Wasserwerk Wildpark",52.39829,12.997617
665,234511,"Potsdam, Werderscher Damm/Forststr.",52.394398,13.011235
666,56129,"Potsdam, Werderscher Damm/Forststr.",52.394333,13.011111
667,116806,"Potsdam, Wublitzstr./Am Bahnhof",52.429344,12.972807
668,124531,"Potsdam, Wublitzstr./Am Bahnhof",52.429752,12.972903
669,55077,"Potsdam, Zum Bahnhof Pirschheide ->Hbf",52.3765,13.009346
670,239595,"Potsdam, Zum Bahnhof Pirschheide ->Werder",52.37687,13.009747
671,435146,"Potsdam, Zum Kahleberg ->Hbf",52.36835,13.092099
672,90246,"Potsdam, Zum Kahleberg ->Saarmund",52.36829,13.09199
673,260319,"Potsdam, Übergang ->Hbf",52.390476,13.082105
674,171581,"Potsdam, Übergang ->Teltow",52.390472,13.081693
675,41238,"Potsdam, Übergang 1",52.390472,13.081879
676,413868,"Potsdam, Übergang 2",52.390472,13.081879
677,290413,Priesterweg,52.36431,13.135974
678,362782,Priesterweg,52.364334,13.135908
679,454606,Priesterweg,52.365,13.134868
680,47938,Priesterweg,52.36502,13.134864
681,122934,Puschkinallee,52.41188,13.059213
682,297048,Puschkinallee,52.411564,13.059005
683,131752,Rathaus,52.40568,13.058186
684,157839,Rathaus,52.405094,13.05812
685,29919,Rathaus,52.405266,13.058126
686,302921,Rathaus,52.404972,13.058059
687,389486,Rathaus,52.40528,13.058091
688,69174,Rathaus,52.40564,13.058225
689,10358,Rathaus Babelsberg,52.392002,13.091714
690,141475,Rathaus Babelsberg,52.39259,13.091903
691,184516,Rathaus Babelsberg,52.392117,13.091248
692,271841,Rathaus Babelsberg,52.392475,13.090362
693,329055,Rathaus Babelsberg,52.39233,13.091612
694,48810,Rathaus Babelsberg,52.392124,13.091218
695,268348,Reiterweg/Alleestr.,52.40859,13.058602
696,282620,Reiterweg/Alleestr.,52.408314,13.058526
697,424203,Reiterweg/Alleestr.,52.408585,13.058665
698,58558,Reiterweg/Alleestr.,52.40825,13.058523
699,72587,Reiterweg/Alleestr.,52.40869,13.058705
700,86305,Reiterweg/Alleestr.,52.40833,13.058524
701,302214,Reiterweg/Jägerallee,52.408318,13.054498
702,362384,Reiterweg/Jägerallee,52.408165,13.054577
703,405044,Reiterweg/Jägerallee,52.407623,13.05429
704,337061,Ribbeckstr.,52.41242,13.031472
705,447934,Ribbeckstr.,52.412243,13.031603
706,151146,Robert-Baberske-Str.,52.367046,13.136405
707,229220,Robert-Baberske-Str.,52.366688,13.135477
708,416508,Robert-Baberske-Str.,52.36675,13.135755
709,73283,Robert-Baberske-Str.,52.367275,13.137083
710,138058,Robert-Baberske-Str. (Bahnkörper),52.366673,13.135908
711,266109,Robert-Baberske-Str. (Bahnkörper),52.366592,13.135677
712,17506,Rotdornweg/Stahnsdorfer Str.,52.391747,13.107833
713,392983,Rotdornweg/Stahnsdorfer Str.,52.391766,13.107757
714,184805,Rote Kaserne,52.424942,13.053601
715,276321,Rote Kaserne,52.42489,13.054711
716,323266,Rote Kaserne,52.424942,13.053601
717,439631,Rote Kaserne,52.424942,13.053601
718,288601,Rote Kaserne/Nedlitzer Str.,52.42489,13.054711
719,372124,Rote Kaserne/Nedlitzer Str.,52.42489,13.054711
720,402713,Rote Kaserne/Nedlitzer Str.,52.425106,13.054678
721,431642,Rote Kaserne/Nedlitzer Str.,52.424442,13.054796
722,256979,Rote-Kreuz-Str.,52.39175,13.128386
723,381183,Rote-Kreuz-Str.,52.391666,13.127931
724,370932,Rotkehlchenweg,52.457615,13.059485
725,386860,Rotkehlchenweg,52.457684,13.05936
726,108257,Ruinenbergstr.,52.411343,13.04505
727,376018,Ruinenbergstr.,52.411407,13.04446
728,182820,Römerschanze,52.437813,13.050666
729,448127,Römerschanze,52.438805,13.050146
730,183209,Rückertstr.,52.427822,13.002864
731,254868,Rückertstr.,52.42761,13.002737
732,300174,S Babelsberg/Lutherplatz,52.38991,13.089161
733,8983,S Babelsberg/Lutherplatz,52.39,13.088791
734,421855,S Babelsberg/Lutherplatz 1,52.38997,13.089123
735,4033,S Babelsberg/Lutherplatz 2,52.38997,13.089123
736,268826,S Babelsberg/Schulstr.,52.390854,13.090795
737,455108,S Babelsberg/Schulstr.,52.3906,13.090498
738,273517,S Babelsberg/Wattstr.,52.39173,13.095236
739,289868,S Babelsberg/Wattstr.,52.391632,13.094398
740,209667,S Griebnitzsee Bhf/Süd,52.39384,13.128452
741,408947,S Griebnitzsee Bhf/Süd,52.393986,13.128572
742,109626,S Hauptbahnhof,52.391663,13.066172
743,145331,S Hauptbahnhof,52.390278,13.068055
744,167988,S Hauptbahnhof,52.39079,13.066855
745,186311,S Hauptbahnhof,52.39092,13.066402
746,192945,S Hauptbahnhof,52.390656,13.066833
747,293240,S Hauptbahnhof,52.39084,13.06656
748,327056,S Hauptbahnhof,52.390717,13.066852
749,436111,S Hauptbahnhof,52.39098,13.065236
750,383260,S Hauptbahnhof/Nord ILB,52.392796,13.067045
751,51024,S Hauptbahnhof/Nord ILB,52.392765,13.066529
752,122315,S Potsdam Hauptbahnhof,52.39087,13.06657
753,143207,S Potsdam Hauptbahnhof,52.391663,13.066172
754,209928,S Potsdam Hauptbahnhof,52.39084,13.06656
755,219807,S Potsdam Hauptbahnhof,52.390766,13.066898
756,221888,S Potsdam Hauptbahnhof,52.390656,13.066833
757,30817,S Potsdam Hauptbahnhof,52.39057,13.066572
758,37760,S Potsdam Hauptbahnhof,52.39079,13.066548
759,419500,S Potsdam Hauptbahnhof,52.390705,13.066878
760,47976,S Potsdam Hauptbahnhof 4,52.391663,13.066172
761,134929,S Potsdam Hauptbahnhof 8,52.391663,13.066172
762,248573,Sacrow-Paretzer Kanal,52.44899,12.981983
763,67922,Sacrow-Paretzer Kanal,52.44899,12.981983
764,162075,Sacrower Allee/Richard-Wagner-Str.,52.461506,13.101626
765,431335,Sacrower Allee/Richard-Wagner-Str.,52.461628,13.101669
766,165052,Sacrower See,52.428883,13.088007
767,300094,Sacrower See,52.428883,13.088165
768,185153,Satzkorn,52.477608,12.985767
769,90873,Satzkorn,52.477608,12.985677
770,230281,Scheffelstr.,52.39795,13.103543
771,373312,Scheffelstr.,52.39868,13.103875
772,177824,Schiffbauergasse/Berliner Str.,52.405582,13.073284
773,221248,Schiffbauergasse/Berliner Str.,52.405582,13.073284
774,316094,Schiffbauergasse/Berliner Str.,52.404404,13.072066
775,95037,Schiffbauergasse/Berliner Str.,52.404404,13.072066
776,212735,Schiffbauergasse/Uferweg,52.401665,13.071388
777,73336,Schiffbauergasse/Uferweg,52.401386,13.071944
778,286264,Schilfhof,52.378113,13.090839
779,403561,Schilfhof,52.378353,13.090906
780,258751,Schillerplatz/Schafgraben,52.391308,13.033016
781,337688,Schillerplatz/Schafgraben,52.391403,13.033094
782,110639,Schlaatzstr.,52.38925,13.074471
783,87489,Schlaatzstr.,52.389214,13.074188
784,204813,Schlegelstr./Pappelallee,52.41037,13.049473
785,30770,Schlegelstr./Pappelallee,52.41011,13.051119
786,177641,Schloss Babelsberg,52.4069,13.101075
787,232573,Schloss Babelsberg,52.406467,13.100783
788,358830,Schloss Cecilienhof,52.418785,13.067739
789,359005,Schloss Charlottenhof,52.393597,13.028604
790,79142,Schloss Charlottenhof,52.393627,13.028735
791,21545,Schloss Charlottenhof (linkes Gleis),52.393623,13.026077
792,374259,Schloss Charlottenhof (rechtes Gleis),52.393612,13.026651
793,378870,Schloss Charlottenhof Tram,52.39354,13.028766
794,116849,Schloss Marquardt,52.456383,12.966868
795,173327,Schloss Marquardt,52.456547,12.96668
796,307127,Schloss Marquardt,52.45652,12.966666
797,36198,Schloss Marquardt,52.45639,12.96683
798,20627,Schloss Sacrow,52.428562,13.093148
799,254359,Schloss Sacrow,52.428665,13.092655
800,379107,Schloss Sanssouci,52.40463,13.037011
801,38826,Schloss Sanssouci,52.404617,13.035869
802,189353,Schloss Sanssouci/Bornstedter Str.,52.404922,13.040772
803,404378,Schloss Sanssouci/Bornstedter Str.,52.405003,13.040817
804,6118,Schloss Sanssouci/Bornstedter Str.,52.40483,13.041227
805,67502,Schloss Sanssouci/Bornstedter Str.,52.40483,13.041227
806,197963,Schloßstr.,52.39476,13.057765
807,202557,Schloßstr.,52.39494,13.057841
808,101910,Schlänitzseer Weg,52.43245,12.953996
809,424454,Schlänitzseer Weg,52.432495,12.954108
810,225296,Schlüterstr./Forststr.,52.390118,13.011317
811,352610,Schlüterstr./Forststr.,52.387833,13.012189
812,138079,Schneiderremise,52.435623,13.018427
813,365412,Schneiderremise,52.43563,13.018583
814,384128,Schule Fahrland,52.471832,13.003488
815,78638,Schule Fahrland,52.471943,13.003376
816,208495,Schule Marquardt,52.461246,12.963907
817,269787,Schule Marquardt,52.46109,12.964061
818,331703,Schule Marquardt,52.46107,12.964031
819,450860,Schule Marquardt,52.461227,12.963863
820,450545,Schwimmhalle am Brauhausberg,52.38975,13.065025
821,212212,Science Park West,52.413677,12.96921
822,246510,Science Park West,52.413815,12.968758
823,376579,Science Park/Universität,52.409325,12.972733
824,440748,Science Park/Universität,52.40952,12.972765
825,326879,Sonnenlandstr.,52.38184,13.015354
826,377155,Sonnenlandstr.,52.38158,13.015675
827,119086,Spindelstr.,52.396313,13.094162
828,421000,Spindelstr.,52.39666,13.094482
829,177586,Sporthalle,52.382736,13.075401
830,18778,Sporthalle,52.382523,13.075649
831,213448,Sportplatz Bornim,52.425106,12.987065
832,45528,Sportplatz Bornim,52.425064,12.987535
833,254417,Stadtwerke,52.382656,13.140983
834,273009,Stadtwerke,52.38259,13.141081
835,310387,Stadtwerke,52.38193,13.141479
836,423618,Stadtwerke,52.381897,13.141508
837,187111,Stahnsd. Str./A.-Bebel-Str.,52.391953,13.123168
838,28074,Stahnsd. Str./A.-Bebel-Str.,52.39184,13.12314
839,212946,Steinstücken,52.388058,13.128725
840,180367,Stern-Center/Gerlachstr.,52.369686,13.134847
841,311168,Stern-Center/Gerlachstr.,52.36954,13.134725
842,144674,Stern-Center/Nuthestr.,52.372143,13.132524
843,224865,Stern-Center/Nuthestr.,52.37216,13.132328
844,68777,Stern-Center/Nuthestr.,52.37245,13.132174
845,89575,Stern-Center/Nuthestr.,52.371796,13.136798
846,118838,Sternwarte,52.40433,13.100483
847,421418,Sternwarte,52.403835,13.100504
848,175673,Studentenwohnheim Eiche,52.40564,13.010387
849,198854,Studentenwohnheim Eiche,52.405617,13.010335
850,131874,Studio Babelsberg,52.3877,13.122374
851,6892,Studio Babelsberg,52.38767,13.122367
852,139699,Telegrafenberg,52.382362,13.064138
853,296953,Telegrafenberg,52.382362,13.064166
854,272623,Templiner Eck,52.38341,13.053117
855,415667,Templiner Eck,52.38343,13.052659
856,168408,Thaerstr.,52.415142,13.025279
857,211280,Thaerstr.,52.41526,13.025237
858,317043,Thaerstr.,52.41511,13.02522
859,427520,Thaerstr.,52.41526,13.025195
860,172081,Theodor-Fontane-Str.,52.47078,13.103874
861,178482,Theodor-Fontane-Str.,52.470825,13.104022
862,447378,Theodor-Fontane-Str.,52.47076,13.103862
863,274787,Tornowstr.,52.38593,13.041886
864,432715,Tornowstr.,52.38588,13.04171
865,14548,Trebbiner Str.,52.361538,13.124736
866,165370,Trebbiner Str.,52.361496,13.124225
867,133112,Turmstr.,52.374744,13.123411
868,2431,Turmstr.,52.374657,13.122963
869,333688,TÜV-Akademie,52.434734,13.008957
870,9973,TÜV-Akademie,52.43491,13.009113
871,179861,Unter den Eichen,52.371243,13.09365
872,326967,Unter den Eichen,52.37113,13.093686
873,151866,Viereckremise,52.42256,13.050595
874,434701,Viereckremise,52.42408,13.051739
875,229242,Volkspark,52.419437,13.050317
876,277184,Volkspark,52.419655,13.050608
877,381830,Volkspark,52.418743,13.05037
878,447767,Volkspark,52.419067,13.05049
879,188533,Waldsiedlung Groß Glienicke,52.48641,13.124591
880,328683,Waldsiedlung Groß Glienicke,52.486336,13.125027
881,357237,Waldsiedlung Groß Glienicke,52.486332,13.124616
882,76015,Waldsiedlung Groß Glienicke,52.48639,13.125039
883,343548,Waldstr./Horstweg,52.37767,13.082768
884,76690,Waldstr./Horstweg,52.377983,13.082283
885,316428,Weinmeisterweg,52.42986,13.099468
886,396993,Weinmeisterweg,52.4298,13.099436
887,162961,Weißer See,52.437534,13.036258
888,387625,Weißer See,52.437702,13.036016
889,283541,Werderscher Damm/Forststr.,52.393715,13.011713
890,404595,Werderscher Damm/Forststr.,52.39315,13.011333
891,443316,Wiesenstr./Lotte-Pulewka-Str.,52.392925,13.080608
892,53767,Wiesenstr./Lotte-Pulewka-Str.,52.39289,13.080861
893,175935,Wublitzstr./Am Bahnhof,52.429783,12.972916
894,222297,Wublitzstr./Am Bahnhof,52.429363,12.972841
895,113325,Zedlitzberg,52.43756,13.078752
896,204753,Zedlitzberg,52.437233,13.078903
897,138592,Zum Bhf Pirschheide,52.377003,13.009713
898,400644,Zum Bhf Pirschheide,52.37644,13.00936
899,124546,Zum Großen Herzberg,52.4126,12.980815
900,307378,Zum Großen Herzberg,52.412495,12.981328
901,308415,Zum Heizwerk,52.362385,13.108397
902,420120,Zum Heizwerk,52.362766,13.106894
903,130934,Zum Kahleberg,52.368305,13.092144
904,20229,Zum Kahleberg,52.36846,13.091672
905,344307,Zum Kahleberg,52.368355,13.091793
906,445691,Zum Kahleberg,52.368702,13.091436
907,1791,Zum Telegrafenberg,52.38486,13.066694
908,49673,Zum Telegrafenberg,52.38486,13.066694
909,265523,Übergang,52.390472,13.081663
910,401153,Übergang,52.39049,13.082136
