node_id,stop_id,stop_name,stop_lat,stop_lon
0,165117,A.-Dürer-Schule,50.086952,8.218171
1,307808,A.-Schlüter-Straße,50.063576,8.266106
2,42760,A.-Schlüter-Straße,50.06448,8.265548
3,395899,A.-Schweitzer-Allee,50.04746,8.232145
4,401485,A.-Schweitzer-Allee,50.04756,8.232786
5,207071,A.-v.-Jawlensky-Schule,50.06819,8.192467
6,417253,A.-v.-Jawlensky-Schule,50.06819,8.192467
7,151083,Abeggstraße,50.094406,8.250081
8,31937,Abeggstraße,50.094444,8.250248
9,139195,Abraham-Lincoln-Str.,50.066525,8.269357
10,376488,Abraham-Lincoln-Str.,50.066998,8.267562
11,263674,Adelheidstraße,50.076218,8.238462
12,36771,Adelheidstraße,50.075405,8.237092
13,173949,Adlerstraße,50.086704,8.235306
14,67023,Adlerstraße,50.086678,8.235418
15,52211,Adolf-Todt-Straße,50.03728,8.2375
16,13535,Alfred-Delp-Straße,50.066418,8.157732
17,422498,Alfred-Delp-Straße,50.06653,8.159518
18,357217,Alt Auringen,50.12362,8.32525
19,389947,Alt Auringen,50.123222,8.326542
20,354834,Alte Dorfstraße,50.07753,8.372753
21,125406,Alte Schmelze,50.04811,8.208539
22,330622,Alte Schmelze,50.04821,8.209906
23,109767,Alwinenstraße,50.082283,8.25639
24,224870,Alwinenstraße,50.082077,8.254982
25,175998,Am Burgacker,50.11038,8.281804
26,186544,Am Burgacker,50.109978,8.281419
27,175801,Am Erbenheimer Feld,50.062927,8.322707
28,40203,Am Erbenheimer Feld,50.06271,8.323786
29,28882,Am Hang,50.079803,8.200809
30,453231,Am Hang,50.079914,8.201589
31,432918,Am Hochfeld,50.05809,8.290782
32,93954,Am Hochfeld,50.057816,8.291582
33,347702,Am Kupferberg,50.060253,8.245725
34,435295,Am Rathaus,50.07782,8.36962
35,49678,Am Rathaus,50.07782,8.369606
36,243984,Am Rheinbahnhof,50.037296,8.245666
37,342177,Am Rheinbahnhof,50.037334,8.245526
38,13819,Am Speiergarten,50.084694,8.28793
39,192540,Am Speiergarten,50.084522,8.288115
40,177658,Am Sportfeld,50.11011,8.338762
41,270525,Am Sportfeld,50.110218,8.338342
42,228920,Am Wald,50.115276,8.337517
43,2630,Am Wald,50.115276,8.337517
44,23272,Am Weinberg,50.125206,8.321578
45,337959,Am Weinberg,50.125305,8.321325
46,357660,Am Wiesenhang,50.08065,8.324847
47,446739,Am Wiesenhang,50.08069,8.324707
48,413628,"Amöneburg, Ch. Werke Albert",50.031822,8.250505
49,90346,"Amöneburg, Dyckerhoffstr.",50.03123,8.262497
50,452818,"Amöneburg, Niederfeldstraße",50.028927,8.256146
51,395699,An den drei Weiden,50.102753,8.344371
52,39648,An den drei Weiden,50.10285,8.345586
53,331954,An der Dietenmühle,50.090714,8.257196
54,417159,An der Dietenmühle,50.09082,8.257166
55,213837,Andreas-Hofer-Str.,50.052185,8.231888
56,317527,Andreas-Hofer-Str.,50.05257,8.231533
57,264126,Anne-Frank-Str.,50.08456,8.207856
58,353079,Anne-Frank-Str.,50.084488,8.207745
59,188047,Armenruhstraße,50.039726,8.238732
60,171529,August-Bebel-Str.,50.07205,8.185823
61,333417,August-Bebel-Str.,50.07202,8.18574
62,248933,August-Ruf-Straße,50.12261,8.325782
63,63237,August-Ruf-Straße,50.12257,8.325782
64,136440,Aukamm,50.092564,8.279513
65,274659,Aukamm,50.092632,8.279442
66,222043,Auringer Mühle,50.116558,8.326104
67,266763,Auringer Mühle,50.11655,8.326076
68,106681,Aussiedlerhöfe,50.06379,8.317918
69,418653,Aussiedlerhöfe,50.063667,8.318199
70,134896,Bahnhof Dotzheim,50.075832,8.204283
71,287404,Bahnhof Dotzheim,50.075836,8.204325
72,424469,Bahnhof Kastel,50.006996,8.283484
73,316129,Bahnholz,50.105743,8.242999
74,59615,Bahnholz,50.106075,8.243119
75,398291,Bahnübergang,50.028812,8.293041
76,300226,Barbarossastraße,50.053135,8.304092
77,417295,Barbarossastraße,50.0534,8.304758
78,138684,Bergstraße,50.097515,8.260668
79,202519,Bergstraße,50.0967,8.259842
80,173265,Berliner Straße,50.072445,8.255997
81,221467,Berliner Straße,50.07226,8.25667
82,306017,Berliner Straße,50.070824,8.259277
83,362435,Berliner Straße,50.071007,8.258743
84,218575,Bernsteinstraße,50.13326,8.298106
85,25219,Bernsteinstraße,50.133102,8.297871
86,320241,Bert-Brecht-Str.,50.057667,8.191443
87,334129,Bert-Brecht-Str.,50.05842,8.191346
88,148374,Berta-Cramer-Ring,50.045387,8.355804
89,193493,Berufsschulzentrum,50.069336,8.255919
90,87796,Berufsschulzentrum,50.067616,8.257049
91,95261,Berufsschulzentrum,50.067997,8.255982
92,203929,Bgm.-Schneider-Str.,50.06032,8.157518
93,266523,Bgm.-Schneider-Str.,50.060257,8.1577
94,239429,Bhf. Auringen-Medenb.,50.11509,8.333018
95,44065,Bhf. Auringen-Medenb.,50.11525,8.332931
96,10095,Bhf. Wiesbaden Ost,50.040695,8.255357
97,385733,Bhf. Wiesbaden Ost,50.0406,8.255693
98,107419,Biebrich Bahnhof,50.048084,8.237259
99,158753,Biebrich Bahnhof,50.04805,8.238433
100,104522,Biebrich Bergiusstraße NBiebrich,50.046124,8.220383
101,390699,Biebrich Bergiusstraße VBiebrich,50.046124,8.220383
102,95019,Biebrich Hagenauer Straße NBiebrichZentrum,50.0487,8.217354
103,124974,Biebrich Hagenauer Straße NSchiersteinZentr,50.0487,8.217354
104,180500,Biebrich Kahlemühle P + R NSchierstein,50.06243,8.216697
105,38852,Biebrich Kahlemühle P + R NWaldstraße,50.06243,8.216697
106,381436,Biebrich Karl-Bosch-Straße Ausstieg/Wartep.,50.042843,8.219082
107,247415,Biebrich Karl-Bosch-Straße NSchierstein,50.042843,8.219082
108,444514,Biebrich Waldstraße NWiZentrum,50.067684,8.223344
109,95912,Biebrich Waldstraße VWiZentrum,50.067684,8.223344
110,53984,"Biebrich, Adolf-Todt-Straße",50.037357,8.23756
111,306370,"Biebrich, Bf Wiesbaden Ost",50.04057,8.255805
112,333957,"Biebrich, Bf Wiesbaden Ost",50.04014,8.256056
113,429131,"Biebrich, Carl-Bosch-Straße",50.042805,8.219962
114,431685,"Biebrich, Chem.Fabrik Kreußler",50.04109,8.217582
115,27264,"Biebrich, Friedr.-Bergius-Str.",50.04631,8.22042
116,92438,"Biebrich, Glarusstraße",50.03461,8.242043
117,185086,"Biebrich, Hagenauer Str.",50.04863,8.215498
118,73090,"Biebrich, Kalle",50.03307,8.247397
119,193941,"Biebrich, Regattastraße",50.039284,8.225855
120,84803,"Biebrich, Rheinhütte",50.040134,8.221992
121,46767,"Biebrich, Rheinufer",50.036186,8.237407
122,416257,"Biebrich, Schloss",50.03764,8.230967
123,164582,"Biebrich, Wilhelm-Kopp-Straße",50.03686,8.238557
124,365899,"Biebrich, Äppelallee-Center",50.046486,8.21477
125,322613,Biebrich-Rheinufer,50.03604,8.237785
126,455148,Biebrich-Rheinufer,50.036255,8.237209
127,166536,Bleichstr./ Bismarckring,50.080597,8.230736
128,164436,Bleichstraße,50.08021,8.229513
129,182264,Bleichstraße,50.081013,8.229556
130,228924,Bleichwiesenstraße,50.052013,8.236974
131,43799,Bleichwiesenstraße,50.052067,8.238369
132,280610,Blumenstraße,50.080917,8.250515
133,360221,Blumenstraße,50.080807,8.250014
134,202754,Bornhofenweg,50.093876,8.218226
135,354939,Bornhofenweg,50.093555,8.21872
136,180954,Borsigstraße,50.05759,8.329359
137,196179,Borsigstraße,50.057583,8.329318
138,290318,Breckenheim Friedhof,50.075836,8.370359
139,114188,Brunhildenstraße,50.063427,8.259837
140,401962,Brunhildenstraße,50.06335,8.259182
141,167333,Bunsenstraße,50.042576,8.248222
142,280431,Bunsenstraße,50.042027,8.24823
143,417114,Bunsenstraße,50.04227,8.247347
144,431987,Buschungstraße,50.060135,8.301924
145,321400,Calvinstraße,50.06181,8.212518
146,422038,Calvinstraße,50.06182,8.212545
147,192109,Carl-Bosch-Straße,50.04285,8.218956
148,226345,Carl-Bosch-Straße,50.04283,8.219347
149,245997,Carl-Bosch-Straße,50.042866,8.218789
150,21136,Carl-v.-Linde-Straße,50.076317,8.209137
151,262367,Carl-v.-Linde-Straße,50.076706,8.209508
152,60950,Carl-v.-Linde-Straße,50.076286,8.20883
153,78453,Carl-v.-Linde-Straße,50.076096,8.20671
154,347921,Carl-v.-Ossietzky-Str.,50.082363,8.203421
155,419024,Carl-v.-Ossietzky-Str.,50.08265,8.203179
156,458694,Castellumstraße,50.016144,8.294106
157,213843,Chem.-Fabr.-Kreussler,50.04126,8.216776
158,217603,Chem.-Werke-Albert,50.032146,8.249794
159,208893,Daimlerring,50.0572,8.33382
160,241431,Daimlerring,50.057228,8.333498
161,396394,Dambachtal,50.091988,8.240043
162,88799,Dambachtal,50.09254,8.239685
163,32483,"Delkenheim, Domäne Mechtildsh.",50.0383,8.32414
164,250995,Dernsches Gelände,50.080544,8.242934
165,321710,Dernsches Gelände,50.080494,8.242153
166,86363,Dernsches Gelände,50.079685,8.242165
167,2696,Diesterwegschule,50.063522,8.228816
168,340937,Diesterwegschule,50.06298,8.229789
169,10405,Dotzh.Str./Bismarckring,50.07836,8.230912
170,13234,Dotzheim Mitte,50.07265,8.194963
171,244556,Dotzheim Mitte,50.072254,8.196115
172,25226,Dotzheim Mitte,50.0727,8.194445
173,373655,Dotzheim Mitte,50.07165,8.195035
174,107357,Dr.-H.-Schmidt-Kliniken,50.066277,8.191117
175,281891,Dr.-H.-Schmidt-Kliniken,50.06631,8.19099
176,54492,Dr.-H.-Schmidt-Kliniken,50.066257,8.190768
177,122212,Dreiweidenstraße,50.07804,8.227634
178,372210,Dresdener Ring,50.088306,8.284733
179,384050,Dresdener Ring,50.087715,8.285287
180,186221,Dyckerhoffstraße,50.03088,8.262682
181,356893,Dyckerhoffstraße,50.031845,8.262039
182,453904,Dyckerhoffstraße,50.030853,8.261538
183,136410,Dürerplatz,50.085526,8.226941
184,160463,Dürerplatz,50.08563,8.226157
185,292822,Dürerplatz,50.08561,8.225724
186,6557,Dürerplatz,50.0856,8.226325
187,75240,Dürerplatz,50.085766,8.226643
188,250953,E.-Brändström-Straße,50.040062,8.226875
189,54435,E.-Brändström-Straße,50.039738,8.226657
190,230359,Egerstraße,50.055084,8.299009
191,451564,Egerstraße,50.054832,8.299376
192,82405,Egerstraße,50.055164,8.298798
193,289504,Eichendorffschule,50.059578,8.199022
194,317772,Eichendorffschule,50.05947,8.199024
195,119949,Eichendorffweg,50.062874,8.336758
196,413537,Eichendorffweg,50.062687,8.338562
197,227468,Eifelstraße,50.047314,8.368958
198,2612,Eifelstraße,50.047115,8.367383
199,337965,Eigenheim,50.097656,8.249248
200,394086,Eigenheim,50.09774,8.24961
201,47529,Eleonorenstraße,50.012203,8.279277
202,59558,Eleonorenstraße,50.01135,8.279164
203,216925,Elsässer Platz,50.079803,8.222478
204,62424,Elsässer Platz,50.07996,8.222378
205,873,Eltviller Straße,50.077866,8.225625
206,36711,Emil-Krag-Straße,50.05921,8.30392
207,39670,Emil-Krag-Straße,50.0596,8.304264
208,215829,Entsorgungszentrum,50.042747,8.262822
209,326203,Entsorgungszentrum,50.042747,8.262849
210,121249,Ephy-Mess,50.04559,8.353554
211,194490,Ephy-Mess,50.047043,8.350854
212,229555,Ephy-Mess,50.043556,8.350147
213,372558,Ephy-Mess,50.045822,8.353174
214,230734,"Erbenheim, Am Hochfeld",50.05788,8.291378
215,291024,"Erbenheim, Barbarossastraße",50.053204,8.304512
216,72870,"Erbenheim, Egerstraße",50.055016,8.29922
217,114703,"Erbenheim, Flugplatz",50.0415,8.319666
218,206431,"Erbenheim, Friedhof",50.048405,8.301969
219,216605,"Erbenheim, Im Hahn",50.060818,8.283033
220,230574,"Erbenheim, Im Hahn",50.060905,8.282476
221,379828,"Erbenheim, Im Herzen",50.058643,8.289321
222,18979,"Erbenheim, Kreuzberger Ring",50.056507,8.295124
223,26145,"Erbenheim, Rennbahnstraße",50.05205,8.30718
224,185111,Erbsenacker,50.13068,8.29392
225,242226,Erbsenacker,50.128975,8.294281
226,87957,Erbsenacker,50.129948,8.293148
227,137672,Erfurter Straße,50.06789,8.338504
228,20931,Erich-Ollenhauer-Str.,50.05422,8.229301
229,370721,Erich-Ollenhauer-Str.,50.05421,8.229161
230,179859,Erlenstraße,50.080708,8.371734
231,66191,Erlenstraße,50.080807,8.371565
232,21571,Ernst-Göbel-Schule,50.096497,8.303758
233,396799,Ernst-Göbel-Schule,50.09647,8.30387
234,191450,Ernst-v.-Harnack-Str.,50.085537,8.20573
235,41794,Ernst-v.-Harnack-Str.,50.085815,8.204691
236,128898,Europaviertel,50.071484,8.223157
237,395829,Europaviertel,50.07145,8.223172
238,244056,F.-Knettenbrech-Weg,50.04327,8.25709
239,244764,F.-Knettenbrech-Weg,50.043217,8.257049
240,288981,Faaker Straße,50.055885,8.224414
241,371244,Faaker Straße,50.055923,8.224875
242,230660,Fasanenhof,50.071068,8.291638
243,9952,Fasanenhof,50.07077,8.29174
244,26171,Feldbergblick (Siedlung),50.12724,8.297691
245,434265,Fichtestraße,50.083035,8.259829
246,65187,Fichtestraße,50.082897,8.259636
247,111524,Finkenhof,50.081547,8.352819
248,25101,Finkenhof,50.08153,8.353043
249,230001,Fischerstraße,50.069008,8.240252
250,23611,Fischerstraße,50.06951,8.240007
251,306900,Flachstraße,50.080658,8.206243
252,365018,Flachstraße,50.07926,8.205763
253,90087,Flachstraße ht,50.08082,8.20455
254,380816,Fliednerschule,50.080105,8.28132
255,9749,Fliednerschule,50.080093,8.281376
256,422295,Floßhafen/Dow Corning,50.043217,8.208019
257,450737,Floßhafen/Dow Corning,50.04305,8.208776
258,265231,Fondetter Straße,50.134853,8.302055
259,34384,Fondetter Straße,50.134968,8.301033
260,450045,Fondetter Straße,50.13561,8.301946
261,161718,Fort Biehler,50.038742,8.298228
262,408303,Frauenstein Burg,50.065792,8.154838
263,447794,Frauenstein Burg,50.065796,8.15488
264,175342,Freiburger Straße,50.039936,8.361587
265,201025,Freiburger Straße,50.039864,8.36156
266,237932,Freizeitbad,50.05835,8.254958
267,245973,Freizeitbad,50.057934,8.256026
268,422550,Freizeitbad,50.057987,8.255773
269,426256,Freizeitbad,50.058292,8.255601
270,84011,Freizeitbad,50.05833,8.254791
271,319871,Freseniusstraße,50.096294,8.240268
272,71976,Freseniusstraße,50.09617,8.240061
273,25570,Friedenstraße,50.068325,8.263855
274,9571,Friedenstraße,50.06781,8.263625
275,397303,Friedhof Biebrich,50.047516,8.247754
276,10190,Friedhof Schierstein,50.044693,8.185141
277,136126,Friedhof Schierstein,50.044693,8.185141
278,196855,Friedhof Sonnenberg,50.09764,8.269192
279,24923,Friedhofstraße,50.066036,8.342399
280,299911,Friedhofstraße,50.066063,8.342287
281,295526,Friedrich-Bergius-Str.,50.046463,8.220336
282,400979,Friedrich-Bergius-Str.,50.045826,8.220486
283,28502,Friedrichstraße,50.080853,8.244899
284,390514,Gallierweg,50.057648,8.239384
285,417768,Gallierweg,50.05744,8.239722
286,188638,Gartenfeld,50.09252,8.301132
287,92191,Gartenfeld,50.093075,8.302983
288,162314,Gartenfeldstraße,50.06923,8.246506
289,33925,Gartenfeldstraße,50.069435,8.246405
290,142771,Gehrner Weg,50.090096,8.198066
291,72025,Gehrner Weg,50.090168,8.197031
292,148451,Geschw.-Scholl-Str.,50.09021,8.199001
293,284818,Geschw.-Scholl-Str.,50.09074,8.199188
294,38431,Geschw.-Scholl-Str.,50.08965,8.198801
295,338820,Geschw.-Stock-Platz,50.074116,8.242826
296,59008,Geschw.-Stock-Platz,50.07466,8.242761
297,404828,Gewerbeg. Delkenheim,50.042126,8.355932
298,354496,Ginsterweg,50.120228,8.332722
299,453256,Ginsterweg,50.120403,8.331993
300,213821,Glarusstraße,50.034397,8.243087
301,409115,Glarusstraße,50.034466,8.242709
302,385370,Glyco,50.049454,8.197584
303,401605,Glyco,50.04951,8.197933
304,207128,Gneisenaustraße,50.080322,8.224482
305,337786,Gneisenaustraße,50.080444,8.225318
306,156406,Goethestein,50.066467,8.164659
307,241154,Goethestein,50.066544,8.165161
308,200892,Goldackerweg,50.078938,8.287876
309,28129,Goldackerweg,50.07917,8.287649
310,310452,Goldsteintal,50.10907,8.268375
311,414894,Goldsteintal,50.109413,8.268873
312,394695,Gottfried-Kinkel-Str.,50.05889,8.242786
313,99447,Gottfried-Kinkel-Str.,50.058228,8.242936
314,195490,Graf-v.-Galen-Str.,50.092026,8.198803
315,211702,Graf-v.-Galen-Str.,50.092052,8.19904
316,291999,Graf-v.-Galen-Str.,50.092297,8.199343
317,317916,Graf-v.-Galen-Str.,50.091778,8.199282
318,373852,Grillparzerstraße,50.06764,8.235804
319,115123,Gustav-Mahler-Str.,50.088062,8.257251
320,428459,Gustav-Mahler-Str.,50.087467,8.257064
321,110769,Gymn. Mosbacher Berg,50.062546,8.237742
322,267835,Gymn. Mosbacher Berg,50.062492,8.237646
323,232853,Habichtweg,50.06104,8.336266
324,37407,Habichtweg,50.061047,8.336224
325,123365,Hagenauer Straße,50.0487,8.217214
326,406361,Hagenauer Straße,50.048714,8.2178
327,127984,Hallgarter Straße,50.006306,8.301071
328,394707,Hans-Bredow-Str.,50.077034,8.257938
329,49817,Hans-Bredow-Str.,50.07669,8.257831
330,176722,Hans-Böckler-Str.,50.07144,8.184059
331,213012,Hasengartenstraße,50.060024,8.259331
332,265880,Hasengartenstraße,50.059757,8.259461
333,10452,Hauptbahnhof,50.0715,8.243202
334,388441,Hauptbahnhof,50.071655,8.242487
335,55002,Hauptbahnhof,50.072075,8.243179
336,62952,Hauptbahnhof,50.07175,8.243086
337,275358,Heinrich-Zille-Straße,50.051373,8.192652
338,305870,Heinrich-Zille-Straße,50.051453,8.192888
339,214554,Heinz-Ranly-Straße,50.087276,8.205338
340,315887,Heinz-Ranly-Straße,50.087925,8.205215
341,135628,Helmholtzstraße,50.082554,8.195635
342,341516,Helmholtzstraße,50.083008,8.195041
343,290785,Heppenheimer Str.,50.040535,8.242851
344,315352,Heppenheimer Str.,50.04104,8.244183
345,262255,Hermann-Brill-Str.,50.091206,8.195826
346,446078,Hermann-Brill-Str.,50.090633,8.195207
347,127041,Hermann-Ehlers-Schule,50.060745,8.29598
348,456455,Hermann-Ehlers-Schule,50.061096,8.295989
349,221369,Hermann-Löns-Str.,50.05479,8.197146
350,424621,Hermann-Löns-Str.,50.054802,8.197453
351,159055,Herrnbergstraße,50.06241,8.154227
352,306137,Herrnbergstraße,50.062786,8.154039
353,125953,Herzogsplatz,50.046925,8.241019
354,152611,Herzogsplatz,50.046555,8.241039
355,119624,Heßloch,50.11099,8.296558
356,129289,Heßloch,50.110847,8.295777
357,97929,Heßloch,50.110817,8.296309
358,348022,Hildastraße,50.085094,8.260272
359,80611,Hildastraße,50.084328,8.259642
360,406429,Hinterbergstraße,50.08085,8.325976
361,233410,Hochheimer Straße,50.006313,8.289158
362,154323,Hochschule RheinMain,50.08155,8.218538
363,167475,Hochschule RheinMain,50.080822,8.218661
364,325489,Hochschule RheinMain,50.08067,8.218692
365,71902,Hochschule RheinMain,50.081593,8.21802
366,134005,Hockenberger Mühle,50.105865,8.316427
367,355077,Hockenberger Mühle,50.10574,8.316401
368,315144,Hof Erlenblick,50.08171,8.298453
369,40699,Hof Erlenblick,50.08169,8.298621
370,174140,Hof Niederfeld,50.07611,8.289692
371,290664,Hof Niederfeld,50.075912,8.289876
372,168515,Hofgartenplatz,50.10143,8.264312
373,314363,Hofgartenplatz,50.10117,8.264372
374,336732,Hofgartenplatz,50.101463,8.265164
375,45306,Hofgartenplatz,50.101845,8.264152
376,241473,Holsteinstraße,50.06411,8.234841
377,435308,Holsteinstraße,50.064816,8.234061
378,182013,Horchheimer Straße,50.061108,8.340916
379,25884,Horchheimer Straße,50.06102,8.340889
380,240555,Humboldtstraße,50.07871,8.248412
381,423831,Humboldtstraße,50.07862,8.248581
382,89205,Humperdinckstraße,50.094616,8.246346
383,99036,Humperdinckstraße,50.094913,8.246551
384,415641,Händelstraße,50.098232,8.243466
385,452681,Händelstraße,50.09825,8.242823
386,202748,Igstadter Straße,50.082233,8.294436
387,377477,Igstadter Straße,50.082207,8.294576
388,235318,Im Hahn,50.06072,8.282783
389,458120,Im Hahn,50.060627,8.283762
390,158861,Im Herzen,50.058887,8.288675
391,336390,Im Kreuzer,50.05931,8.212223
392,347595,Im Kreuzer,50.059177,8.212603
393,430303,Im Rosenfeld,50.046246,8.225561
394,82942,Im Rosenfeld,50.046253,8.225421
395,205505,Im Wiesengrund,50.070843,8.198681
396,421820,Im Wiesengrund,50.07078,8.198835
397,154084,J.-Goßner-Str.,50.016575,8.2755
398,248195,J.-Goßner-Str.,50.01747,8.274622
399,171413,J.-Sebastian-Bach-Str.,50.09146,8.254738
400,210816,J.-Sebastian-Bach-Str.,50.0914,8.254823
401,5813,Jawlenskystraße,50.087967,8.24114
402,5974,John-F.-Kennedy-Str.,50.0658,8.274103
403,64352,John-F.-Kennedy-Str.,50.06601,8.273304
404,102766,Juister Straße,50.062088,8.209496
405,240827,Juister Straße,50.062134,8.209426
406,154081,Junkernstraße,50.066154,8.339422
407,162925,Jägerstraße,50.064945,8.226433
408,450250,Jägerstraße,50.065174,8.226052
409,28983,Kahle Mühle P+R,50.062782,8.217767
410,433468,Kahle Mühle P+R,50.06301,8.215585
411,48372,Kahle Mühle P+R,50.062195,8.215877
412,56661,Kahle Mühle P+R,50.06175,8.217812
413,396092,Kalle,50.033295,8.246678
414,108542,Kallebad,50.056805,8.210016
415,450072,Kallebad,50.055847,8.209166
416,174739,Kappenbergweg,50.095783,8.278333
417,24668,Kappenbergweg,50.095333,8.278297
418,165795,Karawankenstraße,50.057255,8.219393
419,172825,Karawankenstraße,50.058792,8.218349
420,235836,Karl-Drebert-Str.,50.06168,8.302767
421,246675,Karl-Drebert-Str.,50.061558,8.302518
422,414919,Karl-Legien-Str.,50.06923,8.186863
423,66831,Karl-Legien-Str.,50.069836,8.185777
424,213965,Karlsbader Platz,50.074787,8.223383
425,285567,Karlsbader Platz,50.074947,8.223604
426,202090,"Kastel ,Euro-Palace",50.02937,8.277796
427,16018,Kastel Brückenkopf,50.00821,8.280676
428,413336,"Kastel, Anna-Birle-Straße",50.02376,8.277894
429,185753,"Kastel, Bahnhof",50.007027,8.283446
430,208892,"Kastel, Bahnhof",50.007126,8.283581
431,362200,"Kastel, Bahnübergang",50.02887,8.293076
432,257980,"Kastel, Brückenkopf",50.008186,8.280347
433,83662,"Kastel, Castellumstraße",50.01612,8.294127
434,49707,"Kastel, Eleonorenstraße",50.01177,8.279098
435,61488,"Kastel, Eleonorenstraße",50.011803,8.279215
436,363663,"Kastel, Ernst-Galonske-Straße",50.026066,8.290363
437,265968,"Kastel, Fort Biehler",50.038673,8.298214
438,398575,"Kastel, Fort Biehler",50.038742,8.297738
439,418478,"Kastel, Friedhof",50.01527,8.283743
440,130245,"Kastel, Fritz-Ullmann-Straße",50.028687,8.273089
441,112062,"Kastel, Georg-Beatzel-Straße",50.028297,8.283437
442,125376,"Kastel, Glacisweg",50.010986,8.291243
443,113377,"Kastel, Johannes-Goßner-Straße",50.01709,8.275038
444,401804,"Kastel, Krautgärten",50.01806,8.296939
445,311009,"Kastel, Lorenz-Schott-Straße",50.025707,8.276736
446,93745,"Kastel, Ludwigsplatz",50.012108,8.282027
447,49227,"Kastel, Mudra-Kaserne",50.026382,8.266019
448,47335,"Kastel, Otto-Suhr-Ring",50.019676,8.287803
449,413677,"Kastel, Paulusplatz",50.00809,8.28774
450,448917,"Kastel, Peter-Sander-Straße",50.029274,8.279763
451,271015,"Kastel, Ratsherrenweg",50.01436,8.298646
452,112817,"Kastel, Roonstraße",50.01025,8.283581
453,311140,"Kastel, Ruthof",50.02158,8.27025
454,395430,"Kastel, Römerstraße",50.01778,8.301646
455,261525,"Kastel, Steinern Straße",50.012825,8.294846
456,261222,Kasteler Straße,50.043392,8.250875
457,55132,Kasteler Straße,50.043217,8.251702
458,89925,Kasteler Straße,50.044254,8.252286
459,388774,Kath.Kirche Kohlheck,50.082024,8.194149
460,107244,Kesselbachstraße,50.087563,8.222492
461,121323,Kirchgasse,50.080296,8.238174
462,373750,Kirchgasse,50.08032,8.239068
463,137841,Kirschblütenstraße,50.068737,8.171562
464,177664,Kirschblütenstraße,50.06871,8.171493
465,371992,Kirschenbergstraße,50.107414,8.338394
466,60575,Kirschenbergstraße,50.10752,8.338379
467,2481,Klabundstraße,50.054672,8.191577
468,401185,Klabundstraße,50.055153,8.191806
469,39307,Klagenfurter Ring,50.0607,8.219798
470,144249,Klarenthal Alt-Klarenthal NKlarenthal,50.094376,8.198135
471,322247,Klarenthal Alt-Klarenthal VKlarenthal,50.094376,8.198135
472,172406,Klarenthal Heinz-Ranly-Straße NKlarenthal,50.087574,8.205319
473,400095,Klarenthal Heinz-Ranly-Straße NWi-Zentrum,50.087574,8.205319
474,292930,Klarenthal M.-Marxheimer-Str. NAlt-Klarenthal,50.092278,8.202754
475,113753,Klarenthal M.-Marxheimer-Str. NWi-Zentrum,50.092278,8.202754
476,105384,Kleinfeldchen,50.077026,8.216739
477,8833,Kleinfeldchen,50.077026,8.216823
478,305419,Klopstockstraße,50.069954,8.228113
479,373873,Klopstockstraße,50.069553,8.228636
480,194046,Klosterweg,50.08674,8.20047
481,348766,Klosterweg,50.086758,8.20135
482,447651,Klosterweg,50.087177,8.200099
483,343419,Kochbrunnen,50.08644,8.243121
484,83318,Kochbrunnen,50.086784,8.24299
485,247049,Konrad-Arndt-Str.,50.08946,8.20484
486,55535,Konrad-Arndt-Str.,50.08979,8.204709
487,255888,Konrad-Zuse-Straße,50.061626,8.329471
488,360503,Konrad-Zuse-Straße,50.061626,8.329471
489,96809,Konrad-Zuse-Straße,50.061626,8.329471
490,304499,Kornblumenweg,50.06172,8.188777
491,48634,Kornblumenweg,50.062267,8.189913
492,46519,"Kostheim, Hallenbad",50.009323,8.296005
493,125536,"Kostheim, Hallgarter Straße",50.006065,8.301188
494,383808,"Kostheim, Hallgarter Straße",50.007584,8.300694
495,51763,"Kostheim, Hallgarter Straße",50.006077,8.301161
496,96845,"Kostheim, Hallgarter Straße",50.007664,8.299912
497,148881,"Kostheim, Hochheimer Straße",50.00647,8.289016
498,360630,"Kostheim, Hochheimer Straße",50.006725,8.289123
499,387438,"Kostheim, Hochheimer Straße",50.00668,8.288629
500,389953,"Kostheim, Klagenfurter Straße",50.004784,8.290848
501,412757,"Kostheim, Linzer Straße",50.00759,8.294891
502,65619,"Kostheim, Linzer Straße",50.00769,8.294873
503,306467,"Kostheim, Luisenstraße",50.00112,8.300999
504,316879,"Kostheim, Mainbrücke",50.000595,8.308123
505,365292,"Kostheim, Rampe",50.002842,8.295448
506,56687,"Kostheim, Sampelweg",50.008038,8.304296
507,119742,"Kostheim, St.Veiter Platz",50.009205,8.299427
508,206645,"Kostheim, Steinern-Kreuz-Weg",50.008713,8.311213
509,354786,"Kostheim, Uthmannstraße",50.011444,8.298376
510,332432,"Kostheim, Viktoriastraße",50.00303,8.30126
511,110985,"Kostheim, Winterstraße",50.001705,8.307207
512,117858,Kreuzberger Ring,50.056755,8.294502
513,421920,Kreuzberger Ring,50.056515,8.295106
514,157704,Kreuzkirche,50.089718,8.221647
515,60178,Kreuzkirche,50.089836,8.221044
516,384218,Kriegerdenkmal,50.09102,8.236425
517,377264,Kriemhildenstraße,50.058926,8.26073
518,388069,Kriemhildenstraße,50.05901,8.261134
519,157804,Kuckucksweg,50.088257,8.188567
520,86271,Kuckucksweg,50.088295,8.188497
521,112530,Kureck,50.085865,8.245491
522,429932,Kureck,50.085915,8.245183
523,223596,Kurhaus/Theater,50.083466,8.244621
524,229952,Kurhaus/Theater,50.084087,8.244555
525,260045,Kurhaus/Theater,50.083714,8.244086
526,276236,Kurkliniken,50.09216,8.265782
527,306296,Kurkliniken,50.09296,8.265895
528,399353,Köpenicker Str.,50.061817,8.291816
529,439899,Köpenicker Str.,50.061745,8.291622
530,64895,Köpfchenweg,50.082153,8.29012
531,98862,Köpfchenweg,50.082077,8.289464
532,332473,Künstlerviertel,50.072033,8.217826
533,66217,L.-Werthmann-Haus,50.082737,8.192405
534,134640,Landesbibliothek,50.077667,8.237475
535,231193,Landesdenkmal,50.054672,8.243467
536,408182,Landesdenkmal,50.05496,8.243588
537,113200,Landeshaus,50.07218,8.237478
538,302438,Landeshaus,50.07175,8.239049
539,140402,Langenbeckplatz,50.074635,8.253937
540,206130,Langenbeckplatz,50.074036,8.254547
541,249934,Langendellschlag,50.07847,8.191359
542,253798,Langendellschlag,50.078594,8.191412
543,210452,Laurentiusstraße,50.13344,8.3043
544,45980,Laurentiusstraße,50.133797,8.303637
545,300531,Leberberg,50.085297,8.252179
546,313820,Leberberg,50.085342,8.252486
547,273677,Leipziger Straße,50.086514,8.283935
548,190374,Liebenaustraße,50.097054,8.264785
549,352354,Liebenaustraße,50.09681,8.265585
550,319089,Lindenweg,50.06378,8.352611
551,443571,Lindenweg,50.0638,8.352541
552,104782,Loreleiring,50.07776,8.220374
553,191767,Loreleiring,50.077488,8.221663
554,360371,Loreleiring,50.077175,8.220648
555,9259,Loreleiring,50.077316,8.219836
556,152672,Ludwig-Erhard-Str.,50.067432,8.189184
557,408329,Ludwig-Erhard-Str.,50.06739,8.188612
558,151722,Luisenplatz,50.07908,8.240163
559,262768,Luisenplatz,50.079056,8.239646
560,214529,Luisenstraße,50.00102,8.301259
561,368798,Luisenstraße,50.000515,8.302815
562,331279,Mainstraße,50.03853,8.239965
563,106588,Malmedyer Straße,50.048958,8.222055
564,272211,Malmedyer Straße,50.04892,8.22193
565,159764,Max-Planck-Ring,50.04394,8.354316
566,151753,Michelsberg,50.083435,8.235427
567,177189,Michelsberg,50.083023,8.235783
568,261682,Michelsberg,50.0836,8.23604
569,326472,Moriz-Marxheimer-Str.,50.09233,8.202697
570,82574,Moriz-Marxheimer-Str.,50.092224,8.202796
571,303851,Mudra-Kaserne,50.026863,8.265604
572,56387,Mudra-Kaserne,50.025772,8.266542
573,257694,Märchenland,50.067482,8.182394
574,47338,Märchenland,50.067448,8.182507
575,230180,Mühlberg,50.045166,8.359493
576,295281,Mühlberg,50.045944,8.360348
577,361988,Mühlberg,50.04576,8.360225
578,200061,Mühlwiese,50.1043,8.266407
579,229800,Münzenbergstraße,50.108376,8.336522
580,238902,Münzenbergstraße,50.107845,8.336948
581,323468,Nansenstraße,50.04297,8.228517
582,382820,Nansenstraße,50.04286,8.228449
583,81464,Naurod Schule,50.135597,8.308954
584,144610,Neckarstraße,50.045475,8.19007
585,238506,Neckarstraße,50.045452,8.189833
586,283256,Neckarstraße,50.04568,8.189927
587,212943,Nelkenweg,50.063503,8.196875
588,217672,Nelkenweg,50.063503,8.196875
589,44250,Nelkenweg,50.063496,8.197127
590,240720,Nerobergstraße,50.09338,8.234417
591,258324,Nerobergstraße,50.093246,8.234657
592,355816,Nerotal,50.095024,8.226061
593,46960,Nerotal,50.095135,8.226311
594,141225,Neuberg,50.089928,8.244212
595,310691,Neuberg,50.089478,8.244303
596,308873,Neufeldstraße,50.104687,8.339522
597,401339,Neufeldstraße,50.104374,8.339904
598,426779,Niederfeldstraße,50.030006,8.253945
599,237247,Niedernhausener Str.,50.115387,8.270404
600,392810,Niedernhausener Str.,50.11542,8.27039
601,335068,Nietzerfeld,50.06655,8.293758
602,88850,Nietzerfeld,50.066254,8.293958
603,140679,Nordenstadt Lindenweg NWallau,50.063774,8.352667
604,275297,Nordenstadt Lindenweg VWallau,50.063774,8.352667
605,270204,Nordenstadt Stolberger Straße NErbenheim,50.060616,8.344163
606,192701,Nordenstadt Stolberger Straße NNordenstadt,50.060616,8.344163
607,141953,Nordenstadt Wallauer Weg NNordenstadtZentr,50.063465,8.347755
608,256984,Nordenstadt Wallauer Weg VNordenstadtZentr,50.063465,8.347755
609,346014,Nordenstadt Westring,50.06856,8.334459
610,376868,Nordenstadt Westring,50.068264,8.334281
611,10414,Nordfriedhof,50.0967,8.221143
612,184392,Nordfriedhof,50.097027,8.220578
613,305076,Nordstrander Straße,50.064175,8.205761
614,383790,Nordstrander Straße,50.06414,8.205831
615,415432,Nußbaumstraße,50.064735,8.241339
616,77922,Nußbaumstraße,50.064384,8.241401
617,264606,Nürnberger Straße,50.041958,8.361322
618,33187,Nürnberger Straße,50.041904,8.361407
619,271475,Oberfeld,50.056168,8.307414
620,370828,Oberfeld,50.055935,8.307431
621,189503,Oderstraße,50.045826,8.18656
622,339867,Oderstraße,50.04548,8.18704
623,115623,Oranienhof,50.082054,8.310743
624,384268,Oranienhof,50.082027,8.311345
625,156092,Ostpreußenstraße,50.11288,8.272246
626,367341,Ostpreußenstraße,50.11288,8.272316
627,30809,Otto-Suhr-Ring,50.019665,8.287859
628,232570,Otto-von-Guericke-Ring,50.057083,8.337927
629,394849,Otto-von-Guericke-Ring,50.057102,8.338345
630,144003,Pagenstecherstraße,50.090645,8.236962
631,119376,Paul-Ehrlich-Straße,50.04606,8.231009
632,199940,Paul-Ehrlich-Straße,50.045677,8.230764
633,105217,Paul-Friedländer-Str.,50.048645,8.226416
634,455373,Paul-Friedländer-Str.,50.048637,8.22696
635,189465,Paulinen-Klinik,50.071507,8.226495
636,311695,Paulinen-Klinik,50.071175,8.227828
637,369952,Paulinen-Klinik,50.071068,8.226921
638,446932,Paulinen-Klinik,50.070957,8.227789
639,127655,Platz d. Dt. Einheit,50.080814,8.235022
640,222807,Platz d. Dt. Einheit,50.080902,8.236096
641,238779,Platz d. Dt. Einheit,50.079105,8.236348
642,287004,Platz d. Dt. Einheit,50.081238,8.236259
643,38672,Platz d. Dt. Einheit,50.079502,8.2363
644,39230,Plutoweg,50.085403,8.274702
645,80981,Plutoweg,50.085224,8.273433
646,167711,Polizeiakademie,50.08597,8.191694
647,217526,Polizeiakademie,50.086475,8.191028
648,269604,Polizeiakademie,50.086273,8.191507
649,380453,Polizeip.für Technik/IGS,50.072933,8.220675
650,95587,Polizeip.für Technik/IGS,50.073467,8.221156
651,194588,Poststraße,50.083515,8.282247
652,227980,Poststraße,50.082954,8.281403
653,276192,Prinz-Nikolas-Str.,50.100494,8.2461
654,370166,Prinz-Nikolas-Str.,50.100754,8.24597
655,174722,Raiffeisenplatz,50.066666,8.273336
656,216734,Raiffeisenplatz,50.06679,8.273446
657,393140,Raiffeisenplatz,50.06673,8.273391
658,394176,Raiffeisenplatz,50.066868,8.2735
659,165153,Raiffeisenstraße,50.085663,8.282047
660,222792,Raiffeisenstraße,50.085876,8.281639
661,109873,Rambach Kitzelberg,50.11961,8.276059
662,156927,Rambach Kitzelberg,50.119602,8.276241
663,27906,Rambach Kitzelberg,50.11937,8.276021
664,116667,Rampe,50.002525,8.296495
665,160892,Rathaus Biebrich,50.041386,8.239515
666,405721,Rathaus Schierstein,50.0456,8.195289
667,318973,Rathausplatz,50.047264,8.36216
668,356642,Rathausplatz,50.047237,8.362272
669,344989,Rathenauplatz,50.040054,8.240709
670,62391,Rathenauplatz,50.039795,8.240908
671,70065,Rathenauplatz,50.039867,8.241075
672,414466,Regattastraße,50.039307,8.225631
673,324914,Reichsapfelstraße,50.044697,8.196002
674,116554,Rheinblick,50.070934,8.178327
675,14899,Rheinblick,50.070156,8.178019
676,266221,Rheinblick,50.07017,8.177306
677,125820,Rheingaustraße,50.044235,8.204722
678,336825,Rheingaustraße,50.043613,8.204578
679,422865,Rheingaustraße,50.044216,8.204722
680,297766,Rheinhütte,50.040066,8.222142
681,217816,Rheinstraße,50.077168,8.242387
682,315003,Rheinstraße,50.07691,8.242558
683,252901,Riederbergstraße,50.084614,8.228953
684,411685,Riederbergstraße,50.084312,8.229671
685,329039,Rieslingstraße,50.08034,8.367422
686,151327,Ringkirche,50.07769,8.23007
687,304339,Ringkirche,50.07673,8.22996
688,143469,Robert-Krekel-Anlage,50.043644,8.241155
689,177596,Robert-Krekel-Anlage,50.043655,8.24054
690,431430,Robert-Krekel-Anlage,50.0441,8.241148
691,33256,Robert-Schumann-Schule,50.09061,8.249344
692,387486,Robert-Schumann-Schule,50.090656,8.249539
693,196718,Rosenheimer Straße,50.03813,8.357339
694,338752,Rosenheimer Straße,50.0377,8.357736
695,449049,Rosenheimer Straße,50.037758,8.357693
696,323147,Rossertstraße,50.11208,8.338596
697,366054,Rossertstraße,50.112198,8.338552
698,330791,Rostocker Straße,50.088,8.290984
699,361093,Rostocker Straße,50.08774,8.289632
700,201586,Rothenbergstraße,50.081585,8.367545
701,234861,Rothstraße,50.088272,8.230334
702,81795,Rothstraße,50.08804,8.230617
703,158020,Rudolf-Vogt-Straße,50.056038,8.247509
704,203074,Ruhbergstraße,50.091232,8.227659
705,86263,Ruhbergstraße,50.090794,8.228016
706,186059,Ruthof,50.02196,8.269921
707,24966,Ruthof,50.021282,8.270587
708,410136,Röderstraße,50.08901,8.239489
709,70508,Röderstraße,50.089275,8.239094
710,169018,Saarbrücker Allee,50.0478,8.205221
711,30849,Saarbrücker Allee,50.047855,8.205625
712,294756,Sanitas,50.094837,8.230662
713,451292,Sanitas,50.094852,8.231207
714,111270,Sankt-Gallus-Str.,50.081726,8.328828
715,378183,Sankt-Gallus-Str.,50.08201,8.32948
716,404587,Scheffelstraße,50.072033,8.235553
717,437405,Scheffelstraße,50.07183,8.237218
718,115946,Schelmengraben,50.072296,8.183081
719,209386,Schelmengraben,50.07192,8.183129
720,356137,Schelmengraben,50.073086,8.182341
721,369524,Schelmengraben,50.07176,8.183244
722,448927,Schenkendorfstraße,50.070354,8.235663
723,442529,Schierstein Alte Schmelze NBiebrich Zentr,50.04815,8.209083
724,137753,Schierstein Alte Schmelze NSchierstein Zent,50.04815,8.209083
725,415524,Schierstein Friedhof NNiederwalluf,50.044693,8.185141
726,427672,Schierstein Friedhof VNiederwalluf,50.044693,8.185141
727,25059,Schierstein Hafen,50.04276,8.20053
728,304455,Schierstein Hafen,50.042686,8.200154
729,261981,Schierstein Rathaus NNiederwalluf,50.04562,8.195638
730,5104,Schierstein Reichsapfelstraße NSchierstein,50.044743,8.195932
731,309894,Schierstein Saarbrücker Allee NBiebr.Zent.,50.047817,8.205291
732,182815,Schierstein Saarbrücker Allee NSchierst.Zen.,50.047817,8.205291
733,296162,Schierstein Zeilstraße A-NStadtmitte,50.04592,8.200422
734,100835,Schierstein Zeilstraße B-NSchierstein,50.04592,8.200422
735,78676,"Schierstein, Alte Schmelze",50.04817,8.20903
736,187514,"Schierstein, Neckarstraße",50.04562,8.189976
737,248727,"Schierstein, Oderstraße",50.04549,8.187084
738,280053,"Schierstein, Rathaus",50.045624,8.195573
739,166568,"Schierstein, Reichsapfelstraße",50.044933,8.195537
740,445266,"Schierstein, Saarbrücker Allee",50.047783,8.204933
741,295269,"Schierstein, Zeilstraße",50.046307,8.200765
742,446005,Schiersteiner Brücke,50.042053,8.21312
743,79110,Schiersteiner Brücke,50.042027,8.213302
744,167609,Schiersteiner Straße,50.073944,8.23189
745,214227,Schiersteiner Straße,50.073383,8.230279
746,329867,Schiersteiner Straße,50.07475,8.231375
747,210172,Schillerstraße,50.138233,8.30465
748,456981,Schillerstraße,50.138855,8.304739
749,451164,Schlachthof,50.066456,8.248533
750,221060,Schlagmühle,50.05067,8.374862
751,344121,Schlagmühle,50.050724,8.374945
752,295965,Schlagstraße,50.10474,8.266302
753,364044,Schleiermacherstraße,50.090874,8.264334
754,39751,Schleiermacherstraße,50.090424,8.263698
755,162969,Schloß Biebrich,50.037582,8.231158
756,29333,Schloß Biebrich,50.037487,8.231746
757,164315,Schwalbacher Str.,50.07888,8.236073
758,280113,Schwalbacher Str.,50.079296,8.236541
759,360294,Schwalbacher Str.,50.078476,8.2364
760,168867,Sedanplatz,50.082798,8.228857
761,313730,Sedanplatz,50.082756,8.229346
762,138561,Sickingenstraße,50.054035,8.224849
763,271713,Sickingenstraße,50.05404,8.2251
764,313978,Siegfriedring,50.064526,8.272768
765,89564,Siegfriedring,50.06489,8.272581
766,125080,Siemensstraße,50.058933,8.334773
767,167196,Siemensstraße,50.059284,8.335006
768,381594,Simeonhaus,50.089775,8.185803
769,433982,Simeonhaus,50.089622,8.185833
770,13057,Sonnenblumenweg,50.06453,8.184163
771,337529,Sonnenblumenweg,50.06511,8.183622
772,229645,Spandauer Straße,50.05977,8.290422
773,408788,Spandauer Straße,50.05938,8.290274
774,135124,St. Veiter Platz,50.009056,8.299552
775,34963,Stat. Bundesamt,50.072002,8.252581
776,370385,Stat. Bundesamt,50.072037,8.249829
777,14759,Stegerwaldstraße,50.070847,8.196529
778,216896,Stegerwaldstraße,50.070587,8.196715
779,30820,Steinberger Straße,50.06016,8.234736
780,399100,Steinberger Straße,50.059685,8.235707
781,400614,Steinberger Straße,50.060028,8.234961
782,137121,Steinbruch,50.106476,8.268638
783,420078,Steinbruch,50.10671,8.268565
784,131949,Stephan-Born-Str.,50.06859,8.191134
785,380158,Stephan-Born-Str.,50.068634,8.189932
786,34142,Stiegelstraße,50.094505,8.3064
787,395191,Stiegelstraße,50.0944,8.306528
788,115257,Stielstraße,50.05071,8.204629
789,156355,Stielstraße,50.05035,8.203685
790,306681,Stielstraße,50.050655,8.20456
791,341853,Stielstraße,50.05035,8.203406
792,367597,Stolberger Straße,50.06066,8.34419
793,76523,Stolberger Straße,50.060417,8.343858
794,446946,Straßenmühle,50.06747,8.207634
795,448824,Straßenmühle,50.06766,8.207086
796,342453,Südfriedhof,50.060852,8.267684
797,37673,Südfriedhof,50.060852,8.267684
798,416906,Südfriedhof,50.060944,8.268087
799,4482,Südfriedhof,50.060787,8.267978
800,129250,Talheim,50.09902,8.26284
801,263918,Talheim,50.09852,8.261841
802,361342,Tannenring,50.12575,8.335093
803,236960,Tannenstraße,50.061405,8.232509
804,75866,Tannenstraße,50.06135,8.232636
805,225335,Tannhäuserstraße,50.05187,8.242282
806,23573,Tannhäuserstraße,50.049587,8.241578
807,133264,Taunushof,50.080463,8.360127
808,318489,Taunushof,50.080414,8.360267
809,239468,Tennelbachstraße,50.093967,8.257327
810,254552,Tennelbachstraße,50.09468,8.257763
811,398088,Theodor-Haubach-Str.,50.08491,8.201101
812,55426,Theodor-Haubach-Str.,50.085106,8.200902
813,148845,Theodor-Heuss-Ring,50.061234,8.242148
814,185711,Theodor-Heuss-Ring,50.06096,8.242237
815,353472,Thermalbad,50.08858,8.261211
816,36803,Thermalbad,50.089172,8.262292
817,231035,Thomaestraße,50.090862,8.245217
818,409352,Thomaestraße,50.091362,8.244916
819,450646,Thomaestraße,50.09099,8.243958
820,262887,Trompeterstraße,50.11751,8.274133
821,39710,Trompeterstraße,50.117195,8.273579
822,159200,Tränkweg,50.09865,8.247219
823,200762,Tränkweg,50.097977,8.24737
824,245812,Tränkweg,50.098297,8.247994
825,297998,Tränkweg,50.09829,8.246834
826,333077,Töpferstraße,50.086647,8.287007
827,333357,Töpferstraße,50.08728,8.287473
828,393043,Töpferstraße,50.087204,8.287055
829,66279,Töpferstraße,50.086933,8.286933
830,102177,Unter den Eichen,50.096516,8.219594
831,332185,Unter den Eichen,50.096127,8.21907
832,54179,Uthmannstraße,50.011932,8.298129
833,111355,Varusstraße,50.05829,8.246524
834,115730,Venatorstraße,50.082527,8.286537
835,377604,Venatorstraße,50.083424,8.286119
836,99383,Venatorstraße,50.083183,8.286276
837,440363,Vogesenstraße,50.04916,8.192465
838,60887,Vogesenstraße,50.04885,8.193364
839,105957,Waldfriedhof,50.07483,8.182409
840,281462,Waldfriedhof,50.074883,8.182422
841,61329,Waldstraße,50.06799,8.223702
842,91157,Waldstraße,50.067585,8.22336
843,214272,Wallauer Weg,50.0638,8.348044
844,349318,Wallauer Weg,50.06363,8.347907
845,344045,Wandersmannstraße,50.054985,8.30535
846,66184,Wandersmannstraße,50.054996,8.30542
847,189063,Wartestraße,50.08448,8.266444
848,98673,Wartestraße,50.08448,8.266793
849,374997,Webergasse,50.084953,8.2413
850,397330,Webergasse,50.085316,8.241336
851,308530,Weglache,50.057922,8.296021
852,399509,Weglache,50.058426,8.295902
853,155629,Weidenbornstraße,50.06248,8.252757
854,177469,Weidenbornstraße,50.062607,8.252504
855,234429,Weilburger Tal,50.073776,8.189007
856,129089,Weimarer Straße,50.090473,8.286391
857,148680,Weingartenstraße,50.079346,8.328721
858,22435,Weingartenstraße,50.07929,8.328582
859,116421,Welfenstraße,50.06704,8.251513
860,19053,Welfenstraße,50.065964,8.250538
861,206788,Welfenstraße,50.065937,8.250427
862,45275,Welfenstraße,50.06703,8.251555
863,414069,Westerwaldstraße,50.086063,8.222293
864,303762,Wielandstraße,50.066753,8.232522
865,82439,Wielandstraße,50.06695,8.232393
866,93480,Wielandstraße,50.06698,8.232365
867,74851,Wiesbaden Aarstraße NTaunusstein,50.08895,8.218627
868,172864,Wiesbaden Aarstraße NWiZentrum,50.08895,8.218627
869,391038,Wiesbaden Aarstraße Ndürerplatz,50.08895,8.218627
870,24432,Wiesbaden Aarstraße Vdürerplatz,50.08895,8.218627
871,42581,Wiesbaden Adamstal NWiZentrum,50.10444,8.202328
872,355838,Wiesbaden Adamstal Ndürerplatz,50.10444,8.202328
873,419180,Wiesbaden Adamstal VWiZentrum,50.10444,8.202328
874,226771,Wiesbaden Adamstal Vdürerplatz,50.10444,8.202328
875,2007,Wiesbaden Berliner Straße A NWi Zentrum,50.0725,8.256918
876,378455,Wiesbaden Berliner Straße D VWi Zentrum,50.0725,8.256918
877,166090,Wiesbaden Berufsschulzentrum NWiZentrum,50.068108,8.256553
878,208390,Wiesbaden Berufsschulzentrum VWiZentrum,50.068108,8.256553
879,258546,Wiesbaden Bleichstraße NDürerplatz,50.080536,8.229578
880,81648,Wiesbaden Bleichstraße Ndürerplatz,50.080536,8.229578
881,163872,Wiesbaden Bleichstraße Nringkirche,50.080536,8.229578
882,285948,Wiesbaden Bleichstraße VDürerplatz,50.080536,8.229578
883,60224,Wiesbaden Chausseehaus NWI-Klarenthal,50.09715,8.169395
884,359965,Wiesbaden Chausseehaus VWI-Klarenthal,50.09715,8.169395
885,426575,Wiesbaden Dernsches Gelände NDotzheim,50.080482,8.242055
886,24392,Wiesbaden Dürerplatz A,50.08578,8.224701
887,87423,Wiesbaden Dürerplatz Bussteig A Veiserner hand A,50.08578,8.224701
888,199201,Wiesbaden Dürerplatz Bussteig D VEmser D,50.08578,8.224701
889,345414,Wiesbaden Dürerplatz D1,50.08578,8.224701
890,259429,Wiesbaden Eishaus NWiesbaden,50.096844,8.185725
891,381777,Wiesbaden Eishaus VWiesbaden,50.096844,8.185725
892,406258,Wiesbaden Elsässer Platz NKlarenthal,50.08031,8.22152
893,228109,Wiesbaden Elsässer Platz NWiZentrum,50.08031,8.22152
894,294670,Wiesbaden Fachhochschule A - NWi-1.Ring,50.081127,8.2186
895,73747,Wiesbaden Fachhochschule B - NKlarenthal,50.081127,8.2186
896,306578,Wiesbaden Fachhochschule D - NWi-Zentrum,50.081127,8.2186
897,387309,Wiesbaden Gneisenaustraße NKlarenthal,50.08046,8.224926
898,440819,Wiesbaden Gneisenaustraße NWiZentrum,50.08046,8.224926
899,174032,Wiesbaden Hauptbahnhof Bussteig 1 Bussteig 1,50.069477,8.244631
900,424799,Wiesbaden Hauptbahnhof Bussteig 3 Zob 3,50.069477,8.244631
901,305655,Wiesbaden Hauptbahnhof Bussteig A,50.069477,8.244631
902,380147,Wiesbaden Hauptbahnhof Bussteig B,50.069477,8.244631
903,200745,Wiesbaden Hauptbahnhof Haltestelle 1,50.069477,8.244631
904,212747,Wiesbaden Hauptbahnhof Haltestelle 3,50.069477,8.244631
905,361757,Wiesbaden Hauptbahnhof Haltestelle 4,50.069477,8.244631
906,318340,Wiesbaden Hauptbahnhof Haltestelle 5,50.069477,8.244631
907,90288,Wiesbaden Hauptbahnhof Vdotzheim_A,50.069477,8.244631
908,80964,Wiesbaden Joseph-Baum-Haus NWI-Klarenthal,50.094837,8.15648
909,389775,Wiesbaden Joseph-Baum-Haus VWI-Klarenthal,50.094837,8.15648
910,40593,Wiesbaden Kirchgasse A Kirchgasse,50.08033,8.239165
911,394941,Wiesbaden Knusperhäuschen NWiZentrum,50.094067,8.142071
912,60257,Wiesbaden Knusperhäuschen VWiZentrum,50.094067,8.142071
913,144697,Wiesbaden Landeshaus NWiesbaden Bhf,50.072456,8.238172
914,403598,Wiesbaden Landeshaus NWiesbaden Bhf,50.072456,8.238172
915,411483,Wiesbaden Landeshaus Vpl_d_dt_einheit,50.072456,8.238172
916,26750,Wiesbaden Nordfriedhof NWiZentrum,50.09702,8.221026
917,312400,Wiesbaden Paulinenstift Bus NWiZentrum,50.070686,8.227319
918,368821,Wiesbaden Paulinenstift Bus VWiZentrum,50.070686,8.227319
919,218807,Wiesbaden Platz d. Dt. Einheit A NStadtmitte,50.080788,8.236252
920,15921,Wiesbaden Platz d. Dt. Einheit Bussteig A Vmichelsberg A,50.080788,8.236252
921,454813,Wiesbaden Platz d. Dt. Einheit Bussteig C Nmichelsberg C,50.080788,8.236252
922,288879,Wiesbaden Platz d. Dt. Einheit Bussteig D Nbismarckring_D,50.080788,8.236252
923,295700,Wiesbaden Platz d. Dt. Einheit C NWiesbaden-Nord,50.080788,8.236252
924,56897,Wiesbaden Platz d. Dt. Einheit D VStadtmitte,50.080788,8.236252
925,193022,Wiesbaden Platz d. Dt. Einheit E Schwalb. Str.,50.080788,8.236252
926,282258,Wiesbaden Rheinstraße NInnenstadt,50.076954,8.242502
927,225816,Wiesbaden Rheinstraße/Rh.-M. CongressCenter Vhauptbahnhof,50.076954,8.242502
928,211347,Wiesbaden Ringkirche NWiZentrum,50.077267,8.230007
929,51764,Wiesbaden Ringkirche VWiZentrum,50.077267,8.230007
930,58688,Wiesbaden Schiersteiner Str. NBhfFriedrichRing,50.0744,8.231562
931,413264,Wiesbaden Schiersteiner Str. VBhfFriedrichRing,50.0744,8.231562
932,270956,Wiesbaden Schwalbacher Str./LuisenForum C Npl_d_dt_einheit_C,50.078938,8.236519
933,379163,Wiesbaden Schwalbacher Str./LuisenForum D Vpl_d_dt_einheit_D,50.078938,8.236519
934,2480,Wiesbaden Schwalbacher Straße VLandesbibliot.,50.078938,8.236519
935,265415,Wiesbaden Schwalbacher Straße VPl.d.D.Einheit,50.078938,8.236519
936,45081,Wiesbaden Schwalbacher Straße VPl.d.D.Einheit,50.078938,8.236519
937,89010,Wiesbaden Siegfriedring NErbenheim,50.064754,8.272583
938,62562,Wiesbaden Siegfriedring NWiZentrum,50.064754,8.272583
939,337264,Wiesbaden Stat.-Bundesamt NWiBahnhof,50.072025,8.251016
940,96427,Wiesbaden Stat.-Bundesamt VWiBahnhof,50.072025,8.251016
941,114689,Wiesbaden Unter den Eichen NWiZentrum,50.09628,8.219277
942,176893,Wiesbaden Wellritzmühle NHochschuleR.M.,50.0853,8.21075
943,308802,Wiesbaden Wellritzmühle VHochschuleR.M.,50.0853,8.21075
944,74305,Wiesbaden Wolkenbruch NWiZentrum,50.093666,8.223232
945,182669,Wiesbaden Wolkenbruch Nnordfriedhof,50.093666,8.223232
946,444667,Wiesbaden Wolkenbruch VWiZentrum,50.093666,8.223232
947,81708,Wiesbaden Wolkenbruch Vnordfriedhof,50.093666,8.223232
948,128003,"Wiesbaden, A.-Lincoln-Str.",50.06681,8.26813
949,342563,"Wiesbaden, Adelheidstraße",50.076057,8.238521
950,368186,"Wiesbaden, Adelheidstraße",50.075718,8.23703
951,426952,"Wiesbaden, Adlerstraße",50.086685,8.235647
952,174230,"Wiesbaden, Alb.-Dürer-Schule",50.086796,8.218857
953,94626,"Wiesbaden, Alt Klarenthal",50.094357,8.197953
954,239362,"Wiesbaden, Berliner Straße",50.07139,8.258248
955,302310,"Wiesbaden, Berliner Straße",50.07119,8.25876
956,384717,"Wiesbaden, Berufsschulzentrum",50.06795,8.256775
957,210160,"Wiesbaden, Brunhildenstraße",50.063488,8.26009
958,140477,"Wiesbaden, Dürerplatz",50.0856,8.226178
959,169379,"Wiesbaden, Dürerplatz",50.0855,8.226807
960,318423,"Wiesbaden, Eishaus",50.096916,8.185368
961,56529,"Wiesbaden, Fasaneriestraße",50.09072,8.211545
962,11397,"Wiesbaden, Freizeitbad",50.05842,8.254907
963,15000,"Wiesbaden, Freizeitbad",50.057926,8.255886
964,30096,"Wiesbaden, Freizeitbad",50.05842,8.254754
965,143962,"Wiesbaden, Friedenstraße",50.068134,8.264402
966,187743,"Wiesbaden, Gartenfeldstraße",50.06892,8.246714
967,397011,"Wiesbaden, Hasengartenstraße",50.060528,8.258976
968,109826,"Wiesbaden, Hauptbahnhof",50.071674,8.242851
969,356595,"Wiesbaden, Hauptbahnhof",50.07148,8.243112
970,437553,"Wiesbaden, Holbeinstraße",50.08818,8.214581
971,352400,"Wiesbaden, J.-F.-Kennedy-Str.",50.06584,8.273951
972,357774,"Wiesbaden, Kasteler Straße",50.043514,8.251439
973,442449,"Wiesbaden, Landesbibliothek",50.07767,8.237551
974,186382,"Wiesbaden, Landeshaus",50.072483,8.237452
975,248481,"Wiesbaden, Landeshaus",50.07172,8.239051
976,371762,"Wiesbaden, Michelsberg",50.084282,8.235961
977,52151,"Wiesbaden, Nordfriedhof",50.097065,8.220681
978,127439,"Wiesbaden, Pl. d. dt. Einheit",50.081112,8.236069
979,206614,"Wiesbaden, Pl. d. dt. Einheit",50.080933,8.236347
980,220378,"Wiesbaden, Pl. d. dt. Einheit",50.08007,8.236186
981,95104,"Wiesbaden, Pl. d. dt. Einheit",50.08085,8.235485
982,310967,"Wiesbaden, Riederbergstraße",50.084236,8.230095
983,317321,"Wiesbaden, Rothstraße",50.088,8.230724
984,205691,"Wiesbaden, Ruhbergstraße",50.090954,8.227903
985,59239,"Wiesbaden, Schwalbacher Str.",50.07873,8.236401
986,85670,"Wiesbaden, Schwalbacher Str.",50.07916,8.236563
987,167451,"Wiesbaden, Statistisches BA",50.072086,8.250586
988,286429,"Wiesbaden, Statistisches BA",50.071854,8.250631
989,63476,"Wiesbaden, Stollenweg",50.098766,8.186257
990,189792,"Wiesbaden, Tierpark Fasanerie",50.10395,8.189105
991,397629,"Wiesbaden, Weidenbornstr./JUVZ",50.06211,8.252796
992,59169,"Wiesbaden, Weidenbornstr./JUVZ",50.06216,8.252957
993,226321,"Wiesbaden, Welfenstraße",50.06648,8.250065
994,333955,"Wiesbaden, Welfenstraße",50.065968,8.250595
995,379288,"Wiesbaden, Welfenstraße",50.067028,8.251421
996,8774,"Wiesbaden, Welfenstraße",50.067005,8.251439
997,50948,"Wiesbaden, Westerwaldstraße",50.086075,8.222253
998,215050,"Wiesbaden, Wolkenbruch",50.094917,8.221768
999,249859,Wildsachsener Straße,50.10335,8.343175
1000,214750,Wilh.-Kempf-Haus,50.144646,8.307999
1001,92129,Wilh.-Kempf-Haus,50.144627,8.307817
1002,154704,Wilh.-Leuschner-Str.,50.07506,8.197521
1003,213961,Wilh.-Leuschner-Str.,50.075115,8.197939
1004,295436,Wilhelm-Hauff-Str.,50.06949,8.232744
1005,178620,Wilhelm-Kopp-Str.,50.03627,8.238116
1006,389574,Wilhelm-Kopp-Str.,50.036774,8.238555
1007,39018,Wilhelmstraße,50.079292,8.243918
1008,171409,Willi-Werner-Straße,50.06958,8.19838
1009,342782,Willi-Werner-Straße,50.069645,8.198323
1010,37859,Willy-Brandt-Allee,50.070107,8.22547
1011,415885,Willy-Brandt-Allee/VHS,50.06946,8.225746
1012,81720,Willy-Brandt-Allee/VHS,50.069515,8.226066
1013,259015,Winterstraße,50.001846,8.305822
1014,327963,Wolfsfeld,50.090446,8.283429
1015,364334,Wolfsfeld,50.090637,8.283999
1016,433276,Wolfsfeld,50.09072,8.284473
1017,33585,Wolkenbruch,50.093895,8.222893
1018,348463,Wolkenbruch,50.093525,8.223654
1019,36130,Wörther-See-Str.,50.05566,8.220075
1020,451621,Wörther-See-Str.,50.05589,8.221035
1021,87132,Wörther-See-Str.,50.055862,8.220658
1022,279196,Württembergstraße,50.0953,8.26878
1023,300646,Württembergstraße,50.095173,8.268601
1024,17957,Zeilstraße,50.045624,8.200105
1025,36174,Zeilstraße,50.046223,8.20064
1026,407040,Zeilstraße,50.0465,8.200887
1027,41175,Zeilstraße,50.046223,8.200836
1028,178591,Zieglerstraße,50.08463,8.277662
1029,375566,Zieglerstraße,50.084587,8.277774
1030,310630,Zietenring,50.08307,8.223962
1031,6644,Zietenring,50.083607,8.224932
1032,305090,Zweigstraße,50.099453,8.26718
1033,448813,Zweigstraße,50.099243,8.267043
1034,234798,Zwerchweg,50.040047,8.262039
1035,266824,Zwerchweg,50.04002,8.261984
1036,223632,Äppelallee,50.047447,8.230121
1037,303839,Äppelallee,50.047543,8.230064
1038,260283,Äppelallee-Center,50.04574,8.214442
1039,270168,Äppelallee-Center,50.046352,8.21439
1040,35153,Äppelallee-Center,50.04574,8.214442
1041,407126,Überm Wald,50.122494,8.334495
